{
 "type": "FeatureCollection",
 "features": [
  {
   "type": "Feature",
   "geometry": {
    "type": "Point",
    "coordinates": [
     126.9714409052,
     37.5756722533152
    ]
   },
   "properties": {
    "pid": "8612493",
    "name": "할매집",
    "phone": "02-735-2608",
    "source": "내자동 - 경복궁역 - 할매집",
    "address": "서울 종로구 사직로12길 1-5",
    "website": "http://place.map.daum.net/8612493",
    "category": "감자탕"
   }
  },
  {
   "type": "Feature",
   "geometry": {
    "type": "Point",
    "coordinates": [
     126.990953749184,
     37.5673249378612
    ]
   },
   "properties": {
    "pid": "8284119",
    "name": "동원집",
    "phone": "02-2265-1339",
    "source": "입정동 - 을지로 3가역 - 동원집",
    "address": "서울 중구 을지로11길 22",
    "website": "http://place.map.daum.net/8284119",
    "category": "감자탕"
   }
  },
  {
   "type": "Feature",
   "geometry": {
    "type": "Point",
    "coordinates": [
     126.903597032527,
     37.5604455631322
    ]
   },
   "properties": {
    "pid": "19478261",
    "name": "고향집감자탕 마포구청역점",
    "phone": "02-336-9926",
    "source": "망원동 - 망원역 - 고향집",
    "address": "서울 마포구 방울내로 75",
    "website": "http://place.map.daum.net/19478261",
    "category": "감자탕"
   }
  },
  {
   "type": "Feature",
   "geometry": {
    "type": "Point",
    "coordinates": [
     126.835037273973,
     37.5478205929226
    ]
   },
   "properties": {
    "pid": "11927054",
    "name": "마반장 화곡본점",
    "phone": "02-6052-7112",
    "source": "화곡동 - 우장산역 - 마반장",
    "address": "서울 강서구 강서로45길 19",
    "website": "http://place.map.daum.net/11927054",
    "category": "감자탕"
   }
  },
  {
   "type": "Feature",
   "geometry": {
    "type": "Point",
    "coordinates": [
     126.923075900368,
     37.5578181381844
    ]
   },
   "properties": {
    "pid": "9338527",
    "name": "이대조뼈다귀",
    "phone": "02-324-9797",
    "source": "동교동 - 홍대입구역 - 이대조뼈다귀",
    "address": "서울 마포구 동교로 200",
    "website": "http://place.map.daum.net/9338527",
    "category": "감자탕"
   }
  },
  {
   "type": "Feature",
   "geometry": {
    "type": "Point",
    "coordinates": [
     127.000371341796,
     37.5822781916363
    ]
   },
   "properties": {
    "pid": "21408449",
    "name": "명륜감자탕",
    "phone": "02-763-1723",
    "source": "혜화동 - 혜화역 - 명륜감자탕",
    "address": "서울 종로구 대학로11길 24",
    "website": "http://place.map.daum.net/21408449",
    "category": "감자탕"
   }
  },
  {
   "type": "Feature",
   "geometry": {
    "type": "Point",
    "coordinates": [
     127.096818663722,
     37.5038047037984
    ]
   },
   "properties": {
    "pid": "9427365",
    "name": "주은감자탕",
    "phone": "02-413-3670",
    "source": "삼전동 - 석촌역 - 주은감자탕",
    "address": "서울 송파구 삼학사로 73",
    "website": "http://place.map.daum.net/9427365",
    "category": "감자탕"
   }
  },
  {
   "type": "Feature",
   "geometry": {
    "type": "Point",
    "coordinates": [
     127.106626398492,
     37.5007004037218
    ]
   },
   "properties": {
    "pid": "12060027",
    "name": "풍년뼈다귀해장국",
    "phone": "02-415-0631",
    "source": "석촌동 - 송파역 - 풍년뼈다귀해장국",
    "address": "서울 송파구 가락로 94",
    "website": "http://place.map.daum.net/12060027",
    "category": "감자탕"
   }
  },
  {
   "type": "Feature",
   "geometry": {
    "type": "Point",
    "coordinates": [
     127.10528669869,
     37.5001970421752
    ]
   },
   "properties": {
    "pid": "9847850",
    "name": "송파감자국",
    "phone": "02-416-7350",
    "source": "석촌동 - 송파역 - 송파감자국",
    "address": "서울 송파구 가락로 82",
    "website": "http://place.map.daum.net/9847850",
    "category": "감자탕"
   }
  },
  {
   "type": "Feature",
   "geometry": {
    "type": "Point",
    "coordinates": [
     127.05440457812,
     37.5428308422967
    ]
   },
   "properties": {
    "pid": "13289056",
    "name": "소문난성수감자탕",
    "phone": "02-465-6580",
    "source": "성수동 - 성수역 - 소문난감자탕",
    "address": "서울 성동구 연무장길 45",
    "website": "http://place.map.daum.net/13289056",
    "category": "감자탕"
   }
  },
  {
   "type": "Feature",
   "geometry": {
    "type": "Point",
    "coordinates": [
     127.069280850119,
     37.5414787602019
    ]
   },
   "properties": {
    "pid": "7834861",
    "name": "돕",
    "phone": "02-499-2838",
    "source": "화양동 - 건대입구역 - 돕감자탕",
    "address": "서울 광진구 아차산로31길 9",
    "website": "http://place.map.daum.net/7834861",
    "category": "감자탕"
   }
  },
  {
   "type": "Feature",
   "geometry": {
    "type": "Point",
    "coordinates": [
     127.055713032337,
     37.6709005073584
    ]
   },
   "properties": {
    "pid": "10853199",
    "name": "천하뼈다귀감자탕",
    "phone": "02-933-9897",
    "source": "상계동 - 수락산역 - 천하뼈다귀 감자탕",
    "address": "서울 노원구 동일로 1595",
    "website": "http://place.map.daum.net/10853199",
    "category": "감자탕"
   }
  },
  {
   "type": "Feature",
   "geometry": {
    "type": "Point",
    "coordinates": [
     126.939822070199,
     37.4839384231377
    ]
   },
   "properties": {
    "pid": "16044502",
    "name": "훈이네해장국",
    "phone": "02-888-2047",
    "source": "봉천동 - 봉천역 - 훈이네 해장국",
    "address": "서울 관악구 봉천로 360",
    "website": "http://place.map.daum.net/16044502",
    "category": "감자탕"
   }
  },
  {
   "type": "Feature",
   "geometry": {
    "type": "Point",
    "coordinates": [
     126.924167189747,
     37.5620246969879
    ]
   },
   "properties": {
    "pid": "15757802",
    "name": "송가네감자탕 본점",
    "phone": "02-3141-6557",
    "source": "연남동 - 홍대입구역 - 송가네",
    "address": "서울 마포구 동교로 247",
    "website": "http://place.map.daum.net/15757802",
    "category": "감자탕"
   }
  },
  {
   "type": "Feature",
   "geometry": {
    "type": "Point",
    "coordinates": [
     126.87620046343812,
     37.54676810261061
    ]
   },
   "properties": {
    "pid": "16907787",
    "name": "돌쇠감자탕순대국 본점",
    "phone": "02-2646-3457",
    "source": "목동 - 목동역 - 돌쇠감자탕",
    "address": "서울 양천구 공항대로 642",
    "website": "http://place.map.daum.net/16907787",
    "category": "감자탕"
   }
  },
  {
   "type": "Feature",
   "geometry": {
    "type": "Point",
    "coordinates": [
     126.93293184091,
     37.5471635405063
    ]
   },
   "properties": {
    "pid": "17829713",
    "name": "도마다리뼈다귀전문점",
    "phone": "02-707-2213",
    "source": "도화동 - 마포역 - 도마다리 감자탕",
    "address": "서울 마포구 독막로 174",
    "website": "http://place.map.daum.net/17829713",
    "category": "감자탕"
   }
  },
  {
   "type": "Feature",
   "geometry": {
    "type": "Point",
    "coordinates": [
     127.083950880955,
     37.5100458987322
    ]
   },
   "properties": {
    "pid": "8903070",
    "name": "대한네",
    "phone": "02-423-8854",
    "source": "잠실본동 - 신천역 - 대한네 감자탕",
    "address": "서울 송파구 백제고분로9길 43",
    "website": "http://place.map.daum.net/8903070",
    "category": "감자탕"
   }
  },
  {
   "type": "Feature",
   "geometry": {
    "type": "Point",
    "coordinates": [
     126.91692577557518,
     37.58745399608353
    ]
   },
   "properties": {
    "pid": "8054829",
    "name": "이화감자국",
    "phone": "02-307-4723",
    "source": "응암동 - 증산역 - 이화감자국",
    "address": "서울 은평구 응암로 174-1",
    "website": "http://place.map.daum.net/8054829",
    "category": "감자탕"
   }
  },
  {
   "type": "Feature",
   "geometry": {
    "type": "Point",
    "coordinates": [
     126.91681372321,
     37.587420580446
    ]
   },
   "properties": {
    "pid": "13279954",
    "name": "시조시골감자국",
    "phone": "02-302-8484",
    "source": "응암동 - 증산역 - 시골감자국",
    "address": "서울 은평구 응암로 174",
    "website": "http://place.map.daum.net/13279954",
    "category": "감자탕"
   }
  },
  {
   "type": "Feature",
   "geometry": {
    "type": "Point",
    "coordinates": [
     126.92694839825,
     37.6022756264112
    ]
   },
   "properties": {
    "pid": "7945775",
    "name": "서부감자국",
    "phone": "02-356-4555",
    "source": "녹번동 - 역촌역, 녹번역 - 서부감자국",
    "address": "서울 은평구 서오릉로 8",
    "website": "http://place.map.daum.net/7945775",
    "category": "감자탕"
   }
  },
  {
   "type": "Feature",
   "geometry": {
    "type": "Point",
    "coordinates": [
     126.892886854095,
     37.5215996523882
    ]
   },
   "properties": {
    "pid": "813041864",
    "name": "미야네미나리감자탕",
    "phone": "02-2636-8988",
    "source": "당산동 - 영등포구청역 - 별난감자탕",
    "address": "서울 영등포구 영등포로 106",
    "website": "http://place.map.daum.net/813041864",
    "category": "감자탕"
   }
  },
  {
   "type": "Feature",
   "geometry": {
    "type": "Point",
    "coordinates": [
     127.01768121541681,
     37.590790382910626
    ]
   },
   "properties": {
    "pid": "1755515956",
    "name": "태조감자국 성신여대점",
    "phone": "02-921-7667",
    "source": "동소문동 - 성신여대입구역 - 태조감자국",
    "address": "서울 성북구 보문로34길 43",
    "website": "http://place.map.daum.net/1755515956",
    "category": "감자탕"
   }
  },
  {
   "type": "Feature",
   "geometry": {
    "type": "Point",
    "coordinates": [
     127.074075998904,
     37.5938128810558
    ]
   },
   "properties": {
    "pid": "16474865",
    "name": "박가뼈다귀감자탕 본점",
    "phone": "02-496-1600",
    "source": "장안동 - 장한평역 - 박가뼈다귀 감자탕",
    "address": "서울 중랑구 망우로 193",
    "website": "http://place.map.daum.net/16474865",
    "category": "감자탕"
   }
  },
  {
   "type": "Feature",
   "geometry": {
    "type": "Point",
    "coordinates": [
     127.010774139889,
     37.5556983312281
    ]
   },
   "properties": {
    "pid": "8632941",
    "name": "가나안뼈해장탕",
    "phone": "02-2234-5200",
    "source": "신당동 - 약수역 - 가나안 뼈 해장탕",
    "address": "서울 중구 다산로 131",
    "website": "http://place.map.daum.net/8632941",
    "category": "감자탕"
   }
  },
  {
   "type": "Feature",
   "geometry": {
    "type": "Point",
    "coordinates": [
     127.043270693594,
     37.5671767994139
    ]
   },
   "properties": {
    "pid": "1601056338",
    "name": "마장감자탕",
    "phone": "02-2242-2020",
    "source": "마장동 - 마장역 - 마장감자탕",
    "address": "서울 성동구 마장로35나길 40",
    "website": "http://place.map.daum.net/1601056338",
    "category": "감자탕"
   }
  },
  {
   "type": "Feature",
   "geometry": {
    "type": "Point",
    "coordinates": [
     127.029419376135,
     37.6100142490361
    ]
   },
   "properties": {
    "pid": "24991982",
    "name": "장수감자탕",
    "phone": "02-980-1003",
    "source": "길음동 - 길음역 - 장수감자탕",
    "address": "서울 성북구 도봉로3길 9-10",
    "website": "http://place.map.daum.net/24991982",
    "category": "감자탕"
   }
  },
  {
   "type": "Feature",
   "geometry": {
    "type": "Point",
    "coordinates": [
     126.981802091279,
     37.5725496553326
    ]
   },
   "properties": {
    "pid": "27395678",
    "name": "철이네감자탕 종로점",
    "phone": "02-736-5240",
    "source": "수송동 - 광화문역 - 듬뿍담뿍 철이네",
    "address": "서울 종로구 삼봉로 81",
    "website": "http://place.map.daum.net/27395678",
    "category": "감자탕"
   }
  },
  {
   "type": "Feature",
   "geometry": {
    "type": "Point",
    "coordinates": [
     126.990917212,
     37.5699270104242
    ]
   },
   "properties": {
    "pid": "9820808",
    "name": "삼해집",
    "phone": "02-2273-0266",
    "source": "관수동 - 종로3가역 - 삼해집",
    "address": "서울 종로구 수표로20길 16-15",
    "website": "http://place.map.daum.net/9820808",
    "category": "감자탕"
   }
  },
  {
   "type": "Feature",
   "geometry": {
    "type": "Point",
    "coordinates": [
     127.004577790324,
     37.5727672079731
    ]
   },
   "properties": {
    "pid": "8313401",
    "name": "방아다리감자국",
    "phone": "02-747-8741",
    "source": "종로 6가 - 종로 5가역 - 방아다리감자국",
    "address": "서울 종로구 종로39길 50",
    "website": "http://place.map.daum.net/8313401",
    "category": "감자탕"
   }
  },
  {
   "type": "Feature",
   "geometry": {
    "type": "Point",
    "coordinates": [
     127.041797548358,
     37.6855886097781
    ]
   },
   "properties": {
    "pid": "12450198",
    "name": "영수네감자국",
    "phone": "02-955-3917",
    "source": "도봉동 - 도봉산역 - 영수네 감자국",
    "address": "서울 도봉구 도봉로181길 86",
    "website": "http://place.map.daum.net/12450198",
    "category": "감자탕"
   }
  },
  {
   "type": "Feature",
   "geometry": {
    "type": "Point",
    "coordinates": [
     127.024803338872,
     37.5015820540518
    ]
   },
   "properties": {
    "pid": "13300618",
    "name": "전주해장국",
    "phone": "02-3482-3602",
    "source": "서초동 - 강남역 - 전주해장국",
    "address": "서울 서초구 서초대로77길 45",
    "website": "http://place.map.daum.net/13300618",
    "category": "감자탕"
   }
  },
  {
   "type": "Feature",
   "geometry": {
    "type": "Point",
    "coordinates": [
     127.018369421043,
     37.5149649537476
    ]
   },
   "properties": {
    "pid": "11132641",
    "name": "숏다리",
    "phone": "02-515-0444",
    "source": "잠원동 - 신사역 - 숏다리",
    "address": "서울 서초구 강남대로99길 21",
    "website": "http://place.map.daum.net/11132641",
    "category": "감자탕"
   }
  },
  {
   "type": "Feature",
   "geometry": {
    "type": "Point",
    "coordinates": [
     126.905803093485,
     37.5809864256695
    ]
   },
   "properties": {
    "pid": "20746593",
    "name": "신미가숯불갈비",
    "phone": "02-306-4050",
    "source": "신사동 - 압구정역 - 신미식당",
    "address": "서울 은평구 증산로 253",
    "website": "http://place.map.daum.net/20746593",
    "category": "감자탕"
   }
  },
  {
   "type": "Feature",
   "geometry": {
    "type": "Point",
    "coordinates": [
     127.023380719675,
     37.5235884703196
    ]
   },
   "properties": {
    "pid": "8148270",
    "name": "할머니현대낙지 아구감자탕",
    "phone": "02-544-8020",
    "source": "신사동 - 압구정역 - 할머니 현대낙지",
    "address": "서울 강남구 압구정로14길 11",
    "website": "http://place.map.daum.net/8148270",
    "category": "감자탕"
   }
  },
  {
   "type": "Feature",
   "geometry": {
    "type": "Point",
    "coordinates": [
     126.903150847561,
     37.4538347181964
    ]
   },
   "properties": {
    "pid": "23210619",
    "name": "우리집 순대국",
    "phone": "02-802-6179",
    "source": "시흥동 - 금천구청역 - 우리집 순대국",
    "address": "서울 금천구 금하로 650",
    "website": "http://place.map.daum.net/23210619",
    "category": "감자탕"
   }
  },
  {
   "type": "Feature",
   "geometry": {
    "type": "Point",
    "coordinates": [
     126.855788888323,
     37.490208830124296
    ]
   },
   "properties": {
    "pid": "9317159",
    "name": "오렌지감자탕",
    "phone": "02-2683-6900",
    "source": "개봉동 - 개봉역 - 오렌지 감자탕",
    "address": "",
    "website": "http://place.map.daum.net/9317159",
    "category": "감자탕"
   }
  },
  {
   "type": "Feature",
   "geometry": {
    "type": "Point",
    "coordinates": [
     126.928926735711,
     37.512948374532
    ]
   },
   "properties": {
    "pid": "9155384",
    "name": "송백목감자탕 대방점",
    "phone": "02-825-1522",
    "source": "대방동 - 대방역 - 송백목감자탕",
    "address": "서울 동작구 노량진로 26",
    "website": "http://place.map.daum.net/9155384",
    "category": "감자탕"
   }
  },
  {
   "type": "Feature",
   "geometry": {
    "type": "Point",
    "coordinates": [
     126.979597352029,
     37.4880786046359
    ]
   },
   "properties": {
    "pid": "27283357",
    "name": "백암집",
    "phone": "02-599-6899",
    "source": "사당동 - 이수역 - 백암집",
    "address": "서울 동작구 동작대로27길 50",
    "website": "http://place.map.daum.net/27283357",
    "category": "감자탕"
   }
  }
 ]
}