{"type": "FeatureCollection","features": [
  {"type": "Feature", "geometry": {"type": "Point", "coordinates": [127.036235981439, 37.5229941682047]}, "properties": {"name": "\uac13\ud3ec\uc544\ud0a4 \ub3c4\uc0b0\uacf5\uc6d0\uc810", "address": "\uc11c\uc6b8 \uac15\ub0a8\uad6c \ub3c4\uc0b0\ub300\ub85c45\uae38 8-3", "website": "http://place.map.daum.net/19381618", "phone": "02-540-8669", "source": "\uc2e0\uc0ac\ub3d9 - \uc555\uad6c\uc815\ub85c\ub370\uc624\uc5ed - \uac13\ud3ec\uc544\ud0a4", "pid": "19381618"}}
  ,{"type": "Feature", "geometry": {"type": "Point", "coordinates": [127.037381763147, 37.524925560287]}, "properties": {"name": "\uac13\ud3ec\ub808\uc774", "address": "\uc11c\uc6b8 \uac15\ub0a8\uad6c \uc120\ub989\ub85c153\uae38 26", "website": "http://place.map.daum.net/27388183", "phone": "02-511-3897", "source": "\uc2e0\uc0ac\ub3d9 - \uc555\uad6c\uc815\ub85c\ub370\uc624\uc5ed - \uac13\ud3ec\ub808\uc774", "pid": "27388183"}}
  ,{"type": "Feature", "geometry": {"type": "Point", "coordinates": [127.037680643756, 37.5253723624154]}, "properties": {"name": "\uc774\uce58\uc5d0", "address": "\uc11c\uc6b8 \uac15\ub0a8\uad6c \uc120\ub989\ub85c155\uae38 23-3", "website": "http://place.map.daum.net/18835270", "phone": "070-4273-4087", "source": "\uc2e0\uc0ac\ub3d9 - \uc555\uad6c\uc815\ub85c\ub370\uc624\uc5ed - \uc774\uce58\uc5d0", "pid": "18835270"}}
  ,{"type": "Feature", "geometry": {"type": "Point", "coordinates": [127.024527969382, 37.5171658883358]}, "properties": {"name": "\uc74c\uc138\uc774\ub85c\ubb34\uc2dc", "address": "\uc11c\uc6b8 \uac15\ub0a8\uad6c \ub17c\ud604\ub85c149\uae38 51", "website": "http://place.map.daum.net/25118174", "phone": "02-540-4777", "source": "\uc2e0\uc0ac\ub3d9 - \uc2e0\uc0ac\uc5ed \uc138\uc774\ub85c\ubb34\uc2dc \uc74c", "pid": "25118174"}}
  ,{"type": "Feature", "geometry": {"type": "Point", "coordinates": [127.02483171607, 37.5189678315501]}, "properties": {"name": "\uac13\ud3ec\ub124\uae30", "address": "\uc11c\uc6b8 \uac15\ub0a8\uad6c \uac15\ub0a8\ub300\ub85c152\uae38 70", "website": "http://place.map.daum.net/27347001", "phone": "", "source": "\uc2e0\uc0ac\ub3d9 - \uc2e0\uc0ac\uc5ed - \uac13\ud3ec\ub124\uae30", "pid": "27347001"}}
  ,{"type": "Feature", "geometry": {"type": "Point", "coordinates": [127.030016693245, 37.5180620203857]}, "properties": {"name": "\ub450\uc0ac\ub77c 2\ud638\uc810", "address": "\uc11c\uc6b8 \uac15\ub0a8\uad6c \ub17c\ud604\ub85c146\uae38 12", "website": "http://place.map.daum.net/1525009895", "phone": "02-540-4288", "source": "\uc2e0\uc0ac\ub3d9 - \uc555\uad6c\uc815\uc5ed - \ub450\uc0ac\ub77c 2\ud638\uc810", "pid": "1525009895"}}
  ,{"type": "Feature", "geometry": {"type": "Point", "coordinates": [127.027488173655, 37.5201709833372]}, "properties": {"name": "\ubaa8\uad6d\uc815\uc11c", "address": "\uc11c\uc6b8 \uac15\ub0a8\uad6c \ub3c4\uc0b0\ub300\ub85c25\uae38 5", "website": "http://place.map.daum.net/23339364", "phone": "02-511-0751", "source": "\uc2e0\uc0ac\ub3d9 - \uc555\uad6c\uc815\uc5ed - \ubaa8\uad6d\uc815\uc11c", "pid": "23339364"}}
  ,{"type": "Feature", "geometry": {"type": "Point", "coordinates": [127.03218714007916, 37.523090713800805]}, "properties": {"name": "\ubaa8\uc988", "address": "\uc11c\uc6b8 \uac15\ub0a8\uad6c \uc5b8\uc8fc\ub85c153\uae38 10-5", "website": "http://place.map.daum.net/26949789", "phone": "02-542-5048", "source": "\uc2e0\uc0ac\ub3d9 - \uc555\uad6c\uc815\uc5ed - \ubaa8\uc988", "pid": "26949789"}}
  ,{"type": "Feature", "geometry": {"type": "Point", "coordinates": [127.044925547651, 37.5256941895402]}, "properties": {"name": "\uc96c\uc548", "address": "\uc11c\uc6b8 \uac15\ub0a8\uad6c \uc555\uad6c\uc815\ub85c72\uae38 12", "website": "http://place.map.daum.net/17707594", "phone": "02-512-4833", "source": "\uccad\ub2f4\ub3d9 - \uc555\uad6c\uc815 \ub85c\ub370\uc624\uc5ed - \uc96c\uc548", "pid": "17707594"}}
  ,{"type": "Feature", "geometry": {"type": "Point", "coordinates": [127.041199362116, 37.5220591024115]}, "properties": {"name": "\uac13\ud3ec\ub09c\uc6b0", "address": "\uc11c\uc6b8 \uac15\ub0a8\uad6c \ub3c4\uc0b0\ub300\ub85c58\uae38 18", "website": "http://place.map.daum.net/26844426", "phone": "", "source": "\uccad\ub2f4\ub3d9 - \uac15\ub0a8\uad6c\uccad\uc5ed - \uac13\ud3ec\ub09c\uc6b0", "pid": "26844426"}}
  ,{"type": "Feature", "geometry": {"type": "Point", "coordinates": [126.9988754112307, 37.49769375081063]}, "properties": {"name": "\uac13\ud3ec\ud0c0\ub178", "address": "\uc11c\uc6b8 \uc11c\ucd08\uad6c \uc11c\ub798\ub85c6\uae38 10", "website": "http://place.map.daum.net/436880673", "phone": "02-593-9100", "source": "\ubc18\ud3ec\ub3d9 - \uace0\uc18d\ud130\ubbf8\ub110\uc5ed - \uac13\ud3ec\ud0c0\ub178", "pid": "436880673"}}
]}
