{"type": "FeatureCollection","features": [
  {"type": "Feature", "geometry": {"type": "Point", "coordinates": [127.028320605236, 37.57964028931]}, "properties": {"name": "\uc5b4\uba38\ub2c8\ub300\uc131\uc9d1", "address": "\uc11c\uc6b8 \ub3d9\ub300\ubb38\uad6c \ubb34\ud559\ub85c43\uae38 44", "website": "http://place.map.daum.net/11110457", "phone": "02-923-1718", "source": "\uc6a9\ub450\ub3d9 - \uc2e0\uc124\ub3d9\uc5ed - \uc5b4\uba38\ub2c8\ub300\uc131\uc9d1", "pid": "11110457"}}
  ,{"type": "Feature", "geometry": {"type": "Point", "coordinates": [127.065472540919, 37.508273597184]}, "properties": {"name": "\uc911\uc559\ud574\uc7a5", "address": "\uc11c\uc6b8 \uac15\ub0a8\uad6c \uc601\ub3d9\ub300\ub85c86\uae38 17", "website": "http://place.map.daum.net/27531028", "phone": "02-558-7905", "source": "\ub300\uce58\ub3d9 - \uc0bc\uc131\uc5ed - \uc911\uc559\ud574\uc7a5", "pid": "27531028"}}
  ,{"type": "Feature", "geometry": {"type": "Point", "coordinates": [126.98502310323119, 37.564430335182415]}, "properties": {"name": "\ud558\ub3d9\uad00 \uba85\ub3d9\ubcf8\uc810", "address": "\uc11c\uc6b8 \uc911\uad6c \uba85\ub3d99\uae38 12", "website": "http://place.map.daum.net/1822111964", "phone": "02-776-5656", "source": "\uba85\ub3d9 - \uba85\ub3d9\uc5ed - \ud558\ub3d9\uad00 (\ub300\uce58\ub3d9\uc5d0\ub3c4 \ubd84\uc810)", "pid": "1822111964"}}
  ,{"type": "Feature", "geometry": {"type": "Point", "coordinates": [126.98658716122, 37.578089610761]}, "properties": {"name": "\ud130\uc90f\uace8\uba85\uac00", "address": "\uc11c\uc6b8 \uc885\ub85c\uad6c \uacc4\ub3d9\uae38 17", "website": "http://place.map.daum.net/1437474739", "phone": "02-747-5655", "source": "\ubb34\uad50\ub3d9 - \uc744\uc9c0\ub85c \uc785\uad6c\uc5ed - \ud130\uc90f\uace8", "pid": "1437474739"}}
  ,{"type": "Feature", "geometry": {"type": "Point", "coordinates": [126.97944890786793, 37.571717650682224]}, "properties": {"name": "\uccad\uc9c4\uc625 \ubcf8\uc810", "address": "\uc11c\uc6b8 \uc885\ub85c\uad6c \uc885\ub85c3\uae38 32", "website": "http://place.map.daum.net/27540102", "phone": "02-735-1690", "source": "\uc885\ub85c1\uac00 - \uad11\ud654\ubb38\uc5ed - \uccad\uc9c4\uc625", "pid": "27540102"}}
  ,{"type": "Feature", "geometry": {"type": "Point", "coordinates": [126.980271942886, 37.5713925318325]}, "properties": {"name": "\ud765\uc9c4\uc625", "address": "\uc11c\uc6b8 \uc885\ub85c\uad6c \uc885\ub85c5\uae38 19-12", "website": "http://place.map.daum.net/16445173", "phone": "02-732-2214", "source": "\uc885\ub85c1\uac00 - \uad11\ud654\ubb38\uc5ed - \ud765\uc9c4\uc625", "pid": "16445173"}}
  ,{"type": "Feature", "geometry": {"type": "Point", "coordinates": [126.988322446293, 37.5720423191573]}, "properties": {"name": "\uc720\uc9c4\uc2dd\ub2f9", "address": "\uc11c\uc6b8 \uc885\ub85c\uad6c \uc885\ub85c17\uae38 40", "website": "http://place.map.daum.net/8041476", "phone": "02-764-2835", "source": "\ub099\uc6d0\ub3d9 - \uc885\ub85c 3\uac00\uc5ed - \uc720\uc9c4\uc2dd\ub2f9", "pid": "8041476"}}
  ,{"type": "Feature", "geometry": {"type": "Point", "coordinates": [126.973977275672, 37.5348864781984]}, "properties": {"name": "\ud3c9\uc591\uc9d1", "address": "\uc11c\uc6b8 \uc6a9\uc0b0\uad6c \ud55c\uac15\ub300\ub85c 186", "website": "http://place.map.daum.net/8122347", "phone": "02-793-6866", "source": "\ud55c\uac15\ub85c1\uac00 - \uc0bc\uac01\uc9c0\uc5ed - \ud3c9\uc591\uc9d1", "pid": "8122347"}}
  ,{"type": "Feature", "geometry": {"type": "Point", "coordinates": [126.960412992937, 37.5363747672842]}, "properties": {"name": "\ucc3d\uc131\uc625 \uc6a9\ubb38\ubcf8\uc810", "address": "\uc11c\uc6b8 \uc6a9\uc0b0\uad6c \uc0c8\ucc3d\ub85c 124-10", "website": "http://place.map.daum.net/10469081", "phone": "02-718-2878", "source": "\uc6a9\ubb38\ub3d9 - \ud6a8\ucc3d\uacf5\uc6d0\uc5ed - \ucc3d\uc131\uc625", "pid": "10469081"}}
  ,{"type": "Feature", "geometry": {"type": "Point", "coordinates": [126.960882841969, 37.5379678925348]}, "properties": {"name": "\uc6a9\ubb38\ud574\uc7a5\uad6d", "address": "\uc11c\uc6b8 \uc6a9\uc0b0\uad6c \ud6a8\ucc3d\uc6d0\ub85c 110", "website": "http://place.map.daum.net/10617612", "phone": "02-712-6290", "source": "\uc6a9\ubb38\ub3d9 - \ud6a8\ucc3d\uacf5\uc6d0\uc5ed - \uc6a9\ubb38\ud574\uc7a5\uad6d", "pid": "10617612"}}
  ,{"type": "Feature", "geometry": {"type": "Point", "coordinates": [126.96087289948, 37.5396725814949]}, "properties": {"name": "\ud55c\uc131\uc625\ud574\uc7a5\uad6d", "address": "\uc11c\uc6b8 \uc6a9\uc0b0\uad6c \ubc31\ubc94\ub85c 283", "website": "http://place.map.daum.net/15888481", "phone": "02-718-9031", "source": "\uc6a9\ubb38\ub3d9 - \ud6a8\ucc3d\uacf5\uc6d0\uc5ed - \ud55c\uc131\uc625", "pid": "15888481"}}
  ,{"type": "Feature", "geometry": {"type": "Point", "coordinates": [127.05579495970723, 37.50447271946909]}, "properties": {"name": "\ubc18\ub8e1\uc0b0", "address": "\uc11c\uc6b8 \uac15\ub0a8\uad6c \ud14c\ud5e4\ub780\ub85c78\uae38 26", "website": "http://place.map.daum.net/10406623", "phone": "02-3446-8966", "source": "\ub300\uce58\ub3d9 - \uc120\ub989\uc5ed - \ubc18\ub8e1\uc0b0", "pid": "10406623"}}
  ,{"type": "Feature", "geometry": {"type": "Point", "coordinates": [127.043469060789, 37.6280044396834]}, "properties": {"name": "\ud560\uba38\ub2c8\ud574\uc7a5\uad6d", "address": "\uc11c\uc6b8 \uac15\ubd81\uad6c \uc6d4\uacc4\ub85c37\uae38 137-6", "website": "http://place.map.daum.net/8154336", "phone": "02-915-1541", "source": "\uc7a5\uc704\ub3d9 - \ub3cc\uacf6\uc774\uc5ed - \ud560\uba38\ub2c8 \ud574\uc7a5\uad6d", "pid": "8154336"}}
  ,{"type": "Feature", "geometry": {"type": "Point", "coordinates": [126.952868556886, 37.5435007087768]}, "properties": {"name": "\uc9c4\uc2dc\ud669\ubd81\uc5b4\uad6d", "address": "\uc11c\uc6b8 \ub9c8\ud3ec\uad6c \ubc31\ubc94\ub85c 199", "website": "http://place.map.daum.net/27113128", "phone": "02-703-5970", "source": "\uacf5\ub355\ub3d9 - \uacf5\ub355\uc5ed - \uc9c4\uc2dc\ud669\ubd81\uc5b4\uad6d", "pid": "27113128"}}
  ,{"type": "Feature", "geometry": {"type": "Point", "coordinates": [126.924526028882, 37.5563666665857]}, "properties": {"name": "\ub3c8\uc218\ubc31 \ud64d\ub300\ubcf8\uc810", "address": "\uc11c\uc6b8 \ub9c8\ud3ec\uad6c \ud64d\uc775\ub85c6\uae38 56", "website": "http://place.map.daum.net/8431668", "phone": "02-324-3131", "source": "\uc11c\uad50\ub3d9 - \ud64d\ub300\uc785\uad6c\uc5ed - \ub3c8\uc218\ubc31", "pid": "8431668"}}
  ,{"type": "Feature", "geometry": {"type": "Point", "coordinates": [126.941364709741, 37.5412250380936]}, "properties": {"name": "\uc11c\uc528\ub124\ud574\uc7a5\uad6d", "address": "\uc11c\uc6b8 \ub9c8\ud3ec\uad6c \ud1a0\uc815\ub85c 290", "website": "http://place.map.daum.net/13290723", "phone": "02-712-6134", "source": "\uc6a9\uac15\ub3d9 - \ub9c8\ud3ec\uc5ed - \uc11c\uc528\ub124\ud574\uc7a5\uad6d", "pid": "13290723"}}
  ,{"type": "Feature", "geometry": {"type": "Point", "coordinates": [126.95562695718121, 37.608913970869004]}, "properties": {"name": "\uc7a5\ubaa8\ub2d8\ud574\uc7a5\uad6d", "address": "\uc11c\uc6b8 \uc885\ub85c\uad6c \uc9c4\ud765\ub85c 421", "website": "http://place.map.daum.net/8072537", "phone": "02-379-4294", "source": "\uad6c\uae30\ub3d9 - \ud64d\uc81c\uc5ed - \uc7a5\ubaa8\ub2d8 \ud574\uc7a5\uad6d", "pid": "8072537"}}
  ,{"type": "Feature", "geometry": {"type": "Point", "coordinates": [126.928280236177, 37.6021863442287]}, "properties": {"name": "\uc6b0\uc8fc\ubbf8", "address": "\uc11c\uc6b8 \uc740\ud3c9\uad6c \uc740\ud3c9\ub85c 185", "website": "http://place.map.daum.net/10188825", "phone": "02-354-7788", "source": "\ub179\ubc88\ub3d9 - \ub179\ubc88\uc5ed - \uc6b0\uc8fc\ubbf8", "pid": "10188825"}}
  ,{"type": "Feature", "geometry": {"type": "Point", "coordinates": [126.985709984841, 37.5712095123052]}, "properties": {"name": "\uc2dc\uace8\uc9d1", "address": "\uc11c\uc6b8 \uc885\ub85c\uad6c \uc885\ub85c11\uae38 22", "website": "http://place.map.daum.net/11120041", "phone": "02-734-0525", "source": "\uc778\uc0ac\ub3d9 - \uc885\uac01\uc5ed - \uc2dc\uace8\uc9d1", "pid": "11120041"}}
  ,{"type": "Feature", "geometry": {"type": "Point", "coordinates": [126.97840505445268, 37.56261716273881]}, "properties": {"name": "\uae40\uba85\uc790\uad74\uad6d\ubc25 \ubd81\ucc3d\uc810", "address": "\uc11c\uc6b8 \uc911\uad6c \uc138\uc885\ub300\ub85c14\uae38 28-3", "website": "http://place.map.daum.net/13320663", "phone": "02-777-9003", "source": "\ubd81\ucc3d\ub3d9 - \uc2dc\uccad\uc5ed - \uae40\uba85\uc790\uad74\uad6d\ubc25", "pid": "13320663"}}
  ,{"type": "Feature", "geometry": {"type": "Point", "coordinates": [126.973066389355, 37.563444324974]}, "properties": {"name": "\uccad\uc1a1\uc625", "address": "\uc11c\uc6b8 \uc911\uad6c \uc11c\uc18c\ubb38\ub85c11\uae38 14", "website": "http://place.map.daum.net/10854191", "phone": "02-754-1547", "source": "\uc11c\uc18c\ubb38\ub3d9 - \uc2dc\uccad\uc5ed - \uccad\uc1a1\uc625", "pid": "10854191"}}
  ,{"type": "Feature", "geometry": {"type": "Point", "coordinates": [126.97808302486, 37.5625695942553]}, "properties": {"name": "\ub9c8\uc0b0\uc9d1", "address": "\uc11c\uc6b8 \uc911\uad6c \uc138\uc885\ub300\ub85c14\uae38 22-5", "website": "http://place.map.daum.net/7863695", "phone": "02-752-2415", "source": "\ubd81\ucc3d\ub3d9 - \uc2dc\uccad\uc5ed - \ub9c8\uc0b0\uc9d1", "pid": "7863695"}}
  ,{"type": "Feature", "geometry": {"type": "Point", "coordinates": [126.99867747746863, 37.59264771033254]}, "properties": {"name": "\ub9c8\uc804\ud130", "address": "\uc11c\uc6b8 \uc131\ubd81\uad6c \ud61c\ud654\ub85c 82-2", "website": "http://place.map.daum.net/12178605", "phone": "02-765-7575", "source": "\uc131\ubd81\ub3d9 - \ud55c\uc131\ub300\uc785\uad6c\uc5ed - \ub9c8\uc804\ud130", "pid": "12178605"}}
  ,{"type": "Feature", "geometry": {"type": "Point", "coordinates": [127.018496264135, 37.5156028446266]}, "properties": {"name": "\uac15\ub0a8\ub530\ub85c\uad6d\ubc25", "address": "\uc11c\uc6b8 \uc11c\ucd08\uad6c \uc2e0\ubc18\ud3ec\ub85c47\uae38 119", "website": "http://place.map.daum.net/11044398", "phone": "02-543-2527", "source": "\uc7a0\uc6d0\ub3d9 - \uc2e0\uc0ac\uc5ed - \uac15\ub0a8\ub530\ub85c\uad6d\ubc25", "pid": "11044398"}}
  ,{"type": "Feature", "geometry": {"type": "Point", "coordinates": [126.955145715438, 37.5578166567904]}, "properties": {"name": "\ubd81\uc131\ud574\uc7a5\uad6d", "address": "\uc11c\uc6b8 \uc11c\ub300\ubb38\uad6c \uc2e0\ucd0c\ub85c35\uae38 7", "website": "http://place.map.daum.net/20616798", "phone": "02-364-3779", "source": "\uc544\ud604\ub3d9 - \uc544\ud604\uc5ed - \ubd81\uc131\ud574\uc7a5\uad6d", "pid": "20616798"}}
  ,{"type": "Feature", "geometry": {"type": "Point", "coordinates": [126.894407527456, 37.5374298110161]}, "properties": {"name": "\uc6d0\uc870\ubd81\uc5b4\uad6d", "address": "\uc11c\uc6b8 \uc601\ub4f1\ud3ec\uad6c \uc591\ud3c9\ub85c 117-1", "website": "http://place.map.daum.net/13499678", "phone": "02-2676-2849", "source": "\uc591\ud3c9\ub3d9 - \uc120\uc720\ub3c4\uc5ed - \uc6d0\uc870\ubd81\uc5b4\uad6d", "pid": "13499678"}}
  ,{"type": "Feature", "geometry": {"type": "Point", "coordinates": [127.008073730463, 37.5339340084116]}, "properties": {"name": "\ud55c\ub0a8\ubd81\uc5c7\uad6d", "address": "\uc11c\uc6b8 \uc6a9\uc0b0\uad6c \ub3c5\uc11c\ub2f9\ub85c 65-7", "website": "http://place.map.daum.net/11911367", "phone": "02-2297-1988", "source": "\ud55c\ub0a8\ub3d9 - \ud55c\ub0a8\uc5ed - \ud55c\ub0a8\ubd81\uc5c7\uad6d", "pid": "11911367"}}
  ,{"type": "Feature", "geometry": {"type": "Point", "coordinates": [127.043921623659, 37.5036524098749]}, "properties": {"name": "\uac00\ubd95\ud669\ud0dc\ub9c8\uc744", "address": "", "website": "http://place.map.daum.net/9444940", "phone": "02-560-3466", "source": "\uc5ed\uc0bc\ub3d9 - \uc5ed\uc0bc\uc5ed - \uac00\ubd95\ud669\ud0dc\ub9c8\uc744", "pid": "9444940"}}
  ,{"type": "Feature", "geometry": {"type": "Point", "coordinates": [126.910268347444, 37.6034750540259]}, "properties": {"name": "\ub300\uad00\ub839\ud669\ud0dc\ub9c8\uc744 \uc5ed\ucd0c\uc810", "address": "\uc11c\uc6b8 \uc740\ud3c9\uad6c \uac08\ud604\ub85c 61", "website": "http://place.map.daum.net/16705141", "phone": "02-382-5671", "source": "\uc5ed\ucd0c\ub3d9 - \uc751\uc554\uc5ed - \ub300\uad00\ub839\ud669\ud0dc\ub9c8\uc744", "pid": "16705141"}}
  ,{"type": "Feature", "geometry": {"type": "Point", "coordinates": [127.018663904071, 37.5165362580438]}, "properties": {"name": "\uc720\uba85\uad6d\uc591\ud3c9\ud574\uc7a5\uad6d", "address": "\uc11c\uc6b8 \uc11c\ucd08\uad6c \uac15\ub0a8\ub300\ub85c101\uae38 11", "website": "http://place.map.daum.net/9957512", "phone": "02-544-7777", "source": "\uc7a0\uc6d0\ub3d9 - \uc2e0\uc0ac\uc5ed - \uc720\uba85\uad6d \uc591\ud3c9 \ud574\uc7a5\uad6d", "pid": "9957512"}}
  ,{"type": "Feature", "geometry": {"type": "Point", "coordinates": [126.918742624626, 37.6169383649968]}, "properties": {"name": "\uc6d0\uc870\uc591\ud3c9\ud574\uc7a5\uad6d \uc9c1\uc601\uc810", "address": "\uc11c\uc6b8 \uc740\ud3c9\uad6c \uc5f0\uc11c\ub85c 203", "website": "http://place.map.daum.net/16414674", "phone": "02-354-5058", "source": "\ubd88\uad11\ub3d9 - \uc5f0\uc2e0\ub0b4\uc5ed - \ubbf8\uc18c\ubcf5 \uc591\ud3c9 \ud574\uc7a5\uad6d", "pid": "16414674"}}
  ,{"type": "Feature", "geometry": {"type": "Point", "coordinates": [127.080314226667, 37.510787250902]}, "properties": {"name": "\uc6d0\uc870\uc591\ud3c9\ud574\uc7a5\uad6d \uc7a0\uc2e4\uc810", "address": "\uc11c\uc6b8 \uc1a1\ud30c\uad6c \uc62c\ub9bc\ud53d\ub85c8\uae38 11", "website": "http://place.map.daum.net/21233965", "phone": "02-415-1126", "source": "\uc7a0\uc2e4\ub3d9 - \uc2e0\ucc9c\uc5ed - \uc6d0\uc870 \uc591\ud3c9 \ud574\uc7a5\uad6d", "pid": "21233965"}}
  ,{"type": "Feature", "geometry": {"type": "Point", "coordinates": [127.002939430541, 37.5923512547806]}, "properties": {"name": "\uc131\ubd81\ub3d9\uc62c\ub808\uad6d\uc218", "address": "\uc11c\uc6b8 \uc131\ubd81\uad6c \uc131\ubd81\ub85c 50-2", "website": "http://place.map.daum.net/15800636", "phone": "02-6348-1974", "source": "\uc131\ubd81\ub3d9 - \ud55c\uc131\ub300\uc785\uad6c\uc5ed - \uc62c\ub808\uad6d\uc218", "pid": "15800636"}}
  ,{"type": "Feature", "geometry": {"type": "Point", "coordinates": [126.816053348725, 37.5551554935147]}, "properties": {"name": "\uc804\uc8fc\ub730\ucf69\ub098\ubb3c\uad6d\ubc25", "address": "\uc11c\uc6b8 \uac15\uc11c\uad6c \ubc29\ud654\ub300\ub85c5\ub098\uae38 6", "website": "http://place.map.daum.net/25506306", "phone": "02-6371-0056", "source": "\uacf5\ud56d\ub3d9 - \uc1a1\uc815\uc5ed - \uc804\uc8fc\ub730\ucf69\ub098\ubb3c\uad6d\ubc25", "pid": "25506306"}}
  ,{"type": "Feature", "geometry": {"type": "Point", "coordinates": [127.04505561731874, 37.546334260489225]}, "properties": {"name": "\ube44\uc0ac\ubc8c \uc804\uc8fc\ucf69\ub098\ubb3c\uad6d\ubc25", "address": "\uc11c\uc6b8 \uc131\ub3d9\uad6c \uc655\uc2ed\ub9ac\ub85c6\uae38 1-2", "website": "http://place.map.daum.net/21237863", "phone": "02-464-8704", "source": "\uc131\uc218\ub3d9 - \uc11c\uc6b8\uc232\uc5ed, \ub69d\uc12c\uc5ed - \ube44\uc0ac\ubc8c \uc804\uc8fc \ucf69\ub098\ubb3c\uad6d\ubc25", "pid": "21237863"}}
  ,{"type": "Feature", "geometry": {"type": "Point", "coordinates": [126.978259472704, 37.5629804812858]}, "properties": {"name": "\uc804\uc8fc\uc720\ud560\uba38\ub2c8 \ube44\ube54\ubc25\uc9d1", "address": "\uc11c\uc6b8 \uc911\uad6c \uc138\uc885\ub300\ub85c14\uae38 27-2", "website": "http://place.map.daum.net/15571438", "phone": "02-752-9282", "source": "\ubd81\ucc3d\ub3d9 - \uc2dc\uccad\uc5ed - \uc804\uc8fc \uc720\ud560\uba38\ub2c8 \ube44\ube54\ubc25", "pid": "15571438"}}
  ,{"type": "Feature", "geometry": {"type": "Point", "coordinates": [127.018197331926, 37.5887855632428]}, "properties": {"name": "\uc77c\ud765\ucf69\ub098\ubb3c\ud574\uc7a5\uad6d", "address": "\uc11c\uc6b8 \uc131\ubd81\uad6c \uc778\ucd0c\ub85c5\uae38 81", "website": "http://place.map.daum.net/15995938", "phone": "02-923-9476", "source": "\uc0bc\uc120\ub3d9 - \uc131\uc2e0\uc5ec\ub300\uc785\uad6c\uc5ed - \uc77c\ud765\ucf69\ub098\ubb3c \ud574\uc7a5\uad6d", "pid": "15995938"}}
  ,{"type": "Feature", "geometry": {"type": "Point", "coordinates": [126.953594844657, 37.4816596773221]}, "properties": {"name": "\uc644\uc0b0\uc815", "address": "\uc11c\uc6b8 \uad00\uc545\uad6c \ubd09\ucc9c\ub85c 484", "website": "http://place.map.daum.net/16502330", "phone": "02-878-3400", "source": "\ud589\uc6b4\ub3d9 - \uc11c\uc6b8\ub300\uc785\uad6c\uc5ed - \uc644\uc0b0\uc815", "pid": "16502330"}}
  ,{"type": "Feature", "geometry": {"type": "Point", "coordinates": [127.087080125696, 37.5048646581852]}, "properties": {"name": "24\uc2dc\ube44\uc0ac\ubc8c \uc804\uc8fc\ucf69\ub098\ubb3c\uad6d\ubc25", "address": "\uc11c\uc6b8 \uc1a1\ud30c\uad6c \ubc31\uc81c\uace0\ubd84\ub85c 181", "website": "http://place.map.daum.net/20533320", "phone": "02-418-7651", "source": "\uc0bc\uc804\ub3d9 - \uc2e0\ucc9c\uc5ed - \uc804\uc8fc \ube44\uc0ac\ubc8c \ucf69\ub098\ubb3c\uad6d\ubc25", "pid": "20533320"}}
  ,{"type": "Feature", "geometry": {"type": "Point", "coordinates": [127.037106463104, 37.498983932782]}, "properties": {"name": "\ubd80\uc0b0\uc544\uc9c0\ub9e4\uad6d\ubc25 \uc5ed\uc0bc\uc810", "address": "\uc11c\uc6b8 \uac15\ub0a8\uad6c \ub17c\ud604\ub85c85\uae38 5-3", "website": "http://place.map.daum.net/21339867", "phone": "02-566-9882", "source": "\uc5ed\uc0bc\ub3d9 - \uac15\ub0a8\uc5ed - \ubd80\uc0b0\uc544\uc9c0\ub9e4\uad6d\ubc25", "pid": "21339867"}}
  ,{"type": "Feature", "geometry": {"type": "Point", "coordinates": [127.031199147296, 37.4890853756541]}, "properties": {"name": "\ubc84\ub4dc\ub098\ubb34\uc9d1 \uc11c\ucd08\ubcf8\uc810", "address": "\uc11c\uc6b8 \uc11c\ucd08\uad6c \ud6a8\ub839\ub85c 434", "website": "http://place.map.daum.net/8323721", "phone": "02-3473-4167", "source": "\uc11c\ucd08\ub3d9 - \uac15\ub0a8\uc5ed - \ubc84\ub4dc\ub098\ubb34\uc9d1", "pid": "8323721"}}
  ,{"type": "Feature", "geometry": {"type": "Point", "coordinates": [126.907033544547, 37.5528835469881]}, "properties": {"name": "\ubd09\uae38\uc774\ud574\uc7a5\uad6d", "address": "\uc11c\uc6b8 \ub9c8\ud3ec\uad6c \ub3d9\uad50\ub85c 43", "website": "http://place.map.daum.net/25968699", "phone": "", "source": "\ub9dd\uc6d0\ub3d9 - \ud569\uc815\uc5ed, \ub9dd\uc6d0\uc5ed - \ubd09\uae38\uc774 \ud574\uc7a5\uad6d", "pid": "25968699"}}
  ,{"type": "Feature", "geometry": {"type": "Point", "coordinates": [126.849017684584, 37.528536283763]}, "properties": {"name": "\uc6d0\uc870 \uc591\ud3c9\uc2e0\ub0b4\uc11c\uc6b8\ud574\uc7a5\uad6d \uac15\uc11c\uc591\ucc9c\uc9c1\uc601\uc810", "address": "\uc11c\uc6b8 \uac15\uc11c\uad6c \uad6d\ud68c\ub300\ub85c7\uae38 213", "website": "http://place.map.daum.net/10696677", "phone": "02-2699-9876", "source": "\ud654\uace1\ub3d9 - \uae4c\uce58\uc0b0\uc5ed, \uc2e0\uc815\uc5ed - \uc591\ud3c9\uc2e0\ub0b4\uc11c\uc6b8\ud574\uc7a5\uad6d", "pid": "10696677"}}
  ,{"type": "Feature", "geometry": {"type": "Point", "coordinates": [127.049003369974, 37.5474751547531]}, "properties": {"name": "\uc8fd\ubcc0\ud56d", "address": "\uc11c\uc6b8 \uc131\ub3d9\uad6c \uc0c1\uc6d0\uae38 40", "website": "http://place.map.daum.net/16379177", "phone": "02-465-7487", "source": "\uc131\uc218\ub3d9 - \ub69d\uc12c\uc5ed - \uc8fd\ubcc0\ud56d", "pid": "16379177"}}
  ,{"type": "Feature", "geometry": {"type": "Point", "coordinates": [127.041330575758, 37.6674043140638]}, "properties": {"name": "\uacf0\uce58\uc9d1", "address": "\uc11c\uc6b8 \ub3c4\ubd09\uad6c \ub3c4\ub2f9\ub85c 135", "website": "http://place.map.daum.net/714228475", "phone": "02-955-9450", "source": "\ubc29\ud559\ub3d9 - \ucc3d\ub3d9\uc5ed - \ubc29\ud559\uacf0\uce58\uc9d1", "pid": "714228475"}}
  ,{"type": "Feature", "geometry": {"type": "Point", "coordinates": [126.920372249444, 37.528955537335]}, "properties": {"name": "\ud55c\uc591\uacf0\uce58\uad6d\uacfc\uba54\uae30", "address": "\uc11c\uc6b8 \uc601\ub4f1\ud3ec\uad6c \uad6d\ud68c\ub300\ub85c70\uae38 18", "website": "http://place.map.daum.net/8637631", "phone": "02-780-7894", "source": "\uc5ec\uc758\ub3c4\ub3d9 - \uad6d\ud68c\uc758\uc0ac\ub2f9\uc5ed - \ud55c\uc591\uacf0\uce58\uad6d", "pid": "8637631"}}
  ,{"type": "Feature", "geometry": {"type": "Point", "coordinates": [126.929896234062, 37.521248996634]}, "properties": {"name": "\uc7a5\uc6d0\ubd81\uc5b4\uad6d", "address": "\uc11c\uc6b8 \uc601\ub4f1\ud3ec\uad6c \uad6d\uc81c\uae08\uc735\ub85c8\uae38 11", "website": "http://place.map.daum.net/13089625", "phone": "02-784-0639", "source": "\uc5ec\uc758\ub3c4\ub3d9 - \uc5ec\uc758\ub3c4\uc5ed - \uc7a5\uc6d0\ubd81\uc5b4\uad6d", "pid": "13089625"}}
  ,{"type": "Feature", "geometry": {"type": "Point", "coordinates": [126.929082225872, 37.5207547611772]}, "properties": {"name": "\uc0c1\uc740\ubd81\uc5b4\uad6d", "address": "\uc11c\uc6b8 \uc601\ub4f1\ud3ec\uad6c \uad6d\uc81c\uae08\uc735\ub85c8\uae38 19", "website": "http://place.map.daum.net/7922943", "phone": "02-780-1157", "source": "\uc5ec\uc758\ub3c4\ub3d9 - \uc5ec\uc758\ub3c4\uc5ed, \uc0db\uac15\uc5ed - \uc0c1\uc740\ubd81\uc5b4\uad6d", "pid": "7922943"}}
  ,{"type": "Feature", "geometry": {"type": "Point", "coordinates": [126.930239999577, 37.5213825485736]}, "properties": {"name": "\uc5ec\uc758\ub3c4\ub530\ub85c\uad6d\ubc25", "address": "\uc11c\uc6b8 \uc601\ub4f1\ud3ec\uad6c \uc5ec\uc758\ub300\ubc29\ub85c69\uae38 28", "website": "http://place.map.daum.net/8271460", "phone": "02-782-0047", "source": "\uc5ec\uc758\ub3c4\ub3d9 - \uc5ec\uc758\ub3c4\uc5ed - \uc5ec\uc758\ub3c4 \ub530\ub85c\uad6d\ubc25", "pid": "8271460"}}
  ,{"type": "Feature", "geometry": {"type": "Point", "coordinates": [126.930309689447, 37.5194292155759]}, "properties": {"name": "\uc6d0\ud574\uc7a5\uad6d", "address": "\uc11c\uc6b8 \uc601\ub4f1\ud3ec\uad6c \uc5ec\uc758\ub300\ubc29\ub85c65\uae38 10", "website": "http://place.map.daum.net/16935729", "phone": "02-786-1954", "source": "\uc5ec\uc758\ub3c4\ub3d9 - \uc0db\uac15\uc5ed - \uc5ec\uc758\ub3c4\uc6d0\ud574\uc7a5\uad6d", "pid": "16935729"}}
  ,{"type": "Feature", "geometry": {"type": "Point", "coordinates": [127.032817780264, 37.4981094238993]}, "properties": {"name": "\uc6b0\ubc00\uac00\uc548\ub3d9\uad6d\uc2dc \uc5ed\uc0bc\uc810", "address": "\uc11c\uc6b8 \uac15\ub0a8\uad6c \ud14c\ud5e4\ub780\ub85c10\uae38 21", "website": "http://place.map.daum.net/27204005", "phone": "02-554-1855", "source": "\uc5ed\uc0bc\ub3d9 - \uac15\ub0a8\uc5ed - \uc6b0\ubc00\uac00", "pid": "27204005"}}
  ,{"type": "Feature", "geometry": {"type": "Point", "coordinates": [127.001981289571, 37.4984635561412]}, "properties": {"name": "\ud1a0\ubc15\uc774 \ubcf8\ub2f9", "address": "\uc11c\uc6b8 \uc11c\ucd08\uad6c \ubc18\ud3ec\ub300\ub85c39\uae38 38", "website": "http://place.map.daum.net/10905508", "phone": "02-532-4837", "source": "\ubc18\ud3ec\ub3d9 - \uace0\uc18d\ud130\ubbf8\ub110\uc5ed - \ud1a0\ubc15\uc774 - \uace0\ucd94\uc7a5\ucc0c\uac1c", "pid": "10905508"}}
  ,{"type": "Feature", "geometry": {"type": "Point", "coordinates": [127.008756219748, 37.4876619741271]}, "properties": {"name": "\uc544\ub530\ub9f5\uc18c", "address": "\uc11c\uc6b8 \uc11c\ucd08\uad6c \uc11c\ucd08\ub300\ub85c40\uae38 88", "website": "http://place.map.daum.net/19015248", "phone": "02-598-0955", "source": "\uc11c\ucd08\ub3d9 - \uc11c\ucd08\uc5ed - \uc544\ub530\ub9f5\uc18c - \uace0\ucd94\uc7a5\ucc0c\uac1c", "pid": "19015248"}}
  ,{"type": "Feature", "geometry": {"type": "Point", "coordinates": [126.924122347757, 37.5615993978453]}, "properties": {"name": "\uc6d4\uac15 \ubd80\uc0b0\ub3fc\uc9c0\uad6d\ubc25", "address": "\uc11c\uc6b8 \ub9c8\ud3ec\uad6c \ub3d9\uad50\ub85c 241-1", "website": "http://place.map.daum.net/14822702", "phone": "02-326-5800", "source": "\uc5f0\ub0a8\ub3d9 - \ud64d\ub300\uc785\uad6c\uc5ed - \uc6d4\uac15\ubd80\uc0b0\ub3fc\uc9c0\uad6d\ubc25", "pid": "14822702"}}
  ,{"type": "Feature", "geometry": {"type": "Point", "coordinates": [127.060801230316, 37.4996660865208]}, "properties": {"name": "\ud560\ub9e4\uc7ac\ucca9\uad6d", "address": "\uc11c\uc6b8 \uac15\ub0a8\uad6c \uc0bc\uc131\ub85c 308", "website": "http://place.map.daum.net/8598605", "phone": "02-501-6667", "source": "\ub300\uce58\ub3d9 - \ub300\uce58\uc5ed - \ud560\ub9e4\uc7ac\ucca9\uad6d", "pid": "8598605"}}
  ,{"type": "Feature", "geometry": {"type": "Point", "coordinates": [127.048754583906, 37.4781808360462]}, "properties": {"name": "\uc601\ub3d9\uc62c\ubc45\uc774\uc9d1", "address": "\uc11c\uc6b8 \uac15\ub0a8\uad6c \uac1c\ud3ec\ub85c24\uae38 13", "website": "http://place.map.daum.net/10648588", "phone": "02-572-3731", "source": "\uac1c\ud3ec\ub3d9 - \ub9e4\ubd09\uc5ed - \uc601\ub3d9\uc62c\ubc45\uc774\uc9d1", "pid": "10648588"}}
  ,{"type": "Feature", "geometry": {"type": "Point", "coordinates": [126.971439034479, 37.5805700570469]}, "properties": {"name": "\ud574\uc7a5\uad6d\uc0ac\ub78c\ub4e4", "address": "\uc11c\uc6b8 \uc885\ub85c\uad6c \uc790\ud558\ubb38\ub85c 50-1", "website": "http://place.map.daum.net/8215335", "phone": "02-736-6088", "source": "\ucc3d\uc131\ub3d9 - \uacbd\ubcf5\uad81\uc5ed - \ud574\uc7a5\uad6d\uc0ac\ub78c\ub4e4", "pid": "8215335"}}
  ,{"type": "Feature", "geometry": {"type": "Point", "coordinates": [126.917012144167, 37.4983515312696]}, "properties": {"name": "\uc62c\uac31\uc774\ub098\ub77c", "address": "\uc11c\uc6b8 \uc601\ub4f1\ud3ec\uad6c \ub300\ubc29\ucc9c\ub85c 234", "website": "http://place.map.daum.net/12819412", "phone": "02-835-7189", "source": "\uc2e0\uae38\ub3d9 - \ubcf4\ub77c\ub9e4\uc5ed - \uc62c\uac31\uc774\ub098\ub77c", "pid": "12819412"}}
  ,{"type": "Feature", "geometry": {"type": "Point", "coordinates": [126.709280422357, 37.512356105202]}, "properties": {"name": "\uc11c\uc624\ub989\ub2e4\uc2ac\uae30 \uccad\ucc9c\uc810", "address": "\uc778\ucc9c \ubd80\ud3c9\uad6c \uc548\ub0a8\ub85c 329", "website": "http://place.map.daum.net/27148853", "phone": "032-514-3399", "source": "\uccad\ucc9c\ub3d9 - \uae4c\uce58\uc0b0\uc5ed - \uccad\ucc9c\uc62c\uac31\uc774 \ud574\uc7a5\uad6d", "pid": "27148853"}}
]}
