{
 "type": "FeatureCollection",
 "features": [
  {
   "type": "Feature",
   "geometry": {
    "type": "Point",
    "coordinates": [
     126.98221382416551,
     37.57862242136911
    ]
   },
   "properties": {
    "pid": "20945113",
    "name": "조선김밥",
    "phone": "02-723-7496",
    "source": "소격동 - 안국역 - 조선김밥",
    "address": "서울 종로구 율곡로3길 68",
    "website": "http://place.map.daum.net/20945113",
    "category": "김밥 "
   }
  },
  {
   "type": "Feature",
   "geometry": {
    "type": "Point",
    "coordinates": [
     127.029146767663,
     37.5266397837502
    ]
   },
   "properties": {
    "pid": "21444589",
    "name": "리김밥 압구정본점",
    "phone": "02-548-5552",
    "source": "신사동 - 압구정역 - 리김밥",
    "address": "서울 강남구 압구정로30길 12",
    "website": "http://place.map.daum.net/21444589",
    "category": "김밥 "
   }
  },
  {
   "type": "Feature",
   "geometry": {
    "type": "Point",
    "coordinates": [
     126.986693090331,
     37.4916764395268
    ]
   },
   "properties": {
    "pid": "16532780",
    "name": "서호김밥 본점",
    "phone": "02-594-4434",
    "source": "방배동 - 이수역 - 서호김밥",
    "address": "서울 서초구 방배중앙로 141-1",
    "website": "http://place.map.daum.net/16532780",
    "category": "김밥 "
   }
  },
  {
   "type": "Feature",
   "geometry": {
    "type": "Point",
    "coordinates": [
     127.01554370062382,
     37.54350677720921
    ]
   },
   "properties": {
    "pid": "10079417",
    "name": "옥정김밥",
    "phone": "02-2297-5646",
    "source": "옥수동 - 옥수역 - 옥정김밥",
    "address": "서울 성동구 한림말3길 28-9",
    "website": "http://place.map.daum.net/10079417",
    "category": "김밥 "
   }
  },
  {
   "type": "Feature",
   "geometry": {
    "type": "Point",
    "coordinates": [
     127.06113822068161,
     37.59758787506783
    ]
   },
   "properties": {
    "pid": "10871035",
    "name": "풍년김밥",
    "phone": "02-964-3696",
    "source": "이문동 - 외대앞역 - 풍년김밥",
    "address": "서울 동대문구 이문로 124",
    "website": "http://place.map.daum.net/10871035",
    "category": "김밥 "
   }
  },
  {
   "type": "Feature",
   "geometry": {
    "type": "Point",
    "coordinates": [
     126.998016821731,
     37.5698228276915
    ]
   },
   "properties": {
    "pid": "27581940",
    "name": "원조누드치즈김밥",
    "phone": "010-3164-1145",
    "source": "예지동 - 종로5가역 - 원조누드김밥",
    "address": "서울 종로구 창경궁로 84",
    "website": "http://place.map.daum.net/27581940",
    "category": "김밥 "
   }
  },
  {
   "type": "Feature",
   "geometry": {
    "type": "Point",
    "coordinates": [
     127.015811218167,
     37.5918312609669
    ]
   },
   "properties": {
    "pid": "21367852",
    "name": "돈암순대김밥",
    "phone": "02-922-9210",
    "source": "동소문동 - 성신여대입구역 - 돈암순대김밥",
    "address": "서울 성북구 동소문로18길 12",
    "website": "http://place.map.daum.net/21367852",
    "category": "김밥 "
   }
  },
  {
   "type": "Feature",
   "geometry": {
    "type": "Point",
    "coordinates": [
     126.940475221314,
     37.5043483621683
    ]
   },
   "properties": {
    "pid": "14101253",
    "name": "영도분식",
    "phone": "02-813-6920",
    "source": "상도동 - 장승배기역 - 영도분식",
    "address": "서울 동작구 장승배기로10길 26",
    "website": "http://place.map.daum.net/14101253",
    "category": "김밥 "
   }
  },
  {
   "type": "Feature",
   "geometry": {
    "type": "Point",
    "coordinates": [
     126.929386087003,
     37.5680033392128
    ]
   },
   "properties": {
    "pid": "18521778",
    "name": "연희김밥",
    "phone": "02-323-8090",
    "source": "연희동 - 홍대입구역 - 연희김밥",
    "address": "서울 서대문구 연희로11가길 2",
    "website": "http://place.map.daum.net/18521778",
    "category": "김밥 "
   }
  },
  {
   "type": "Feature",
   "geometry": {
    "type": "Point",
    "coordinates": [
     127.026990177903,
     37.5319886418813
    ]
   },
   "properties": {
    "pid": "17148905",
    "name": "북촌김밥",
    "phone": "02-511-1524",
    "source": "압구정동 - 압구정역 - 북촌김밥",
    "address": "서울 강남구 압구정로29길 67",
    "website": "http://place.map.daum.net/17148905",
    "category": "김밥 "
   }
  },
  {
   "type": "Feature",
   "geometry": {
    "type": "Point",
    "coordinates": [
     126.985240756701,
     37.4938314763009
    ]
   },
   "properties": {
    "pid": "15273957",
    "name": "해남원조김밥",
    "phone": "02-535-6949",
    "source": "방배동 - 이수역 - 해남원조김밥",
    "address": "서울 서초구 방배중앙로25길 15",
    "website": "http://place.map.daum.net/15273957",
    "category": "김밥 "
   }
  },
  {
   "type": "Feature",
   "geometry": {
    "type": "Point",
    "coordinates": [
     126.978525367887,
     37.4883054686457
    ]
   },
   "properties": {
    "pid": "9008598",
    "name": "방배김밥",
    "phone": "02-599-0566",
    "source": "사당동 - 이수역 - 방배김밥",
    "address": "서울 동작구 동작대로29길 63-5",
    "website": "http://place.map.daum.net/9008598",
    "category": "김밥 "
   }
  },
  {
   "type": "Feature",
   "geometry": {
    "type": "Point",
    "coordinates": [
     127.035565175609,
     37.5301879721867
    ]
   },
   "properties": {
    "pid": "26855131",
    "name": "후랜드",
    "phone": "02-543-5452",
    "source": "압구정동 - 압구정 - 후렌드",
    "address": "서울 강남구 압구정로 309",
    "website": "http://place.map.daum.net/26855131",
    "category": "김밥 "
   }
  },
  {
   "type": "Feature",
   "geometry": {
    "type": "Point",
    "coordinates": [
     126.999375160091,
     37.5701724289178
    ]
   },
   "properties": {
    "pid": "7863817",
    "name": "원조마약김밥",
    "phone": "02-2264-7668",
    "source": "예지동 - 종로5가역 - 마약김밥",
    "address": "서울 종로구 창경궁로 88",
    "website": "http://place.map.daum.net/7863817",
    "category": "김밥 "
   }
  },
  {
   "type": "Feature",
   "geometry": {
    "type": "Point",
    "coordinates": [
     126.94754406746,
     37.4812318697285
    ]
   },
   "properties": {
    "pid": "21330816",
    "name": "봉천동진순자김밥 봉천본점",
    "phone": "02-883-1824",
    "source": "봉천동 - 서울대입구역 - 진순자김밥",
    "address": "서울 관악구 청룡1길 19",
    "website": "http://place.map.daum.net/21330816",
    "category": "김밥 "
   }
  },
  {
   "type": "Feature",
   "geometry": {
    "type": "Point",
    "coordinates": [
     126.929543024183,
     37.4878395116812
    ]
   },
   "properties": {
    "pid": "10675160",
    "name": "정통계란말이김밥",
    "phone": "02-871-8777",
    "source": "신림동 - 신림역 - 정통계란말이김밥",
    "address": "서울 관악구 신림로70길 11",
    "website": "http://place.map.daum.net/10675160",
    "category": "김밥 "
   }
  },
  {
   "type": "Feature",
   "geometry": {
    "type": "Point",
    "coordinates": [
     127.073577533068,
     37.5383226618044
    ]
   },
   "properties": {
    "pid": "25039019",
    "name": "도도한김밥",
    "phone": "02-3437-1111",
    "source": "자양동 - 건대입구역 - 도도한김밥",
    "address": "서울 광진구 아차산로 272",
    "website": "http://place.map.daum.net/25039019",
    "category": "김밥 "
   }
  },
  {
   "type": "Feature",
   "geometry": {
    "type": "Point",
    "coordinates": [
     126.991977488462,
     37.5627587632503
    ]
   },
   "properties": {
    "pid": "19584151",
    "name": "김밥왕 충무로점",
    "phone": "02-2275-7697",
    "source": "충무로 - 충무로역 - 김밥왕",
    "address": "서울 중구 수표로6길 30",
    "website": "http://place.map.daum.net/19584151",
    "category": "김밥 "
   }
  },
  {
   "type": "Feature",
   "geometry": {
    "type": "Point",
    "coordinates": [
     127.053407958011,
     37.5923536241163
    ]
   },
   "properties": {
    "pid": "11316329",
    "name": "호야분식 경희대본점",
    "phone": "02-969-5331",
    "source": "회기동 - 회기역 - 호야김밥",
    "address": "서울 동대문구 경희대로4길 16",
    "website": "http://place.map.daum.net/11316329",
    "category": "김밥 "
   }
  },
  {
   "type": "Feature",
   "geometry": {
    "type": "Point",
    "coordinates": [
     127.031377503319,
     37.5261995231605
    ]
   },
   "properties": {
    "pid": "11916310",
    "name": "소망김밥",
    "phone": "02-518-5529",
    "source": "신사동 - 압구정역 - 소망김밥",
    "address": "서울 강남구 압구정로36길 34",
    "website": "http://place.map.daum.net/11916310",
    "category": "김밥 "
   }
  },
  {
   "type": "Feature",
   "geometry": {
    "type": "Point",
    "coordinates": [
     127.030675341171,
     37.524340039023
    ]
   },
   "properties": {
    "pid": "11114160",
    "name": "신영김밥",
    "phone": "02-542-4810",
    "source": "신사동 - 압구정역 - 신영김밥",
    "address": "서울 강남구 언주로159길 27",
    "website": "http://place.map.daum.net/11114160",
    "category": "김밥 "
   }
  },
  {
   "type": "Feature",
   "geometry": {
    "type": "Point",
    "coordinates": [
     126.92792738411,
     37.4888620819096
    ]
   },
   "properties": {
    "pid": "25771520",
    "name": "고수충무김밥",
    "phone": "02-875-0975",
    "source": "신사동 - 압구정역 - 충무김밥",
    "address": "서울 관악구 신림로73길 1",
    "website": "http://place.map.daum.net/25771520",
    "category": "김밥 "
   }
  },
  {
   "type": "Feature",
   "geometry": {
    "type": "Point",
    "coordinates": [
     127.088270469371,
     37.5015012226981
    ]
   },
   "properties": {
    "pid": "15541829",
    "name": "신성김밥",
    "phone": "02-420-9563",
    "source": "삼전동 - 신천역 - 신성김밥",
    "address": "서울 송파구 백제고분로22길 28",
    "website": "http://place.map.daum.net/15541829",
    "category": "김밥 "
   }
  },
  {
   "type": "Feature",
   "geometry": {
    "type": "Point",
    "coordinates": [
     126.985091215779,
     37.5634248318877
    ]
   },
   "properties": {
    "pid": "9510289",
    "name": "명동충무김밥 명동점",
    "phone": "02-755-8488",
    "source": "명동 - 명동역 - 충무김밥",
    "address": "서울 중구 명동10길 8",
    "website": "http://place.map.daum.net/9510289",
    "category": "김밥 "
   }
  },
  {
   "type": "Feature",
   "geometry": {
    "type": "Point",
    "coordinates": [
     126.979806410218,
     37.5179343638194
    ]
   },
   "properties": {
    "pid": "16710165",
    "name": "오통영",
    "phone": "02-794-2377",
    "source": "동부이촌동 - 이촌동역 - 오통영",
    "address": "서울 용산구 이촌로 300",
    "website": "http://place.map.daum.net/16710165",
    "category": "김밥 "
   }
  },
  {
   "type": "Feature",
   "geometry": {
    "type": "Point",
    "coordinates": [
     126.98388263612587,
     37.56230761762366
    ]
   },
   "properties": {
    "pid": "8995971",
    "name": "명화당 명동1호점",
    "phone": "",
    "source": "명동 - 명동역 - 명화당",
    "address": "서울 중구 명동4길 32",
    "website": "http://place.map.daum.net/8995971",
    "category": "김밥 "
   }
  },
  {
   "type": "Feature",
   "geometry": {
    "type": "Point",
    "coordinates": [
     127.016572011708,
     37.5913734526139
    ]
   },
   "properties": {
    "pid": "15799397",
    "name": "따끈하니쫄깃하니",
    "phone": "02-929-0314",
    "source": "동소문동 - 성신여대입구역 - 따끈따끈하니 쫄깃쫄깃하니",
    "address": "서울 성북구 동소문로20길 28-4",
    "website": "http://place.map.daum.net/15799397",
    "category": "김밥 "
   }
  },
  {
   "type": "Feature",
   "geometry": {
    "type": "Point",
    "coordinates": [
     127.06695764760495,
     37.59654325499688
    ]
   },
   "properties": {
    "pid": "24691355",
    "name": "엄마손즉석김밥",
    "phone": "02-957-7546",
    "source": "회기동 - 회기역 - 즉석김밥",
    "address": "서울 동대문구 휘경로31길 57",
    "website": "http://place.map.daum.net/24691355",
    "category": "김밥 "
   }
  },
  {
   "type": "Feature",
   "geometry": {
    "type": "Point",
    "coordinates": [
     127.125778146793,
     37.5026349443063
    ]
   },
   "properties": {
    "pid": "14665504",
    "name": "롤하우스이레",
    "phone": "02-401-6588",
    "source": "가락동 - 가락시장역 - 이레",
    "address": "서울 송파구 중대로23길 20",
    "website": "http://place.map.daum.net/14665504",
    "category": "김밥 "
   }
  },
  {
   "type": "Feature",
   "geometry": {
    "type": "Point",
    "coordinates": [
     126.964185104603,
     37.4750859935728
    ]
   },
   "properties": {
    "pid": "15284014",
    "name": "이레김밥 봉천1호점",
    "phone": "02-878-1144",
    "source": "인헌동 - 낙성대역 - 이레김밥",
    "address": "서울 관악구 남부순환로246길 31",
    "website": "http://place.map.daum.net/15284014",
    "category": "김밥 "
   }
  },
  {
   "type": "Feature",
   "geometry": {
    "type": "Point",
    "coordinates": [
     127.02913424733,
     37.5874895450479
    ]
   },
   "properties": {
    "pid": "13086789",
    "name": "고른햇살",
    "phone": "02-953-3394",
    "source": "안암동 - 안암역 - 고른햇살",
    "address": "서울 성북구 개운사길 27",
    "website": "http://place.map.daum.net/13086789",
    "category": "김밥 "
   }
  },
  {
   "type": "Feature",
   "geometry": {
    "type": "Point",
    "coordinates": [
     126.9858567956722,
     37.573036748020826
    ]
   },
   "properties": {
    "pid": "27316408",
    "name": "예술김밥 인사동점",
    "phone": "02-733-2587",
    "source": "인사동 - 종각역 - 예술김밥",
    "address": "서울 종로구 인사동5길 4",
    "website": "http://place.map.daum.net/27316408",
    "category": "김밥 "
   }
  },
  {
   "type": "Feature",
   "geometry": {
    "type": "Point",
    "coordinates": [
     126.966964763954,
     37.5809256832267
    ]
   },
   "properties": {
    "pid": "18643183",
    "name": "남도분식",
    "phone": "02-723-7775",
    "source": "누상동 - 경복궁역 - 남도분식",
    "address": "서울 종로구 옥인2길 2",
    "website": "http://place.map.daum.net/18643183",
    "category": "김밥 "
   }
  }
 ]
}