{"type": "FeatureCollection","features": [
  {"type": "Feature", "geometry": {"type": "Point", "coordinates": [126.999750974557, 37.5686839857322]}, "properties": {"name": "\uc740\uc8fc\uc815", "address": "\uc11c\uc6b8 \uc911\uad6c \ucc3d\uacbd\uad81\ub85c8\uae38 32", "website": "http://place.map.daum.net/8050105", "phone": "02-2265-4669", "source": "\uc8fc\uad50\ub3d9 - \uc744\uc9c0\ub85c4\uac00\uc5ed - \uc740\uc8fc\uc815", "pid": "8050105"}}
  ,{"type": "Feature", "geometry": {"type": "Point", "coordinates": [126.99875940309, 37.5685290082279]}, "properties": {"name": "\ubcf4\uac74\uc625", "address": "\uc11c\uc6b8 \uc911\uad6c \ucc3d\uacbd\uad81\ub85c8\uae38 12", "website": "http://place.map.daum.net/10375797", "phone": "02-2275-3743", "source": "\uc8fc\uad50\ub3d9 - \uc744\uc9c0\ub85c4\uac00\uc5ed - \ubcf4\uac74\uc625", "pid": "10375797"}}
  ,{"type": "Feature", "geometry": {"type": "Point", "coordinates": [127.040158571743, 37.5219477365449]}, "properties": {"name": "\ud604\ub300\uc815\uc721\uc2dd\ub2f9", "address": "\uc11c\uc6b8 \uac15\ub0a8\uad6c \uc120\ub989\ub85c146\uae38 5", "website": "http://place.map.daum.net/11257354", "phone": "02-540-7205", "source": "\uccad\ub2f4\ub3d9 - \uac15\ub0a8\uad6c\uccad\uc5ed - \ud604\ub300\uc815\uc721\uc2dd\ub2f9", "pid": "11257354"}}
  ,{"type": "Feature", "geometry": {"type": "Point", "coordinates": [126.975001504686, 37.5712834140276]}, "properties": {"name": "\uad11\ud654\ubb38\uc9d1", "address": "\uc11c\uc6b8 \uc885\ub85c\uad6c \uc0c8\ubb38\uc548\ub85c5\uae38 12", "website": "http://place.map.daum.net/26558016", "phone": "02-739-7737", "source": "\uc2e0\ubb38\ub85c1\uac00 - \uad11\ud654\ubb38\uc5ed - \uad11\ud654\ubb38\uc9d1", "pid": "26558016"}}
  ,{"type": "Feature", "geometry": {"type": "Point", "coordinates": [127.05305626671, 37.5243537295834]}, "properties": {"name": "\uc7a5\ub3c5\ub300\uae40\uce58\ucc0c\uac1c \uccad\ub2f4\uc810", "address": "\uc11c\uc6b8 \uac15\ub0a8\uad6c \ub3c4\uc0b0\ub300\ub85c102\uae38 5", "website": "http://place.map.daum.net/1477858716", "phone": "02-543-7754", "source": "\uccad\ub2f4\ub3d9 - \uccad\ub2f4\uc5ed - \uc7a5\ub3c5\ub300\uae40\uce58\ucc0c\uac1c", "pid": "1477858716"}}
  ,{"type": "Feature", "geometry": {"type": "Point", "coordinates": [127.000126722915, 37.5369904787104]}, "properties": {"name": "\ub098\ub9ac\uc758\uc9d1", "address": "\uc11c\uc6b8 \uc6a9\uc0b0\uad6c \uc774\ud0dc\uc6d0\ub85c 245", "website": "http://place.map.daum.net/8194939", "phone": "02-793-4860", "source": "\uc774\ud0dc\uc6d0\ub3d9 - \ud55c\uac15\uc9c4\uc5ed - \ub098\ub9ac\uc758 \uc9d1", "pid": "8194939"}}
  ,{"type": "Feature", "geometry": {"type": "Point", "coordinates": [126.973400165128, 37.5414960875253]}, "properties": {"name": "\uc7a5\ub3c5\ub300\uae40\uce58\ub9c8\uc744", "address": "\uc11c\uc6b8 \uc6a9\uc0b0\uad6c \ud55c\uac15\ub300\ub85c 258", "website": "http://place.map.daum.net/8071358", "phone": "02-749-8744", "source": "\ub0a8\uc601\ub3d9 - \uc219\ub300\uc785\uad6c\uc5ed - \uc7a5\ub3c5\ub300\uae40\uce58\ub9c8\uc744", "pid": "8071358"}}
  ,{"type": "Feature", "geometry": {"type": "Point", "coordinates": [126.890856608453, 37.5050841986464]}, "properties": {"name": "\ud0dc\uc601\uc2dd\ub2f9", "address": "\uc11c\uc6b8 \uad6c\ub85c\uad6c \uacf5\uc6d0\ub85c6\ub098\uae38 29-22", "website": "http://place.map.daum.net/10817606", "phone": "02-839-4960", "source": "\uad6c\ub85c\ub3d9 - \uc2e0\ub3c4\ub9bc\uc5ed - \ud0dc\uc601\uc2dd\ub2f9", "pid": "10817606"}}
  ,{"type": "Feature", "geometry": {"type": "Point", "coordinates": [126.980044344757, 37.5589299149017]}, "properties": {"name": "\ud68c\ud604\uc9d1", "address": "\uc11c\uc6b8 \uc911\uad6c \ud1f4\uacc4\ub85c8\uae38 7", "website": "http://place.map.daum.net/8166839", "phone": "02-753-4349", "source": "\ud68c\ud604\ub3d9 - \ud68c\ud604\uc5ed - \ud68c\ud604\uc9d1", "pid": "8166839"}}
  ,{"type": "Feature", "geometry": {"type": "Point", "coordinates": [127.023681354609, 37.4869030784845]}, "properties": {"name": "\uc7a5\uaf2c\ubc29", "address": "\uc11c\uc6b8 \uc11c\ucd08\uad6c \ud6a8\ub839\ub85c 364", "website": "http://place.map.daum.net/8051506", "phone": "", "source": "\uc11c\ucd08\ub3d9 - \ub0a8\ubd80\ud130\ubbf8\ub110\uc5ed - \uc7a5\uaf2c\ubc29", "pid": "8051506"}}
  ,{"type": "Feature", "geometry": {"type": "Point", "coordinates": [126.981622937321, 37.5461179784532]}, "properties": {"name": "\ub0a8\uc0b0\uace0\uc744\uc8fc\ub9c9\ud638\ud504", "address": "\uc11c\uc6b8 \uc6a9\uc0b0\uad6c \uc2e0\ud765\ub85c 145", "website": "http://place.map.daum.net/15613207", "phone": "02-318-1334", "source": "\uc774\ud0dc\uc6d0\ub3d9 - \ub179\uc0ac\ud3c9\uc5ed - \ub0a8\uc0b0\uae40\uce58\ucc0c\uac1c", "pid": "15613207"}}
  ,{"type": "Feature", "geometry": {"type": "Point", "coordinates": [127.10412211130397, 37.50801070296072]}, "properties": {"name": "\uc624\ubaa8\ub9ac\ucc0c\uac1c \uc7a0\uc2e4\ubcf8\uc810", "address": "\uc11c\uc6b8 \uc1a1\ud30c\uad6c \uc1a1\ud30c\ub300\ub85c 471", "website": "http://place.map.daum.net/1683687914", "phone": "02-2203-0067", "source": "\uc11d\ucd0c\ub3d9 - \uc7a0\uc2e4\uc5ed - \uc624\ubaa8\ub9ac\ucc0c\uac1c", "pid": "1683687914"}}
  ,{"type": "Feature", "geometry": {"type": "Point", "coordinates": [127.019972627478, 37.5207347191957]}, "properties": {"name": "\uae40\ubd81\uc21c\ud070\ub0a8\ube44\uc9d1 \uc2e0\uc0ac\ubcf8\uc810", "address": "\uc11c\uc6b8 \uac15\ub0a8\uad6c \uc555\uad6c\uc815\ub85c2\uae38 15", "website": "http://place.map.daum.net/23203958", "phone": "02-543-9024", "source": "\uc2e0\uc0ac\ub3d9 - \uc2e0\uc0ac\uc5ed - \uae40\ubd81\uc21c \ud070\ub0a8\ube44\uc9d1", "pid": "23203958"}}
  ,{"type": "Feature", "geometry": {"type": "Point", "coordinates": [127.052889669187, 37.5255287111897]}, "properties": {"name": "\uc0c8\ubcbd\uc9d1 \uccad\ub2f4\uc810", "address": "\uc11c\uc6b8 \uac15\ub0a8\uad6c \ub3c4\uc0b0\ub300\ub85c101\uae38 6", "website": "http://place.map.daum.net/19880897", "phone": "02-546-5739", "source": "\uccad\ub2f4\ub3d9 - \uccad\ub2f4\uc5ed - \uc0c8\ubcbd\uc9d1", "pid": "19880897"}}
  ,{"type": "Feature", "geometry": {"type": "Point", "coordinates": [126.986266247976, 37.5748423899624]}, "properties": {"name": "\uae40\uce58\ucc0c\uac1c\uc9d1", "address": "\uc11c\uc6b8 \uc885\ub85c\uad6c \uc778\uc0ac\ub3d910\uae38 23-14", "website": "http://place.map.daum.net/10200704", "phone": "02-739-1443", "source": "\uc778\uc0ac\ub3d9 - \uc885\ub85c3\uac00\uc5ed - \uac04\ud310\uc5c6\ub294 \uae40\uce58\ucc0c\uac1c", "pid": "10200704"}}
  ,{"type": "Feature", "geometry": {"type": "Point", "coordinates": [126.970341299699, 37.5623949119646]}, "properties": {"name": "\uc7a5\ud638\uc655\uacf1\ucc3d", "address": "\uc11c\uc6b8 \uc911\uad6c \uc11c\uc18c\ubb38\ub85c 83", "website": "http://place.map.daum.net/21928646", "phone": "02-756-5070", "source": "\uc11c\uc18c\ubb38\ub3d9 - \uc2dc\uccad\uc5ed - \uc7a5\ud638\uc655\uacf1\ucc3d", "pid": "21928646"}}
  ,{"type": "Feature", "geometry": {"type": "Point", "coordinates": [127.074486650233, 37.6013845509729]}, "properties": {"name": "\uc774\ud654\uae40\uce58\ucc0c\uac1c", "address": "\uc11c\uc6b8 \uc911\ub791\uad6c \uc911\ub791\ucc9c\ub85c 188", "website": "http://place.map.daum.net/13311783", "phone": "02-432-4320", "source": "\uc911\ud654\ub3d9 - \uc911\ud654\uc5ed - \uc774\ud654\uae40\uce58\ucc0c\uac1c", "pid": "13311783"}}
  ,{"type": "Feature", "geometry": {"type": "Point", "coordinates": [126.984869203977, 37.5642573242741]}, "properties": {"name": "\uba85\ub3d9\uc870\uac1c\uad6c\uc774\ucc1c", "address": "\uc11c\uc6b8 \uc911\uad6c \uba85\ub3d99\uae38 7", "website": "http://place.map.daum.net/7876529", "phone": "02-776-6721", "source": "\uba85\ub3d9 - \uba85\ub3d9\uc5ed - \uace8\ubaa9\uc9d1", "pid": "7876529"}}
  ,{"type": "Feature", "geometry": {"type": "Point", "coordinates": [126.86776161833191, 37.54896820113294]}, "properties": {"name": "\ub354\ub354\ucc28\ub3cc\uc0bc\uacb9", "address": "\uc11c\uc6b8 \uc591\ucc9c\uad6c \ubaa9\ub3d9\uc911\uc559\ubd81\ub85c7\uae38 26", "website": "http://place.map.daum.net/878494986", "phone": "02-2654-3392", "source": "\ubaa9\ub3d9 - \ub4f1\ucd0c\uc5ed - \ub354\ub354\uc0bc\uacb9", "pid": "878494986"}}
  ,{"type": "Feature", "geometry": {"type": "Point", "coordinates": [126.918320452138, 37.555519203261]}, "properties": {"name": "\ub300\uccad\ub9c8\ub8e8", "address": "\uc11c\uc6b8 \ub9c8\ud3ec\uad6c \ub3d9\uad50\ub85c 147", "website": "http://place.map.daum.net/10321608", "phone": "02-333-6101", "source": "\uc11c\uad50\ub3d9 - \ud64d\ub300\uc785\uad6c\uc5ed - \ub300\uccad\ub9c8\ub8e8\uae40\uce58\ucc0c\uac1c\uc804\ubb38", "pid": "10321608"}}
  ,{"type": "Feature", "geometry": {"type": "Point", "coordinates": [127.084782886875, 37.5096524665812]}, "properties": {"name": "\ud0d5", "address": "\uc11c\uc6b8 \uc1a1\ud30c\uad6c \ubc31\uc81c\uace0\ubd84\ub85c15\uae38 48", "website": "http://place.map.daum.net/10815967", "phone": "02-412-9303", "source": "\uc7a0\uc2e4\ub3d9 - \uc2e0\ucc9c\uc5ed - \ud0d5", "pid": "10815967"}}
  ,{"type": "Feature", "geometry": {"type": "Point", "coordinates": [126.934841415517, 37.5582288640642]}, "properties": {"name": "\ub0ad\ud48d", "address": "\uc11c\uc6b8 \uc11c\ub300\ubb38\uad6c \uc5f0\uc138\ub85c7\uc548\uae38 34-1", "website": "http://place.map.daum.net/11831390", "phone": "02-337-4076", "source": "\ucc3d\ucc9c\ub3d9 - \uc2e0\ucd0c\uc5ed - \ub0ad\ud48d", "pid": "11831390"}}
  ,{"type": "Feature", "geometry": {"type": "Point", "coordinates": [126.936199803568, 37.557926870874]}, "properties": {"name": "\ucca0\uc774\ub124\ub450\ub8e8\uce58\uae30", "address": "\uc11c\uc6b8 \uc11c\ub300\ubb38\uad6c \uc5f0\uc138\ub85c7\uc548\uae38 5", "website": "http://place.map.daum.net/19264701", "phone": "02-322-0898", "source": "\ucc3d\ucc9c\ub3d9 - \uc2e0\ucd0c\uc5ed - \ucca0\uc774\ub124\ub450\ub8e8\uce58\uae30", "pid": "19264701"}}
  ,{"type": "Feature", "geometry": {"type": "Point", "coordinates": [127.037795933232, 37.5027427109964]}, "properties": {"name": "\ub300\ub3c5\uc7a5 \uc5ed\uc0bc\uc810", "address": "\uc11c\uc6b8 \uac15\ub0a8\uad6c \ub17c\ud604\ub85c94\uae38 19", "website": "http://place.map.daum.net/27440882", "phone": "02-562-5116", "source": "\uc5ed\uc0bc\ub3d9 - \uc5ed\uc0bc\uc5ed - \ub300\ub3c5\uc7a5", "pid": "27440882"}}
  ,{"type": "Feature", "geometry": {"type": "Point", "coordinates": [126.950805519086, 37.5421087241179]}, "properties": {"name": "\uad74\ub2e4\ub9ac\uc2dd\ub2f9", "address": "\uc11c\uc6b8 \ub9c8\ud3ec\uad6c \uc0c8\ucc3d\ub85c 8-1", "website": "http://place.map.daum.net/12079226", "phone": "02-712-0066", "source": "\ub3c4\ud654\ub3d9 - \uacf5\ub355\uc5ed - \uad74\ub2e4\ub9ac\uc2dd\ub2f9", "pid": "12079226"}}
  ,{"type": "Feature", "geometry": {"type": "Point", "coordinates": [126.964883864051, 37.56659926523]}, "properties": {"name": "\ud55c\uc625\uc9d1\uae40\uce58\ucc1c \uc11c\ub300\ubb38\ubcf8\uc810", "address": "\uc11c\uc6b8 \uc11c\ub300\ubb38\uad6c \ud1b5\uc77c\ub85c9\uc548\uae38 14", "website": "http://place.map.daum.net/16732242", "phone": "02-362-8653", "source": "\ub0c9\ucc9c\ub3d9 - \uc11c\ub300\ubb38\uc5ed - \ud55c\uc625\uc9d1", "pid": "16732242"}}
  ,{"type": "Feature", "geometry": {"type": "Point", "coordinates": [126.919713291109, 37.5484383147205]}, "properties": {"name": "\uc639\ub2ec\uc0d8 \ubcf8\uc810", "address": "\uc11c\uc6b8 \ub9c8\ud3ec\uad6c \uc591\ud654\ub85c6\uae38 99", "website": "http://place.map.daum.net/26871332", "phone": "02-333-2440", "source": "\uc11c\uad50\ub3d9 - \ud64d\ub300\uc785\uad6c\uc5ed - \uc639\ub2ec\uc0d8", "pid": "26871332"}}
  ,{"type": "Feature", "geometry": {"type": "Point", "coordinates": [126.896498534982, 37.4849571874798]}, "properties": {"name": "\ud55c\uc625\uc9d1\uae40\uce58\ucc1c \uad6c\ub85c\uc2dd\uac1d\ucd0c\uc810", "address": "\uc11c\uc6b8 \uad6c\ub85c\uad6c \ub514\uc9c0\ud138\ub85c 300", "website": "http://place.map.daum.net/27265741", "phone": "", "source": "\uad6c\ub85c\ub3d9 - \uad6c\ub85c\ub514\uc9c0\ud138\ub2e8\uc9c0\uc5ed - \ud55c\uc625\uc9d1\uae40\uce58\ucc1c", "pid": "27265741"}}
  ,{"type": "Feature", "geometry": {"type": "Point", "coordinates": [126.939501022861, 37.5455200629511]}, "properties": {"name": "\uad70\uc790\ub124", "address": "\uc11c\uc6b8 \ub9c8\ud3ec\uad6c \ub300\ud765\ub85c 53", "website": "http://place.map.daum.net/15963187", "phone": "02-706-5454", "source": "\ub300\ud765\ub3d9 - \ub300\ud765\uc5ed - \uad70\uc790\ub124", "pid": "15963187"}}
]}
