{
 "type": "FeatureCollection",
 "features": [
  {
   "type": "Feature",
   "geometry": {
    "type": "Point",
    "coordinates": [
     126.916268205019,
     37.5488071333876
    ]
   },
   "properties": {
    "pid": "24166931",
    "name": "쿠이신보",
    "phone": "02-332-9215",
    "source": "합정동 - 합정역 - 쿠이신보",
    "address": "서울 마포구 양화로6길 38",
    "website": "http://place.map.daum.net/24166931",
    "category": "꼬치구이, 로바다야끼"
   }
  },
  {
   "type": "Feature",
   "geometry": {
    "type": "Point",
    "coordinates": [
     126.922291402247,
     37.5460037390695
    ]
   },
   "properties": {
    "pid": "18437857",
    "name": "쿠시무라",
    "phone": "02-333-2650",
    "source": "상수동 - 상수역 - 쿠시무라",
    "address": "서울 마포구 와우산로3길 13",
    "website": "http://place.map.daum.net/18437857",
    "category": "꼬치구이, 로바다야끼"
   }
  },
  {
   "type": "Feature",
   "geometry": {
    "type": "Point",
    "coordinates": [
     126.923405282816,
     37.5500409404478
    ]
   },
   "properties": {
    "pid": "12513910",
    "name": "천하",
    "phone": "02-325-9642",
    "source": "상수동 - 상수역 - 천하",
    "address": "서울 마포구 와우산로14길 4",
    "website": "http://place.map.daum.net/12513910",
    "category": "꼬치구이, 로바다야끼"
   }
  },
  {
   "type": "Feature",
   "geometry": {
    "type": "Point",
    "coordinates": [
     127.056118736642,
     37.5109453848254
    ]
   },
   "properties": {
    "pid": "27231483",
    "name": "쿠시152",
    "phone": "02-566-5487",
    "source": "삼성동 - 삼성역 - 쿠시 152",
    "address": "서울 강남구 삼성로104길 16",
    "website": "http://place.map.daum.net/27231483",
    "category": "꼬치구이, 로바다야끼"
   }
  },
  {
   "type": "Feature",
   "geometry": {
    "type": "Point",
    "coordinates": [
     126.999352820555,
     37.5355344600676
    ]
   },
   "properties": {
    "pid": "10419076",
    "name": "문타로",
    "phone": "02-796-7232",
    "source": "한남동 - 한강진역 - 문타로",
    "address": "서울 용산구 이태원로 230-1",
    "website": "http://place.map.daum.net/10419076",
    "category": "꼬치구이, 로바다야끼"
   }
  },
  {
   "type": "Feature",
   "geometry": {
    "type": "Point",
    "coordinates": [
     126.99922157531,
     37.5354443592056
    ]
   },
   "properties": {
    "pid": "13320854",
    "name": "유다 일본식숯불꼬치구이 이태원점",
    "phone": "02-538-9739",
    "source": "한남동 - 한강진역 - 유다",
    "address": "서울 용산구 이태원로 228-1",
    "website": "http://place.map.daum.net/13320854",
    "category": "꼬치구이, 로바다야끼"
   }
  },
  {
   "type": "Feature",
   "geometry": {
    "type": "Point",
    "coordinates": [
     127.050074625271,
     37.5249064447637
    ]
   },
   "properties": {
    "pid": "8088773",
    "name": "천하의문타로 청담점",
    "phone": "02-516-9642",
    "source": "청담동 - 청담역 - 천하의문타로",
    "address": "서울 강남구 도산대로 519",
    "website": "http://place.map.daum.net/8088773",
    "category": "꼬치구이, 로바다야끼"
   }
  },
  {
   "type": "Feature",
   "geometry": {
    "type": "Point",
    "coordinates": [
     127.023769525372,
     37.5082352901335
    ]
   },
   "properties": {
    "pid": "1168847672",
    "name": "구십사단",
    "phone": "070-7869-8294",
    "source": "논현동 - 논현역 - 94단",
    "address": "",
    "website": "http://place.map.daum.net/1168847672",
    "category": "꼬치구이, 로바다야끼"
   }
  },
  {
   "type": "Feature",
   "geometry": {
    "type": "Point",
    "coordinates": [
     126.992786053487,
     37.5348314609241
    ]
   },
   "properties": {
    "pid": "19723946",
    "name": "고우",
    "phone": "02-794-7088",
    "source": "이태원동 - 이태원역 - 고우",
    "address": "서울 용산구 이태원로27가길 45",
    "website": "http://place.map.daum.net/19723946",
    "category": "꼬치구이, 로바다야끼"
   }
  },
  {
   "type": "Feature",
   "geometry": {
    "type": "Point",
    "coordinates": [
     126.988621763582,
     37.5391559353486
    ]
   },
   "properties": {
    "pid": "27494754",
    "name": "야끼도리 바이",
    "phone": "02-792-0192",
    "source": "이태원동 - 녹사평역 - 야끼도리 바이",
    "address": "서울 용산구 녹사평대로54길 23",
    "website": "http://place.map.daum.net/27494754",
    "category": "꼬치구이, 로바다야끼"
   }
  },
  {
   "type": "Feature",
   "geometry": {
    "type": "Point",
    "coordinates": [
     127.033820285661,
     37.4943285171926
    ]
   },
   "properties": {
    "pid": "17079118",
    "name": "에독코",
    "phone": "070-7750-6808",
    "source": "역삼동 - 강남역 - 에독코",
    "address": "서울 강남구 역삼로 129",
    "website": "http://place.map.daum.net/17079118",
    "category": "꼬치구이, 로바다야끼"
   }
  },
  {
   "type": "Feature",
   "geometry": {
    "type": "Point",
    "coordinates": [
     127.020724130049,
     37.5221077180446
    ]
   },
   "properties": {
    "pid": "8016418",
    "name": "와라쿠",
    "phone": "02-517-2292",
    "source": "신사동 - 신사역 - 와라쿠",
    "address": "서울 강남구 압구정로4길 13-7",
    "website": "http://place.map.daum.net/8016418",
    "category": "꼬치구이, 로바다야끼"
   }
  },
  {
   "type": "Feature",
   "geometry": {
    "type": "Point",
    "coordinates": [
     126.998909849336,
     37.4977103263601
    ]
   },
   "properties": {
    "pid": "18843101",
    "name": "히바치야",
    "phone": "02-532-4333",
    "source": "반포동 - 서초역 - 히바치야",
    "address": "서울 서초구 서래로6길 10",
    "website": "http://place.map.daum.net/18843101",
    "category": "꼬치구이, 로바다야끼"
   }
  },
  {
   "type": "Feature",
   "geometry": {
    "type": "Point",
    "coordinates": [
     126.926029244777,
     37.5561081306756
    ]
   },
   "properties": {
    "pid": "17471692",
    "name": "꼬치다",
    "phone": "02-326-4400",
    "source": "서교동 - 홍대입구역 - 꼬치다",
    "address": "서울 마포구 어울마당로 144-1",
    "website": "http://place.map.daum.net/17471692",
    "category": "꼬치구이, 로바다야끼"
   }
  },
  {
   "type": "Feature",
   "geometry": {
    "type": "Point",
    "coordinates": [
     126.923284453122,
     37.5619340270667
    ]
   },
   "properties": {
    "pid": "18508328",
    "name": "야끼토리지중",
    "phone": "02-325-5050",
    "source": "연남동 - 홍대입구역 - 야끼도리하루",
    "address": "서울 마포구 동교로29길 32",
    "website": "http://place.map.daum.net/18508328",
    "category": "꼬치구이, 로바다야끼"
   }
  },
  {
   "type": "Feature",
   "geometry": {
    "type": "Point",
    "coordinates": [
     126.920427018819,
     37.5625844571873
    ]
   },
   "properties": {
    "pid": "24062364",
    "name": "요나요나",
    "phone": "02-338-2885",
    "source": "연남동 - 홍대입구역 - 요나요나",
    "address": "서울 마포구 성미산로 122",
    "website": "http://place.map.daum.net/24062364",
    "category": "꼬치구이, 로바다야끼"
   }
  },
  {
   "type": "Feature",
   "geometry": {
    "type": "Point",
    "coordinates": [
     126.927915981313,
     37.5571580584548
    ]
   },
   "properties": {
    "pid": "26418829",
    "name": "수제 야끼토리이찌고이찌에",
    "phone": "02-3144-4959",
    "source": "동교동 - 홍대입구역 - 이찌고이찌에",
    "address": "서울 마포구 신촌로4길 22-8",
    "website": "http://place.map.daum.net/26418829",
    "category": "꼬치구이, 로바다야끼"
   }
  },
  {
   "type": "Feature",
   "geometry": {
    "type": "Point",
    "coordinates": [
     127.023979925233,
     37.5719251338669
    ]
   },
   "properties": {
    "pid": "16678408",
    "name": "오카구라109",
    "phone": "02-2232-3109",
    "source": "신설동 - 신설동역 - 오카구라 109",
    "address": "서울 동대문구 청계천로 417",
    "website": "http://place.map.daum.net/16678408",
    "category": "꼬치구이, 로바다야끼"
   }
  },
  {
   "type": "Feature",
   "geometry": {
    "type": "Point",
    "coordinates": [
     127.107798984715,
     37.5076659107179
    ]
   },
   "properties": {
    "pid": "13561207",
    "name": "도키도키키친",
    "phone": "02-2203-3369",
    "source": "석촌동 - 석촌역 - 도키도키",
    "address": "서울 송파구 백제고분로41길 18",
    "website": "http://place.map.daum.net/13561207",
    "category": "꼬치구이, 로바다야끼"
   }
  },
  {
   "type": "Feature",
   "geometry": {
    "type": "Point",
    "coordinates": [
     126.900181293128,
     37.4839800594094
    ]
   },
   "properties": {
    "pid": "20552194",
    "name": "오꼬",
    "phone": "02-867-0530",
    "source": "구로동 - 구로디지털단지역 - 오꼬",
    "address": "서울 구로구 디지털로32나길 17-5",
    "website": "http://place.map.daum.net/20552194",
    "category": "꼬치구이, 로바다야끼"
   }
  },
  {
   "type": "Feature",
   "geometry": {
    "type": "Point",
    "coordinates": [
     126.927553284335,
     37.4875139455192
    ]
   },
   "properties": {
    "pid": "8093049",
    "name": "진화로 신림본점",
    "phone": "02-877-0422",
    "source": "신림동 - 신림역 - 진화로",
    "address": "서울 관악구 신림동길 10",
    "website": "http://place.map.daum.net/8093049",
    "category": "꼬치구이, 로바다야끼"
   }
  },
  {
   "type": "Feature",
   "geometry": {
    "type": "Point",
    "coordinates": [
     126.946173444165,
     37.4816781536629
    ]
   },
   "properties": {
    "pid": "25430101",
    "name": "계수작",
    "phone": "070-4652-0076",
    "source": "봉천동 - 봉천역 - 계수작",
    "address": "서울 관악구 남부순환로 1766",
    "website": "http://place.map.daum.net/25430101",
    "category": "꼬치구이, 로바다야끼"
   }
  },
  {
   "type": "Feature",
   "geometry": {
    "type": "Point",
    "coordinates": [
     126.975045595348,
     37.5205319470453
    ]
   },
   "properties": {
    "pid": "24482696",
    "name": "바베큐큐브",
    "phone": "02-797-5688",
    "source": "이촌동 - 동부이촌동역 - 바베큐큐브",
    "address": "서울 용산구 이촌로77길 19",
    "website": "http://place.map.daum.net/24482696",
    "category": "꼬치구이, 로바다야끼"
   }
  },
  {
   "type": "Feature",
   "geometry": {
    "type": "Point",
    "coordinates": [
     126.927214075105,
     37.5201301307501
    ]
   },
   "properties": {
    "pid": "8217961",
    "name": "다미",
    "phone": "02-783-5167",
    "source": "여의도동 - 여의도역 - 다미",
    "address": "서울 영등포구 국제금융로8길 34",
    "website": "http://place.map.daum.net/8217961",
    "category": "꼬치구이, 로바다야끼"
   }
  },
  {
   "type": "Feature",
   "geometry": {
    "type": "Point",
    "coordinates": [
     126.927236594093,
     37.5202382649672
    ]
   },
   "properties": {
    "pid": "17180659",
    "name": "대원 로바다야끼",
    "phone": "02-784-0879",
    "source": "여의도동 - 여의도력 - 대원",
    "address": "서울 영등포구 국제금융로8길 34",
    "website": "http://place.map.daum.net/17180659",
    "category": "꼬치구이, 로바다야끼"
   }
  },
  {
   "type": "Feature",
   "geometry": {
    "type": "Point",
    "coordinates": [
     126.98125539205,
     37.5678211460499
    ]
   },
   "properties": {
    "pid": "12503211",
    "name": "도리방",
    "phone": "02-754-9256",
    "source": "다동 - 을지로입구역 - 도리방",
    "address": "서울 중구 다동길 36",
    "website": "http://place.map.daum.net/12503211",
    "category": "꼬치구이, 로바다야끼"
   }
  },
  {
   "type": "Feature",
   "geometry": {
    "type": "Point",
    "coordinates": [
     126.91949589410135,
     37.58696083463227
    ]
   },
   "properties": {
    "pid": "21403100",
    "name": "길손주점",
    "phone": "",
    "source": "신사동 - 압구정역 - 길손",
    "address": "서울 은평구 응암로12길 26-5",
    "website": "http://place.map.daum.net/21403100",
    "category": "꼬치구이, 로바다야끼"
   }
  },
  {
   "type": "Feature",
   "geometry": {
    "type": "Point",
    "coordinates": [
     126.909006927978,
     37.6052184046093
    ]
   },
   "properties": {
    "pid": "22213706",
    "name": "아라초밥",
    "phone": "02-322-3447",
    "source": "신사동 - 압구정역 - 아라도",
    "address": "서울 은평구 갈현로11길 13",
    "website": "http://place.map.daum.net/22213706",
    "category": "꼬치구이, 로바다야끼"
   }
  },
  {
   "type": "Feature",
   "geometry": {
    "type": "Point",
    "coordinates": [
     126.98129053986,
     37.5721134937651
    ]
   },
   "properties": {
    "pid": "8084959",
    "name": "참새집",
    "phone": "02-738-6664",
    "source": "청진동 - 광화문역 - 참새집",
    "address": "서울 종로구 삼봉로 74",
    "website": "http://place.map.daum.net/8084959",
    "category": "꼬치구이, 로바다야끼"
   }
  }
 ]
}