{
 "type": "FeatureCollection",
 "features": [
  {
   "type": "Feature",
   "geometry": {
    "type": "Point",
    "coordinates": [
     126.972683536539,
     37.5580274441942
    ]
   },
   "properties": {
    "pid": "1785604695",
    "name": "명동집",
    "phone": "02-773-7318",
    "source": "남대문로 5가 - 회현역 - 명동집",
    "address": "서울 중구 통일로 22-14",
    "website": "http://place.map.daum.net/1785604695",
    "category": "냉동삼겹살"
   }
  },
  {
   "type": "Feature",
   "geometry": {
    "type": "Point",
    "coordinates": [
     126.981165552156,
     37.4749781950934
    ]
   },
   "properties": {
    "pid": "27282290",
    "name": "사당삼겹살",
    "phone": "02-597-1981",
    "source": "남현동 - 사당역 - 사당삼겹살",
    "address": "서울 관악구 남현1길 68-18",
    "website": "http://place.map.daum.net/27282290",
    "category": "냉동삼겹살"
   }
  },
  {
   "type": "Feature",
   "geometry": {
    "type": "Point",
    "coordinates": [
     126.937861428083,
     37.5577043097651
    ]
   },
   "properties": {
    "pid": "16875978",
    "name": "대구삼겹살",
    "phone": "02-392-6801",
    "source": "창천동 - 신촌역 - 대구삼겹살",
    "address": "서울 서대문구 명물길 18",
    "website": "http://place.map.daum.net/16875978",
    "category": "냉동삼겹살"
   }
  },
  {
   "type": "Feature",
   "geometry": {
    "type": "Point",
    "coordinates": [
     126.990844853052,
     37.56922422836
    ]
   },
   "properties": {
    "pid": "11657961",
    "name": "한도",
    "phone": "02-2279-8742",
    "source": "관수동 - 종각역 - 한도",
    "address": "서울 종로구 수표로18길 24",
    "website": "http://place.map.daum.net/11657961",
    "category": "냉동삼겹살"
   }
  },
  {
   "type": "Feature",
   "geometry": {
    "type": "Point",
    "coordinates": [
     127.065877420035,
     37.5622649306442
    ]
   },
   "properties": {
    "pid": "11941074",
    "name": "정원갈매기살",
    "phone": "02-2213-5729",
    "source": "장안동 - 장한평역 - 정원갈매기살",
    "address": "서울 동대문구 장한로2길 7",
    "website": "http://place.map.daum.net/11941074",
    "category": "냉동삼겹살"
   }
  },
  {
   "type": "Feature",
   "geometry": {
    "type": "Point",
    "coordinates": [
     126.981667514532,
     37.567399544743
    ]
   },
   "properties": {
    "pid": "10230288",
    "name": "대원집",
    "phone": "02-777-2038",
    "source": "다동 - 을지로입구역 - 대원집",
    "address": "서울 중구 을지로3길 30-4",
    "website": "http://place.map.daum.net/10230288",
    "category": "냉동삼겹살"
   }
  },
  {
   "type": "Feature",
   "geometry": {
    "type": "Point",
    "coordinates": [
     127.000126722915,
     37.5369904787104
    ]
   },
   "properties": {
    "pid": "8194939",
    "name": "나리의집",
    "phone": "02-793-4860",
    "source": "한남동 - 한강진역 - 나리의집",
    "address": "서울 용산구 이태원로 245",
    "website": "http://place.map.daum.net/8194939",
    "category": "냉동삼겹살"
   }
  },
  {
   "type": "Feature",
   "geometry": {
    "type": "Point",
    "coordinates": [
     127.025238838647,
     37.5052256283853
    ]
   },
   "properties": {
    "pid": "8680507",
    "name": "개성집",
    "phone": "02-547-8526",
    "source": "논현동 - 신논현역 - 개성집",
    "address": "서울 강남구 봉은사로1길 9",
    "website": "http://place.map.daum.net/8680507",
    "category": "냉동삼겹살"
   }
  },
  {
   "type": "Feature",
   "geometry": {
    "type": "Point",
    "coordinates": [
     126.930775490279,
     37.485400310578
    ]
   },
   "properties": {
    "pid": "12050528",
    "name": "전주식당",
    "phone": "02-887-5284",
    "source": "신림동 - 신림역 - 전주식당",
    "address": "서울 관악구 신림로66길 20",
    "website": "http://place.map.daum.net/12050528",
    "category": "냉동삼겹살"
   }
  },
  {
   "type": "Feature",
   "geometry": {
    "type": "Point",
    "coordinates": [
     127.035329879043,
     37.5206446275677
    ]
   },
   "properties": {
    "pid": "8059619",
    "name": "자연석돌구이",
    "phone": "02-548-9494",
    "source": "논현동 - 학동역 - 자연석돌구이",
    "address": "서울 강남구 언주로148길 9",
    "website": "http://place.map.daum.net/8059619",
    "category": "냉동삼겹살"
   }
  },
  {
   "type": "Feature",
   "geometry": {
    "type": "Point",
    "coordinates": [
     127.049524054844,
     37.5476911772249
    ]
   },
   "properties": {
    "pid": "1555748996",
    "name": "일미락",
    "phone": "02-499-9293",
    "source": "성수동 - 뚝섬역 - 뚝섬칼국수",
    "address": "서울 성동구 상원6나길 22-20",
    "website": "http://place.map.daum.net/1555748996",
    "category": "냉동삼겹살"
   }
  },
  {
   "type": "Feature",
   "geometry": {
    "type": "Point",
    "coordinates": [
     126.946625932952,
     37.4813395796078
    ]
   },
   "properties": {
    "pid": "11858247",
    "name": "부림",
    "phone": "02-884-9359",
    "source": "봉천동 - 봉천역 - 부림",
    "address": "서울 관악구 청룡1길 7",
    "website": "http://place.map.daum.net/11858247",
    "category": "냉동삼겹살"
   }
  },
  {
   "type": "Feature",
   "geometry": {
    "type": "Point",
    "coordinates": [
     127.023267513423,
     37.5087543688535
    ]
   },
   "properties": {
    "pid": "10119238",
    "name": "영동원삼겹살",
    "phone": "02-541-5090",
    "source": "논현동 - 논현역 - 영동원삼겹살",
    "address": "서울 강남구 강남대로 520",
    "website": "http://place.map.daum.net/10119238",
    "category": "냉동삼겹살"
   }
  },
  {
   "type": "Feature",
   "geometry": {
    "type": "Point",
    "coordinates": [
     127.023782850643,
     37.5074568192128
    ]
   },
   "properties": {
    "pid": "16620520",
    "name": "돼지고추장불고기",
    "phone": "02-547-7633",
    "source": "논현동 - 논현역 - 돼지고추장불고기",
    "address": "서울 강남구 강남대로122길 6",
    "website": "http://place.map.daum.net/16620520",
    "category": "냉동삼겹살"
   }
  },
  {
   "type": "Feature",
   "geometry": {
    "type": "Point",
    "coordinates": [
     127.033449363745,
     37.4942925825179
    ]
   },
   "properties": {
    "pid": "13559752",
    "name": "호남마을",
    "phone": "02-556-7701",
    "source": "역삼동 - 강남역 - 호남마을",
    "address": "서울 강남구 역삼로7길 2",
    "website": "http://place.map.daum.net/13559752",
    "category": "냉동삼겹살"
   }
  },
  {
   "type": "Feature",
   "geometry": {
    "type": "Point",
    "coordinates": [
     127.035192442618,
     37.507407118761
    ]
   },
   "properties": {
    "pid": "16531633",
    "name": "가야식당",
    "phone": "02-556-9367",
    "source": "역삼동 - 언주역 - 가야식당",
    "address": "서울 강남구 봉은사로 210",
    "website": "http://place.map.daum.net/16531633",
    "category": "냉동삼겹살"
   }
  },
  {
   "type": "Feature",
   "geometry": {
    "type": "Point",
    "coordinates": [
     127.126934544663,
     37.5363672434854
    ]
   },
   "properties": {
    "pid": "19567420",
    "name": "풍년상회쪽갈비",
    "phone": "02-478-0555",
    "source": "천호동 - 천호역 - 풍년식당",
    "address": "서울 강동구 천호옛14길 23-6",
    "website": "http://place.map.daum.net/19567420",
    "category": "냉동삼겹살"
   }
  },
  {
   "type": "Feature",
   "geometry": {
    "type": "Point",
    "coordinates": [
     126.932992875204,
     37.5194235602559
    ]
   },
   "properties": {
    "pid": "10504261",
    "name": "서글렁탕",
    "phone": "02-780-8858",
    "source": "여의도동 - 샛강역 - 서글렁탕",
    "address": "서울 영등포구 여의대방로 394",
    "website": "http://place.map.daum.net/10504261",
    "category": "냉동삼겹살"
   }
  },
  {
   "type": "Feature",
   "geometry": {
    "type": "Point",
    "coordinates": [
     126.933961780896,
     37.5238678510792
    ]
   },
   "properties": {
    "pid": "11165764",
    "name": "장미의집",
    "phone": "02-782-2500",
    "source": "여의도동 - 여의도역 - 장미의집",
    "address": "서울 영등포구 국제금융로7길 32",
    "website": "http://place.map.daum.net/11165764",
    "category": "냉동삼겹살"
   }
  },
  {
   "type": "Feature",
   "geometry": {
    "type": "Point",
    "coordinates": [
     126.991460814642,
     37.5676024823336
    ]
   },
   "properties": {
    "pid": "10795503",
    "name": "전주집",
    "phone": "02-2279-1086",
    "source": "입정동 - 을지로3가역 - 전주집",
    "address": "서울 중구 충무로11길 18-8",
    "website": "http://place.map.daum.net/10795503",
    "category": "냉동삼겹살"
   }
  },
  {
   "type": "Feature",
   "geometry": {
    "type": "Point",
    "coordinates": [
     126.93369839416,
     37.6015552151404
    ]
   },
   "properties": {
    "pid": "15417626",
    "name": "골목식당",
    "phone": "02-384-0722",
    "source": "녹번동 - 녹번역 - 골목식당",
    "address": "서울 은평구 은평로21길 4",
    "website": "http://place.map.daum.net/15417626",
    "category": "냉동삼겹살"
   }
  },
  {
   "type": "Feature",
   "geometry": {
    "type": "Point",
    "coordinates": [
     127.01486813273,
     37.5639041670884
    ]
   },
   "properties": {
    "pid": "16035664",
    "name": "이조갈비",
    "phone": "02-2253-3287",
    "source": "신당동 - 신당역 - 이조갈비",
    "address": "서울 중구 다산로35길 16",
    "website": "http://place.map.daum.net/16035664",
    "category": "냉동삼겹살"
   }
  },
  {
   "type": "Feature",
   "geometry": {
    "type": "Point",
    "coordinates": [
     126.98610467229,
     37.4939288898336
    ]
   },
   "properties": {
    "pid": "9368022",
    "name": "일미칼국수",
    "phone": "02-593-9924",
    "source": "방배동 - 동작역 - 일미칼국수",
    "address": "서울 서초구 방배중앙로 167",
    "website": "http://place.map.daum.net/9368022",
    "category": "냉동삼겹살"
   }
  },
  {
   "type": "Feature",
   "geometry": {
    "type": "Point",
    "coordinates": [
     126.994645147891,
     37.4849807768006
    ]
   },
   "properties": {
    "pid": "21251540",
    "name": "LA부대찌개",
    "phone": "02-588-0017",
    "source": "방배동 - 사당역 - LA부대찌개",
    "address": "서울 서초구 효령로31길 90",
    "website": "http://place.map.daum.net/21251540",
    "category": "냉동삼겹살"
   }
  },
  {
   "type": "Feature",
   "geometry": {
    "type": "Point",
    "coordinates": [
     126.851871366927,
     37.5637509104699
    ]
   },
   "properties": {
    "pid": "16530007",
    "name": "제일식당",
    "phone": "02-3661-3616",
    "source": "가양동 - 가양역 - 제일식당",
    "address": "서울 강서구 양천로 443-36",
    "website": "http://place.map.daum.net/16530007",
    "category": "냉동삼겹살"
   }
  }
 ]
}