{"type": "FeatureCollection","features": [
  {"type": "Feature", "geometry": {"type": "Point", "coordinates": [126.972683536539, 37.5580274441942]}, "properties": {"name": "\uba85\ub3d9\uc9d1", "address": "\uc11c\uc6b8 \uc911\uad6c \ud1b5\uc77c\ub85c 22-14", "website": "http://place.map.daum.net/1785604695", "phone": "02-773-7318", "source": "\ub0a8\ub300\ubb38\ub85c 5\uac00 - \ud68c\ud604\uc5ed - \uba85\ub3d9\uc9d1", "pid": "1785604695"}}
  ,{"type": "Feature", "geometry": {"type": "Point", "coordinates": [126.981165552156, 37.4749781950934]}, "properties": {"name": "\uc0ac\ub2f9\uc0bc\uacb9\uc0b4", "address": "\uc11c\uc6b8 \uad00\uc545\uad6c \ub0a8\ud6041\uae38 68-18", "website": "http://place.map.daum.net/27282290", "phone": "02-597-1981", "source": "\ub0a8\ud604\ub3d9 - \uc0ac\ub2f9\uc5ed - \uc0ac\ub2f9\uc0bc\uacb9\uc0b4", "pid": "27282290"}}
  ,{"type": "Feature", "geometry": {"type": "Point", "coordinates": [126.937861428083, 37.5577043097651]}, "properties": {"name": "\ub300\uad6c\uc0bc\uacb9\uc0b4", "address": "\uc11c\uc6b8 \uc11c\ub300\ubb38\uad6c \uba85\ubb3c\uae38 18", "website": "http://place.map.daum.net/16875978", "phone": "02-392-6801", "source": "\ucc3d\ucc9c\ub3d9 - \uc2e0\ucd0c\uc5ed - \ub300\uad6c\uc0bc\uacb9\uc0b4", "pid": "16875978"}}
  ,{"type": "Feature", "geometry": {"type": "Point", "coordinates": [126.990844853052, 37.56922422836]}, "properties": {"name": "\ud55c\ub3c4", "address": "\uc11c\uc6b8 \uc885\ub85c\uad6c \uc218\ud45c\ub85c18\uae38 24", "website": "http://place.map.daum.net/11657961", "phone": "02-2279-8742", "source": "\uad00\uc218\ub3d9 - \uc885\uac01\uc5ed - \ud55c\ub3c4", "pid": "11657961"}}
  ,{"type": "Feature", "geometry": {"type": "Point", "coordinates": [127.065877420035, 37.5622649306442]}, "properties": {"name": "\uc815\uc6d0\uac08\ub9e4\uae30\uc0b4", "address": "\uc11c\uc6b8 \ub3d9\ub300\ubb38\uad6c \uc7a5\ud55c\ub85c2\uae38 7", "website": "http://place.map.daum.net/11941074", "phone": "02-2213-5729", "source": "\uc7a5\uc548\ub3d9 - \uc7a5\ud55c\ud3c9\uc5ed - \uc815\uc6d0\uac08\ub9e4\uae30\uc0b4", "pid": "11941074"}}
  ,{"type": "Feature", "geometry": {"type": "Point", "coordinates": [126.981667514532, 37.567399544743]}, "properties": {"name": "\ub300\uc6d0\uc9d1", "address": "\uc11c\uc6b8 \uc911\uad6c \uc744\uc9c0\ub85c3\uae38 30-4", "website": "http://place.map.daum.net/10230288", "phone": "02-777-2038", "source": "\ub2e4\ub3d9 - \uc744\uc9c0\ub85c\uc785\uad6c\uc5ed - \ub300\uc6d0\uc9d1", "pid": "10230288"}}
  ,{"type": "Feature", "geometry": {"type": "Point", "coordinates": [127.000126722915, 37.5369904787104]}, "properties": {"name": "\ub098\ub9ac\uc758\uc9d1", "address": "\uc11c\uc6b8 \uc6a9\uc0b0\uad6c \uc774\ud0dc\uc6d0\ub85c 245", "website": "http://place.map.daum.net/8194939", "phone": "02-793-4860", "source": "\ud55c\ub0a8\ub3d9 - \ud55c\uac15\uc9c4\uc5ed - \ub098\ub9ac\uc758\uc9d1", "pid": "8194939"}}
  ,{"type": "Feature", "geometry": {"type": "Point", "coordinates": [127.025238838647, 37.5052256283853]}, "properties": {"name": "\uac1c\uc131\uc9d1", "address": "\uc11c\uc6b8 \uac15\ub0a8\uad6c \ubd09\uc740\uc0ac\ub85c1\uae38 9", "website": "http://place.map.daum.net/8680507", "phone": "02-547-8526", "source": "\ub17c\ud604\ub3d9 - \uc2e0\ub17c\ud604\uc5ed - \uac1c\uc131\uc9d1", "pid": "8680507"}}
  ,{"type": "Feature", "geometry": {"type": "Point", "coordinates": [126.930775490279, 37.485400310578]}, "properties": {"name": "\uc804\uc8fc\uc2dd\ub2f9", "address": "\uc11c\uc6b8 \uad00\uc545\uad6c \uc2e0\ub9bc\ub85c66\uae38 20", "website": "http://place.map.daum.net/12050528", "phone": "02-887-5284", "source": "\uc2e0\ub9bc\ub3d9 - \uc2e0\ub9bc\uc5ed - \uc804\uc8fc\uc2dd\ub2f9", "pid": "12050528"}}
  ,{"type": "Feature", "geometry": {"type": "Point", "coordinates": [127.035329879043, 37.5206446275677]}, "properties": {"name": "\uc790\uc5f0\uc11d\ub3cc\uad6c\uc774", "address": "\uc11c\uc6b8 \uac15\ub0a8\uad6c \uc5b8\uc8fc\ub85c148\uae38 9", "website": "http://place.map.daum.net/8059619", "phone": "02-548-9494", "source": "\ub17c\ud604\ub3d9 - \ud559\ub3d9\uc5ed - \uc790\uc5f0\uc11d\ub3cc\uad6c\uc774", "pid": "8059619"}}
  ,{"type": "Feature", "geometry": {"type": "Point", "coordinates": [127.049524054844, 37.5476911772249]}, "properties": {"name": "\uc77c\ubbf8\ub77d", "address": "\uc11c\uc6b8 \uc131\ub3d9\uad6c \uc0c1\uc6d06\ub098\uae38 22-20", "website": "http://place.map.daum.net/1555748996", "phone": "02-499-9293", "source": "\uc131\uc218\ub3d9 - \ub69d\uc12c\uc5ed - \ub69d\uc12c\uce7c\uad6d\uc218", "pid": "1555748996"}}
  ,{"type": "Feature", "geometry": {"type": "Point", "coordinates": [126.946625932952, 37.4813395796078]}, "properties": {"name": "\ubd80\ub9bc", "address": "\uc11c\uc6b8 \uad00\uc545\uad6c \uccad\ub8e11\uae38 7", "website": "http://place.map.daum.net/11858247", "phone": "02-884-9359", "source": "\ubd09\ucc9c\ub3d9 - \ubd09\ucc9c\uc5ed - \ubd80\ub9bc", "pid": "11858247"}}
  ,{"type": "Feature", "geometry": {"type": "Point", "coordinates": [127.023267513423, 37.5087543688535]}, "properties": {"name": "\uc601\ub3d9\uc6d0\uc0bc\uacb9\uc0b4", "address": "\uc11c\uc6b8 \uac15\ub0a8\uad6c \uac15\ub0a8\ub300\ub85c 520", "website": "http://place.map.daum.net/10119238", "phone": "02-541-5090", "source": "\ub17c\ud604\ub3d9 - \ub17c\ud604\uc5ed - \uc601\ub3d9\uc6d0\uc0bc\uacb9\uc0b4", "pid": "10119238"}}
  ,{"type": "Feature", "geometry": {"type": "Point", "coordinates": [127.023782850643, 37.5074568192128]}, "properties": {"name": "\ub3fc\uc9c0\uace0\ucd94\uc7a5\ubd88\uace0\uae30", "address": "\uc11c\uc6b8 \uac15\ub0a8\uad6c \uac15\ub0a8\ub300\ub85c122\uae38 6", "website": "http://place.map.daum.net/16620520", "phone": "02-547-7633", "source": "\ub17c\ud604\ub3d9 - \ub17c\ud604\uc5ed - \ub3fc\uc9c0\uace0\ucd94\uc7a5\ubd88\uace0\uae30", "pid": "16620520"}}
  ,{"type": "Feature", "geometry": {"type": "Point", "coordinates": [127.033449363745, 37.4942925825179]}, "properties": {"name": "\ud638\ub0a8\ub9c8\uc744", "address": "\uc11c\uc6b8 \uac15\ub0a8\uad6c \uc5ed\uc0bc\ub85c7\uae38 2", "website": "http://place.map.daum.net/13559752", "phone": "02-556-7701", "source": "\uc5ed\uc0bc\ub3d9 - \uac15\ub0a8\uc5ed - \ud638\ub0a8\ub9c8\uc744", "pid": "13559752"}}
  ,{"type": "Feature", "geometry": {"type": "Point", "coordinates": [127.035192442618, 37.507407118761]}, "properties": {"name": "\uac00\uc57c\uc2dd\ub2f9", "address": "\uc11c\uc6b8 \uac15\ub0a8\uad6c \ubd09\uc740\uc0ac\ub85c 210", "website": "http://place.map.daum.net/16531633", "phone": "02-556-9367", "source": "\uc5ed\uc0bc\ub3d9 - \uc5b8\uc8fc\uc5ed - \uac00\uc57c\uc2dd\ub2f9", "pid": "16531633"}}
  ,{"type": "Feature", "geometry": {"type": "Point", "coordinates": [127.126934544663, 37.5363672434854]}, "properties": {"name": "\ud48d\ub144\uc0c1\ud68c\ucabd\uac08\ube44", "address": "\uc11c\uc6b8 \uac15\ub3d9\uad6c \ucc9c\ud638\uc61b14\uae38 23-6", "website": "http://place.map.daum.net/19567420", "phone": "02-478-0555", "source": "\ucc9c\ud638\ub3d9 - \ucc9c\ud638\uc5ed - \ud48d\ub144\uc2dd\ub2f9", "pid": "19567420"}}
  ,{"type": "Feature", "geometry": {"type": "Point", "coordinates": [126.932992875204, 37.5194235602559]}, "properties": {"name": "\uc11c\uae00\ub801\ud0d5", "address": "\uc11c\uc6b8 \uc601\ub4f1\ud3ec\uad6c \uc5ec\uc758\ub300\ubc29\ub85c 394", "website": "http://place.map.daum.net/10504261", "phone": "02-780-8858", "source": "\uc5ec\uc758\ub3c4\ub3d9 - \uc0db\uac15\uc5ed - \uc11c\uae00\ub801\ud0d5", "pid": "10504261"}}
  ,{"type": "Feature", "geometry": {"type": "Point", "coordinates": [126.933961780896, 37.5238678510792]}, "properties": {"name": "\uc7a5\ubbf8\uc758\uc9d1", "address": "\uc11c\uc6b8 \uc601\ub4f1\ud3ec\uad6c \uad6d\uc81c\uae08\uc735\ub85c7\uae38 32", "website": "http://place.map.daum.net/11165764", "phone": "02-782-2500", "source": "\uc5ec\uc758\ub3c4\ub3d9 - \uc5ec\uc758\ub3c4\uc5ed - \uc7a5\ubbf8\uc758\uc9d1", "pid": "11165764"}}
  ,{"type": "Feature", "geometry": {"type": "Point", "coordinates": [126.991460814642, 37.5676024823336]}, "properties": {"name": "\uc804\uc8fc\uc9d1", "address": "\uc11c\uc6b8 \uc911\uad6c \ucda9\ubb34\ub85c11\uae38 18-8", "website": "http://place.map.daum.net/10795503", "phone": "02-2279-1086", "source": "\uc785\uc815\ub3d9 - \uc744\uc9c0\ub85c3\uac00\uc5ed - \uc804\uc8fc\uc9d1", "pid": "10795503"}}
  ,{"type": "Feature", "geometry": {"type": "Point", "coordinates": [126.93369839416, 37.6015552151404]}, "properties": {"name": "\uace8\ubaa9\uc2dd\ub2f9", "address": "\uc11c\uc6b8 \uc740\ud3c9\uad6c \uc740\ud3c9\ub85c21\uae38 4", "website": "http://place.map.daum.net/15417626", "phone": "02-384-0722", "source": "\ub179\ubc88\ub3d9 - \ub179\ubc88\uc5ed - \uace8\ubaa9\uc2dd\ub2f9", "pid": "15417626"}}
  ,{"type": "Feature", "geometry": {"type": "Point", "coordinates": [127.01486813273, 37.5639041670884]}, "properties": {"name": "\uc774\uc870\uac08\ube44", "address": "\uc11c\uc6b8 \uc911\uad6c \ub2e4\uc0b0\ub85c35\uae38 16", "website": "http://place.map.daum.net/16035664", "phone": "02-2253-3287", "source": "\uc2e0\ub2f9\ub3d9 - \uc2e0\ub2f9\uc5ed - \uc774\uc870\uac08\ube44", "pid": "16035664"}}
  ,{"type": "Feature", "geometry": {"type": "Point", "coordinates": [126.98610467229, 37.4939288898336]}, "properties": {"name": "\uc77c\ubbf8\uce7c\uad6d\uc218", "address": "\uc11c\uc6b8 \uc11c\ucd08\uad6c \ubc29\ubc30\uc911\uc559\ub85c 167", "website": "http://place.map.daum.net/9368022", "phone": "02-593-9924", "source": "\ubc29\ubc30\ub3d9 - \ub3d9\uc791\uc5ed - \uc77c\ubbf8\uce7c\uad6d\uc218", "pid": "9368022"}}
  ,{"type": "Feature", "geometry": {"type": "Point", "coordinates": [126.994645147891, 37.4849807768006]}, "properties": {"name": "LA\ubd80\ub300\ucc0c\uac1c", "address": "\uc11c\uc6b8 \uc11c\ucd08\uad6c \ud6a8\ub839\ub85c31\uae38 90", "website": "http://place.map.daum.net/21251540", "phone": "02-588-0017", "source": "\ubc29\ubc30\ub3d9 - \uc0ac\ub2f9\uc5ed - LA\ubd80\ub300\ucc0c\uac1c", "pid": "21251540"}}
  ,{"type": "Feature", "geometry": {"type": "Point", "coordinates": [126.851871366927, 37.5637509104699]}, "properties": {"name": "\uc81c\uc77c\uc2dd\ub2f9", "address": "\uc11c\uc6b8 \uac15\uc11c\uad6c \uc591\ucc9c\ub85c 443-36", "website": "http://place.map.daum.net/16530007", "phone": "02-3661-3616", "source": "\uac00\uc591\ub3d9 - \uac00\uc591\uc5ed \u2013 \uc81c\uc77c\uc2dd\ub2f9", "pid": "16530007"}}
]}
