{
 "type": "FeatureCollection",
 "features": [
  {
   "type": "Feature",
   "geometry": {
    "type": "Point",
    "coordinates": [
     126.994503220999,
     37.5701578866786
    ]
   },
   "properties": {
    "pid": "8758064",
    "name": "계림 종로본점",
    "phone": "02-2266-6962",
    "source": "종로3가 - 종로 3가역 - 계림",
    "address": "서울 종로구 돈화문로4길 39",
    "website": "http://place.map.daum.net/8758064",
    "category": "닭볶음탕"
   }
  },
  {
   "type": "Feature",
   "geometry": {
    "type": "Point",
    "coordinates": [
     126.97770710108,
     37.5630812898836
    ]
   },
   "properties": {
    "pid": "13288545",
    "name": "풍년닭도리탕",
    "phone": "02-755-5278",
    "source": "서소문동 - 시청역 - 풍년닭도리탕",
    "address": "서울 중구 세종대로14길 17-5",
    "website": "http://place.map.daum.net/13288545",
    "category": "닭볶음탕"
   }
  },
  {
   "type": "Feature",
   "geometry": {
    "type": "Point",
    "coordinates": [
     126.967828988028,
     37.5404711653735
    ]
   },
   "properties": {
    "pid": "10126614",
    "name": "강원정",
    "phone": "02-719-9978",
    "source": "원효로1동 - 남영역 - 강원정",
    "address": "서울 용산구 원효로89길 13-10",
    "website": "http://place.map.daum.net/10126614",
    "category": "닭볶음탕"
   }
  },
  {
   "type": "Feature",
   "geometry": {
    "type": "Point",
    "coordinates": [
     126.9223557123052,
     37.606315918596614
    ]
   },
   "properties": {
    "pid": "23062254",
    "name": "목포집",
    "phone": "",
    "source": "신사동 - 신사역 - 목포집",
    "address": "서울 은평구 진흥로 105-4",
    "website": "http://place.map.daum.net/23062254",
    "category": "닭볶음탕"
   }
  },
  {
   "type": "Feature",
   "geometry": {
    "type": "Point",
    "coordinates": [
     126.968681156219,
     37.5590607950843
    ]
   },
   "properties": {
    "pid": "27276847",
    "name": "호수집 원조닭꼬치",
    "phone": "02-392-0695",
    "source": "중림동 - 충정로역 - 호수집",
    "address": "서울 중구 청파로 443",
    "website": "http://place.map.daum.net/27276847",
    "category": "닭볶음탕"
   }
  },
  {
   "type": "Feature",
   "geometry": {
    "type": "Point",
    "coordinates": [
     126.985884254213,
     37.5595001876635
    ]
   },
   "properties": {
    "pid": "10722948",
    "name": "정태네실비집",
    "phone": "02-319-8988",
    "source": "남산동 - 명동역 - 정태네실비집",
    "address": "서울 중구 퇴계로20길 15",
    "website": "http://place.map.daum.net/10722948",
    "category": "닭볶음탕"
   }
  },
  {
   "type": "Feature",
   "geometry": {
    "type": "Point",
    "coordinates": [
     127.011389721092,
     37.5551468628929
    ]
   },
   "properties": {
    "pid": "20743213",
    "name": "황토집",
    "phone": "02-2253-7219",
    "source": "신당동 - 약수역 - 황토집",
    "address": "서울 중구 다산로 128-5",
    "website": "http://place.map.daum.net/20743213",
    "category": "닭볶음탕"
   }
  },
  {
   "type": "Feature",
   "geometry": {
    "type": "Point",
    "coordinates": [
     126.973240718923,
     37.5443864580033
    ]
   },
   "properties": {
    "pid": "11831385",
    "name": "까치네",
    "phone": "02-798-4668",
    "source": "남영동 - 숙대입구역 - 까치네",
    "address": "서울 용산구 한강대로84길 11-16",
    "website": "http://place.map.daum.net/11831385",
    "category": "닭볶음탕"
   }
  },
  {
   "type": "Feature",
   "geometry": {
    "type": "Point",
    "coordinates": [
     126.866996122748,
     37.5594441368637
    ]
   },
   "properties": {
    "pid": "9370927",
    "name": "유림",
    "phone": "02-3665-3930",
    "source": "염창동 - 증미역 - 유림",
    "address": "서울 강서구 양천로61길 90",
    "website": "http://place.map.daum.net/9370927",
    "category": "닭볶음탕"
   }
  },
  {
   "type": "Feature",
   "geometry": {
    "type": "Point",
    "coordinates": [
     126.923657267504,
     37.5603917626057
    ]
   },
   "properties": {
    "pid": "13576266",
    "name": "최사장네닭",
    "phone": "02-334-9242",
    "source": "연남동 - 홍대입구역 - 최사장네닭",
    "address": "서울 마포구 연남로 4-1",
    "website": "http://place.map.daum.net/13576266",
    "category": "닭볶음탕"
   }
  },
  {
   "type": "Feature",
   "geometry": {
    "type": "Point",
    "coordinates": [
     126.934285667853,
     37.5569923879534
    ]
   },
   "properties": {
    "pid": "17968277",
    "name": "대성이네",
    "phone": "02-325-9658",
    "source": "창천동 - 신촌역 - 대성이네",
    "address": "서울 서대문구 연세로5나길 33",
    "website": "http://place.map.daum.net/17968277",
    "category": "닭볶음탕"
   }
  },
  {
   "type": "Feature",
   "geometry": {
    "type": "Point",
    "coordinates": [
     126.901574545871,
     37.5595428978229
    ]
   },
   "properties": {
    "pid": "24480888",
    "name": "태백국물닭갈비 본점",
    "phone": "02-322-3177",
    "source": "망원동 - 망원역 - 태백국물닭갈비",
    "address": "서울 마포구 방울내로 53",
    "website": "http://place.map.daum.net/24480888",
    "category": "닭볶음탕"
   }
  },
  {
   "type": "Feature",
   "geometry": {
    "type": "Point",
    "coordinates": [
     126.947738694888,
     37.5394008032831
    ]
   },
   "properties": {
    "pid": "7873176",
    "name": "마포나루 도화본점",
    "phone": "02-711-5959",
    "source": "도화동 - 마포역 - 마포나루",
    "address": "서울 마포구 삼개로 11",
    "website": "http://place.map.daum.net/7873176",
    "category": "닭볶음탕"
   }
  },
  {
   "type": "Feature",
   "geometry": {
    "type": "Point",
    "coordinates": [
     127.02780202277,
     37.5001902331682
    ]
   },
   "properties": {
    "pid": "13573220",
    "name": "떡도리탕 강남본점",
    "phone": "02-501-2940",
    "source": "역삼동 - 강남역 - 떡도리탕",
    "address": "서울 강남구 테헤란로1길 28-4",
    "website": "http://place.map.daum.net/13573220",
    "category": "닭볶음탕"
   }
  },
  {
   "type": "Feature",
   "geometry": {
    "type": "Point",
    "coordinates": [
     127.083950880955,
     37.5100458987322
    ]
   },
   "properties": {
    "pid": "8903070",
    "name": "대한네",
    "phone": "02-423-8854",
    "source": "잠실동 - 신천역 - 대한네감자탕",
    "address": "서울 송파구 백제고분로9길 43",
    "website": "http://place.map.daum.net/8903070",
    "category": "닭볶음탕"
   }
  },
  {
   "type": "Feature",
   "geometry": {
    "type": "Point",
    "coordinates": [
     126.864517418661,
     37.5332258695745
    ]
   },
   "properties": {
    "pid": "27335247",
    "name": "소문난정아네",
    "phone": "02-2652-5760",
    "source": "목동 - 목동역 - 소문난정아네",
    "address": "서울 양천구 목동중앙서로1길 16",
    "website": "http://place.map.daum.net/27335247",
    "category": "닭볶음탕"
   }
  },
  {
   "type": "Feature",
   "geometry": {
    "type": "Point",
    "coordinates": [
     126.934162249097,
     37.5583438149249
    ]
   },
   "properties": {
    "pid": "14094218",
    "name": "누나네포차",
    "phone": "02-333-8248",
    "source": "창천동 - 신촌역 - 누나네포차",
    "address": "서울 서대문구 연세로7안길 47",
    "website": "http://place.map.daum.net/14094218",
    "category": "닭볶음탕"
   }
  },
  {
   "type": "Feature",
   "geometry": {
    "type": "Point",
    "coordinates": [
     126.990957214552,
     37.576111442859
    ]
   },
   "properties": {
    "pid": "25775196",
    "name": "와룡동닭매운탕",
    "phone": "02-743-1134",
    "source": "와룡동 - 종로3가역 - 와룡동 닭매운탕",
    "address": "서울 종로구 율곡로10길 30",
    "website": "http://place.map.daum.net/25775196",
    "category": "닭볶음탕"
   }
  },
  {
   "type": "Feature",
   "geometry": {
    "type": "Point",
    "coordinates": [
     127.119129037635,
     37.4974376283834
    ]
   },
   "properties": {
    "pid": "18770956",
    "name": "딹 진또배기",
    "phone": "050-4359-6901",
    "source": "가락동 - 가락시장역 - 진또배기",
    "address": "서울 송파구 중대로9길 51",
    "website": "http://place.map.daum.net/18770956",
    "category": "닭볶음탕"
   }
  },
  {
   "type": "Feature",
   "geometry": {
    "type": "Point",
    "coordinates": [
     126.99080354567869,
     37.57375803293386
    ]
   },
   "properties": {
    "pid": "16734831",
    "name": "오죽이네",
    "phone": "02-741-8874",
    "source": "익선동 - 종로 3가 - 오죽이네",
    "address": "서울 종로구 돈화문로11가길 25",
    "website": "http://place.map.daum.net/16734831",
    "category": "닭볶음탕"
   }
  },
  {
   "type": "Feature",
   "geometry": {
    "type": "Point",
    "coordinates": [
     127.05311488270988,
     37.59261864797657
    ]
   },
   "properties": {
    "pid": "8445907",
    "name": "여기가좋겠네",
    "phone": "02-968-9112",
    "source": "회기동 - 회기역 - 여기가 좋겠네",
    "address": "서울 동대문구 회기로21길 25",
    "website": "http://place.map.daum.net/8445907",
    "category": "닭볶음탕"
   }
  },
  {
   "type": "Feature",
   "geometry": {
    "type": "Point",
    "coordinates": [
     127.126513891402,
     37.5499043032217
    ]
   },
   "properties": {
    "pid": "708217230",
    "name": "날아라닭도리탕",
    "phone": "",
    "source": "암사동 - 암사역 - 날아라닭도리탕",
    "address": "",
    "website": "http://place.map.daum.net/708217230",
    "category": "닭볶음탕"
   }
  },
  {
   "type": "Feature",
   "geometry": {
    "type": "Point",
    "coordinates": [
     126.928638175791,
     37.4833771762799
    ]
   },
   "properties": {
    "pid": "21328210",
    "name": "전주익산집",
    "phone": "02-888-8496",
    "source": "삼성동 - 선릉역 - 전주집",
    "address": "서울 관악구 신림로59길 14",
    "website": "http://place.map.daum.net/21328210",
    "category": "닭볶음탕"
   }
  },
  {
   "type": "Feature",
   "geometry": {
    "type": "Point",
    "coordinates": [
     127.05240709253,
     37.501951455567
    ]
   },
   "properties": {
    "pid": "16589532",
    "name": "청춘닭볶이",
    "phone": "02-556-0229",
    "source": "대치동 - 선릉역 - 청춘닭볶이",
    "address": "서울 강남구 선릉로76길 23",
    "website": "http://place.map.daum.net/16589532",
    "category": "닭볶음탕"
   }
  },
  {
   "type": "Feature",
   "geometry": {
    "type": "Point",
    "coordinates": [
     127.023489226566,
     37.5088552375062
    ]
   },
   "properties": {
    "pid": "418825708",
    "name": "이층집 닭도리탕",
    "phone": "",
    "source": "논현동 - 논현역 - 이층집 닭도리탕",
    "address": "서울 강남구 강남대로124길 10",
    "website": "http://place.map.daum.net/418825708",
    "category": "닭볶음탕"
   }
  },
  {
   "type": "Feature",
   "geometry": {
    "type": "Point",
    "coordinates": [
     127.027530642748,
     37.5002876053794
    ]
   },
   "properties": {
    "pid": "1992567361",
    "name": "성성식당 역삼지점",
    "phone": "02-566-3864",
    "source": "논현동 - 논현역 - 성성식당",
    "address": "서울 강남구 테헤란로1길 30",
    "website": "http://place.map.daum.net/1992567361",
    "category": "닭볶음탕"
   }
  },
  {
   "type": "Feature",
   "geometry": {
    "type": "Point",
    "coordinates": [
     126.91529328050459,
     37.575079238477514
    ]
   },
   "properties": {
    "pid": "680718984",
    "name": "한남포차 가재울점",
    "phone": "02-306-6909",
    "source": "신사동 - 신림역 - 한남식당",
    "address": "서울 서대문구 가재울미래로 2",
    "website": "http://place.map.daum.net/680718984",
    "category": "닭볶음탕"
   }
  },
  {
   "type": "Feature",
   "geometry": {
    "type": "Point",
    "coordinates": [
     127.05144269194062,
     37.52597814045954
    ]
   },
   "properties": {
    "pid": "26414931",
    "name": "영지네포장마차 청담본점",
    "phone": "070-8154-4861",
    "source": "청담동 - 청담역 - 영지네포장마차",
    "address": "서울 강남구 도산대로89길 24",
    "website": "http://place.map.daum.net/26414931",
    "category": "닭볶음탕"
   }
  },
  {
   "type": "Feature",
   "geometry": {
    "type": "Point",
    "coordinates": [
     126.956753417953,
     37.4783920145899
    ]
   },
   "properties": {
    "pid": "25067887",
    "name": "도리도리하찌",
    "phone": "02-999-4490",
    "source": "봉천동 - 서울대입구역 - 도리도리하찌",
    "address": "서울 관악구 관악로14길 77",
    "website": "http://place.map.daum.net/25067887",
    "category": "닭볶음탕"
   }
  },
  {
   "type": "Feature",
   "geometry": {
    "type": "Point",
    "coordinates": [
     126.957459125152,
     37.4700056696491
    ]
   },
   "properties": {
    "pid": "13291751",
    "name": "산마루",
    "phone": "02-886-3370",
    "source": "낙성대동 - 낙성대역 - 산마루",
    "address": "서울 관악구 낙성대로 100",
    "website": "http://place.map.daum.net/13291751",
    "category": "닭볶음탕"
   }
  },
  {
   "type": "Feature",
   "geometry": {
    "type": "Point",
    "coordinates": [
     126.93279392188497,
     37.62257270050824
    ]
   },
   "properties": {
    "pid": "8414493",
    "name": "성너머집",
    "phone": "02-764-8571",
    "source": "불광동 - 독바위역 - 성너머집",
    "address": "서울 은평구 불광로18길 13-1",
    "website": "http://place.map.daum.net/8414493",
    "category": "닭볶음탕"
   }
  }
 ]
}