{
 "type": "FeatureCollection",
 "features": [
  {
   "type": "Feature",
   "geometry": {
    "type": "Point",
    "coordinates": [
     126.94809140014,
     37.5398622708319
    ]
   },
   "properties": {
    "pid": "27389621",
    "name": "서울큰입탕",
    "phone": "02-7070-090",
    "source": "도화동 - 마포역 - 서울큰입탕",
    "address": "서울 마포구 도화길 14-5",
    "website": "http://place.map.daum.net/27389621",
    "category": "대구탕"
   }
  },
  {
   "type": "Feature",
   "geometry": {
    "type": "Point",
    "coordinates": [
     126.919729041926,
     37.5580204365537
    ]
   },
   "properties": {
    "pid": "1109031749",
    "name": "섬소년자연주의매운탕",
    "phone": "",
    "source": "동교동 - 홍대입구역 - 섬소년 자연주의 매운탕",
    "address": "서울 마포구 월드컵북로6길 18",
    "website": "http://place.map.daum.net/1109031749",
    "category": "대구탕"
   }
  },
  {
   "type": "Feature",
   "geometry": {
    "type": "Point",
    "coordinates": [
     126.974289610198,
     37.5347063464535
    ]
   },
   "properties": {
    "pid": "10693894",
    "name": "삼각지원대구탕 본점",
    "phone": "02-797-4488",
    "source": "한강로 1가 - 삼각지역 - 원대구탕",
    "address": "서울 용산구 한강대로62가길 8-1",
    "website": "http://place.map.daum.net/10693894",
    "category": "대구탕"
   }
  },
  {
   "type": "Feature",
   "geometry": {
    "type": "Point",
    "coordinates": [
     126.974126680742,
     37.5347207268825
    ]
   },
   "properties": {
    "pid": "21325293",
    "name": "원조자원대구탕",
    "phone": "02-793-5900",
    "source": "한강로 1가 - 삼각지역 - 자원대구탕",
    "address": "서울 용산구 한강대로62가길 6",
    "website": "http://place.map.daum.net/21325293",
    "category": "대구탕"
   }
  },
  {
   "type": "Feature",
   "geometry": {
    "type": "Point",
    "coordinates": [
     126.973918501938,
     37.534713473083
    ]
   },
   "properties": {
    "pid": "10764726",
    "name": "참원조대구탕 삼각지1호본점",
    "phone": "02-798-7380",
    "source": "한강로 1가 - 삼각지역 - 참대구탕",
    "address": "서울 용산구 한강대로62길 3",
    "website": "http://place.map.daum.net/10764726",
    "category": "대구탕"
   }
  },
  {
   "type": "Feature",
   "geometry": {
    "type": "Point",
    "coordinates": [
     126.925622991829,
     37.5230303679879
    ]
   },
   "properties": {
    "pid": "25094081",
    "name": "동해복국대구탕",
    "phone": "02-780-8605",
    "source": "여의도동 - 여의도역 - 동해대구탕",
    "address": "서울 영등포구 여의나루로 57",
    "website": "http://place.map.daum.net/25094081",
    "category": "대구탕"
   }
  },
  {
   "type": "Feature",
   "geometry": {
    "type": "Point",
    "coordinates": [
     126.921883577653,
     37.5290826868584
    ]
   },
   "properties": {
    "pid": "10365039",
    "name": "뒤풀이",
    "phone": "02-780-4513",
    "source": "여의도동 - 국회의사당역 - 뒤푸리",
    "address": "서울 영등포구 은행로 29",
    "website": "http://place.map.daum.net/10365039",
    "category": "대구탕"
   }
  },
  {
   "type": "Feature",
   "geometry": {
    "type": "Point",
    "coordinates": [
     126.926550059756,
     37.523593173638
    ]
   },
   "properties": {
    "pid": "7979706",
    "name": "신송한식",
    "phone": "02-784-5533",
    "source": "여의도동 - 여의도역 - 신송한식",
    "address": "서울 영등포구 여의나루로 67",
    "website": "http://place.map.daum.net/7979706",
    "category": "대구탕"
   }
  },
  {
   "type": "Feature",
   "geometry": {
    "type": "Point",
    "coordinates": [
     127.0001494187,
     37.5704030852927
    ]
   },
   "properties": {
    "pid": "11177923",
    "name": "은성횟집",
    "phone": "02-2267-6813",
    "source": "예지동 - 종로 5가역 - 은성횟집",
    "address": "서울 종로구 창경궁로 88",
    "website": "http://place.map.daum.net/11177923",
    "category": "대구탕"
   }
  },
  {
   "type": "Feature",
   "geometry": {
    "type": "Point",
    "coordinates": [
     126.99134811517,
     37.5633461685111
    ]
   },
   "properties": {
    "pid": "15351395",
    "name": "우정집",
    "phone": "02-2272-4678",
    "source": "초동 - 충무로역 - 우정집",
    "address": "서울 중구 퇴계로27길 48",
    "website": "http://place.map.daum.net/15351395",
    "category": "대구탕"
   }
  },
  {
   "type": "Feature",
   "geometry": {
    "type": "Point",
    "coordinates": [
     126.949131677548,
     37.4808937845488
    ]
   },
   "properties": {
    "pid": "11831379",
    "name": "갯바위",
    "phone": "02-878-7728",
    "source": "봉천동 - 봉천역 - 갯바위",
    "address": "서울 관악구 남부순환로216길 13",
    "website": "http://place.map.daum.net/11831379",
    "category": "대구탕"
   }
  },
  {
   "type": "Feature",
   "geometry": {
    "type": "Point",
    "coordinates": [
     126.979502742285,
     37.5694138150151
    ]
   },
   "properties": {
    "pid": "8033828",
    "name": "원대구탕 본점직영",
    "phone": "02-732-7473",
    "source": "서린동 - 광화문역 - 원대구탕",
    "address": "서울 종로구 청계천로 17",
    "website": "http://place.map.daum.net/8033828",
    "category": "대구탕"
   }
  },
  {
   "type": "Feature",
   "geometry": {
    "type": "Point",
    "coordinates": [
     127.133052414208,
     37.5230761511253
    ]
   },
   "properties": {
    "pid": "16068865",
    "name": "원조성내볼데기집",
    "phone": "02-473-5005",
    "source": "성내동 - 둔촌동역 - 성내볼데기집",
    "address": "서울 강동구 양재대로81길 20",
    "website": "http://place.map.daum.net/16068865",
    "category": "대구탕"
   }
  },
  {
   "type": "Feature",
   "geometry": {
    "type": "Point",
    "coordinates": [
     126.892234146724,
     37.5192348278536
    ]
   },
   "properties": {
    "pid": "159620563",
    "name": "김영희동태찜&코다리냉면 문래점",
    "phone": "02-2632-2616",
    "source": "문래동 - 문래역 - 문래대구탕",
    "address": "서울 영등포구 문래로 92",
    "website": "http://place.map.daum.net/159620563",
    "category": "대구탕"
   }
  },
  {
   "type": "Feature",
   "geometry": {
    "type": "Point",
    "coordinates": [
     126.94345654703191,
     37.54017729449344
    ]
   },
   "properties": {
    "pid": "9431328",
    "name": "참식당생대구전문점",
    "phone": "02-706-2432",
    "source": "용강동 - 마포역 - 참식당",
    "address": "서울 마포구 토정로 311",
    "website": "http://place.map.daum.net/9431328",
    "category": "대구탕"
   }
  },
  {
   "type": "Feature",
   "geometry": {
    "type": "Point",
    "coordinates": [
     127.045859878821,
     37.4774395632396
    ]
   },
   "properties": {
    "pid": "8990494",
    "name": "미가대구요리전문점",
    "phone": "02-575-1125",
    "source": "개포동 - 양재시민의숲역 - 미가",
    "address": "서울 강남구 논현로18길 10-6",
    "website": "http://place.map.daum.net/8990494",
    "category": "대구탕"
   }
  },
  {
   "type": "Feature",
   "geometry": {
    "type": "Point",
    "coordinates": [
     126.984579391843,
     37.564520377687
    ]
   },
   "properties": {
    "pid": "8025636",
    "name": "원조한치",
    "phone": "02-755-4163",
    "source": "명동 - 명동역 - 원조한치",
    "address": "서울 중구 명동7길 14-5",
    "website": "http://place.map.daum.net/8025636",
    "category": "대구탕"
   }
  },
  {
   "type": "Feature",
   "geometry": {
    "type": "Point",
    "coordinates": [
     126.918937657188,
     37.5540960525507
    ]
   },
   "properties": {
    "pid": "9452725",
    "name": "춘자대구탕찜",
    "phone": "02-334-5787",
    "source": "서교동 - 합정역 - 춘자대구탕",
    "address": "서울 마포구 월드컵북로1길 50",
    "website": "http://place.map.daum.net/9452725",
    "category": "대구탕"
   }
  },
  {
   "type": "Feature",
   "geometry": {
    "type": "Point",
    "coordinates": [
     126.974102291777,
     37.5528956814723
    ]
   },
   "properties": {
    "pid": "8379695",
    "name": "맛고마대구탕 본점",
    "phone": "02-774-5910",
    "source": "동자동 - 서울역 - 맛고마대구탕",
    "address": "서울 용산구 후암로57길 13",
    "website": "http://place.map.daum.net/8379695",
    "category": "대구탕"
   }
  },
  {
   "type": "Feature",
   "geometry": {
    "type": "Point",
    "coordinates": [
     127.016665677261,
     37.5645706642884
    ]
   },
   "properties": {
    "pid": "13292355",
    "name": "양푼이 생태찌개생대구탕",
    "phone": "02-2253-1866",
    "source": "신당동 - 신당역 - 양푼이 생대구탕",
    "address": "서울 중구 퇴계로78길 18",
    "website": "http://place.map.daum.net/13292355",
    "category": "대구탕"
   }
  },
  {
   "type": "Feature",
   "geometry": {
    "type": "Point",
    "coordinates": [
     126.973022040744,
     37.5357584325203
    ]
   },
   "properties": {
    "pid": "19365379",
    "name": "한강집생태",
    "phone": "02-796-7452",
    "source": "한강로 1가 - 삼각지역 - 한강생태",
    "address": "서울 용산구 백범로 400",
    "website": "http://place.map.daum.net/19365379",
    "category": "대구탕"
   }
  },
  {
   "type": "Feature",
   "geometry": {
    "type": "Point",
    "coordinates": [
     126.94457388163,
     37.5409743080427
    ]
   },
   "properties": {
    "pid": "27503666",
    "name": "진미생태 ",
    "phone": "02-701-3274",
    "source": "용강동 - 마포역 - 진미생태찌개",
    "address": "서울 마포구 토정로31길 24",
    "website": "http://place.map.daum.net/27503666",
    "category": "대구탕"
   }
  },
  {
   "type": "Feature",
   "geometry": {
    "type": "Point",
    "coordinates": [
     127.05476206665,
     37.5117713415047
    ]
   },
   "properties": {
    "pid": "9213761",
    "name": "아야진생태찌개 본점",
    "phone": "02-555-2680",
    "source": "삼성동 - 삼성역 - 아야진 생태찌개",
    "address": "서울 강남구 삼성로108길 8",
    "website": "http://place.map.daum.net/9213761",
    "category": "대구탕"
   }
  },
  {
   "type": "Feature",
   "geometry": {
    "type": "Point",
    "coordinates": [
     127.057140660608,
     37.5102168833449
    ]
   },
   "properties": {
    "pid": "13608931",
    "name": "주문진생태찌개",
    "phone": "02-569-4933",
    "source": "삼성동 - 삼성역 - 주문진 생태찌개",
    "address": "서울 강남구 삼성로100길 23-3",
    "website": "http://place.map.daum.net/13608931",
    "category": "대구탕"
   }
  },
  {
   "type": "Feature",
   "geometry": {
    "type": "Point",
    "coordinates": [
     126.983988809498,
     37.5739086724934
    ]
   },
   "properties": {
    "pid": "13091009",
    "name": "부산식당",
    "phone": "02-733-5761",
    "source": "관훈동 - 종각역 - 부산식당",
    "address": "서울 종로구 인사동11길 12",
    "website": "http://place.map.daum.net/13091009",
    "category": "대구탕"
   }
  },
  {
   "type": "Feature",
   "geometry": {
    "type": "Point",
    "coordinates": [
     127.079724140843,
     37.5089676217833
    ]
   },
   "properties": {
    "pid": "17785966",
    "name": "알천생태찌개",
    "phone": "02-2202-6633",
    "source": "잠실동 - 신천역 - 알천생태찌개",
    "address": "서울 송파구 백제고분로9길 6",
    "website": "http://place.map.daum.net/17785966",
    "category": "대구탕"
   }
  },
  {
   "type": "Feature",
   "geometry": {
    "type": "Point",
    "coordinates": [
     126.971632602549,
     37.5716790904585
    ]
   },
   "properties": {
    "pid": "7988820",
    "name": "안성또순이",
    "phone": "02-720-5670",
    "source": "신문로 2가 - 광화문역 - 안성또순이집",
    "address": "서울 종로구 경희궁길 18",
    "website": "http://place.map.daum.net/7988820",
    "category": "대구탕"
   }
  },
  {
   "type": "Feature",
   "geometry": {
    "type": "Point",
    "coordinates": [
     126.978372903316,
     37.5621299613836
    ]
   },
   "properties": {
    "pid": "10470599",
    "name": "부산갈매기",
    "phone": "02-773-8146",
    "source": "북창동 - 시청역 - 부산갈매기",
    "address": "서울 중구 남대문로 25-20",
    "website": "http://place.map.daum.net/10470599",
    "category": "대구탕"
   }
  },
  {
   "type": "Feature",
   "geometry": {
    "type": "Point",
    "coordinates": [
     126.978187313966,
     37.562021807648
    ]
   },
   "properties": {
    "pid": "7958553",
    "name": "속초생태집",
    "phone": "02-753-8944",
    "source": "북창동 - 시청역 - 속초생태집",
    "address": "서울 중구 남대문로 25-17",
    "website": "http://place.map.daum.net/7958553",
    "category": "대구탕"
   }
  },
  {
   "type": "Feature",
   "geometry": {
    "type": "Point",
    "coordinates": [
     127.038674504677,
     37.4958407192855
    ]
   },
   "properties": {
    "pid": "10504913",
    "name": "생태명가 역삼본점",
    "phone": "02-501-9292",
    "source": "역삼동 - 역삼역 - 생태명가",
    "address": "서울 강남구 역삼로 179",
    "website": "http://place.map.daum.net/10504913",
    "category": "대구탕"
   }
  },
  {
   "type": "Feature",
   "geometry": {
    "type": "Point",
    "coordinates": [
     127.013396848661,
     37.4887499566262
    ]
   },
   "properties": {
    "pid": "9290892",
    "name": "우리바다생태찌개",
    "phone": "02-582-0128",
    "source": "서초동 - 교대역 - 우리바다 생태찌개",
    "address": "서울 서초구 반포대로24길 82",
    "website": "http://place.map.daum.net/9290892",
    "category": "대구탕"
   }
  },
  {
   "type": "Feature",
   "geometry": {
    "type": "Point",
    "coordinates": [
     127.015175797447,
     37.4959001353746
    ]
   },
   "properties": {
    "pid": "11983402",
    "name": "만경생태",
    "phone": "02-3482-3661",
    "source": "서초동 - 교대역 - 만경생태",
    "address": "서울 서초구 서초중앙로26길 17",
    "website": "http://place.map.daum.net/11983402",
    "category": "대구탕"
   }
  },
  {
   "type": "Feature",
   "geometry": {
    "type": "Point",
    "coordinates": [
     127.041436523169,
     37.4681247515303
    ]
   },
   "properties": {
    "pid": "8463595",
    "name": "원산생태",
    "phone": "02-572-3220",
    "source": "양재동 - 양재역 - 원산생태",
    "address": "서울 서초구 강남대로10길 6",
    "website": "http://place.map.daum.net/8463595",
    "category": "대구탕"
   }
  },
  {
   "type": "Feature",
   "geometry": {
    "type": "Point",
    "coordinates": [
     126.931279559952,
     37.5226481656398
    ]
   },
   "properties": {
    "pid": "2078480773",
    "name": "수정생태",
    "phone": "02-784-4745",
    "source": "여의도동 - 여의나루역 - 수정생태",
    "address": "서울 영등포구 국제금융로7길 3",
    "website": "http://place.map.daum.net/2078480773",
    "category": "대구탕"
   }
  },
  {
   "type": "Feature",
   "geometry": {
    "type": "Point",
    "coordinates": [
     127.033533419884,
     37.5204180985312
    ]
   },
   "properties": {
    "pid": "11831504",
    "name": "장성생태탕생대구전문",
    "phone": "02-3446-0037",
    "source": "논현동 - 학동역, 압구정역 - 장성생태탕",
    "address": "서울 강남구 언주로149길 7",
    "website": "http://place.map.daum.net/11831504",
    "category": "대구탕"
   }
  },
  {
   "type": "Feature",
   "geometry": {
    "type": "Point",
    "coordinates": [
     126.993376031108,
     37.5674656539648
    ]
   },
   "properties": {
    "pid": "9133895",
    "name": "세진식당",
    "phone": "02-2265-0098",
    "source": "을지로 3가 - 을지로 3가역 - 세진식당",
    "address": "서울 중구 을지로15길 21",
    "website": "http://place.map.daum.net/9133895",
    "category": "대구탕"
   }
  },
  {
   "type": "Feature",
   "geometry": {
    "type": "Point",
    "coordinates": [
     126.927263774395,
     37.5202058456064
    ]
   },
   "properties": {
    "pid": "10466017",
    "name": "부흥동태탕",
    "phone": "02-782-7707",
    "source": "여의도동 - 여의도역 - 부흥동태",
    "address": "서울 영등포구 국제금융로8길 34",
    "website": "http://place.map.daum.net/10466017",
    "category": "대구탕"
   }
  },
  {
   "type": "Feature",
   "geometry": {
    "type": "Point",
    "coordinates": [
     127.089380070631,
     37.5063874407667
    ]
   },
   "properties": {
    "pid": "8686652",
    "name": "김영희동태찜&코다리냉면 잠실직영점",
    "phone": "02-422-5008",
    "source": "잠실동 - 신천역 - 김영희 강남동태찜",
    "address": "서울 송파구 삼전로 87",
    "website": "http://place.map.daum.net/8686652",
    "category": "대구탕"
   }
  },
  {
   "type": "Feature",
   "geometry": {
    "type": "Point",
    "coordinates": [
     126.841825024877,
     37.5401749972786
    ]
   },
   "properties": {
    "pid": "11828076",
    "name": "진부령황태촌 화곡점",
    "phone": "02-2603-8892",
    "source": "화곡동 - 화곡역 - 진부령황태촌",
    "address": "서울 강서구 강서로 148",
    "website": "http://place.map.daum.net/11828076",
    "category": "대구탕"
   }
  },
  {
   "type": "Feature",
   "geometry": {
    "type": "Point",
    "coordinates": [
     127.02756756471,
     37.6251476924392
    ]
   },
   "properties": {
    "pid": "25775537",
    "name": "동태한그릇",
    "phone": "02-983-1117",
    "source": "미아동 - 미아역 - 동태한그릇",
    "address": "서울 강북구 솔매로50길 29",
    "website": "http://place.map.daum.net/25775537",
    "category": "대구탕"
   }
  },
  {
   "type": "Feature",
   "geometry": {
    "type": "Point",
    "coordinates": [
     126.84883351212,
     37.5502789628732
    ]
   },
   "properties": {
    "pid": "26816567",
    "name": "양푼이동태탕 바다장어탕",
    "phone": "02-2602-3455",
    "source": "화곡동 - 강서구청역 - 양푼이동태탕",
    "address": "서울 강서구 화곡로 292",
    "website": "http://place.map.daum.net/26816567",
    "category": "대구탕"
   }
  },
  {
   "type": "Feature",
   "geometry": {
    "type": "Point",
    "coordinates": [
     126.951387294297,
     37.4825561944135
    ]
   },
   "properties": {
    "pid": "25081312",
    "name": "조춘식동갑이네 서울대본점",
    "phone": "02-877-7199",
    "source": "봉천동 - 서울대입구역 - 동갑이네",
    "address": "서울 관악구 봉천로 461-1",
    "website": "http://place.map.daum.net/25081312",
    "category": "대구탕"
   }
  },
  {
   "type": "Feature",
   "geometry": {
    "type": "Point",
    "coordinates": [
     126.872502073171,
     37.524358096564
    ]
   },
   "properties": {
    "pid": "27287977",
    "name": "대관령동태탕",
    "phone": "02-2655-0062",
    "source": "목동 - 오목교역 - 대관령동태탕",
    "address": "서울 양천구 목동동로14길 9",
    "website": "http://place.map.daum.net/27287977",
    "category": "대구탕"
   }
  },
  {
   "type": "Feature",
   "geometry": {
    "type": "Point",
    "coordinates": [
     127.000280730155,
     37.5714986953059
    ]
   },
   "properties": {
    "pid": "10660850",
    "name": "연지얼큰한동태국",
    "phone": "02-763-9397",
    "source": "종로5가 - 종로5가역 - 연지얼큰한 동태국",
    "address": "서울 종로구 종로31길 8-1",
    "website": "http://place.map.daum.net/10660850",
    "category": "대구탕"
   }
  }
 ]
}