{
 "type": "FeatureCollection",
 "features": [
  {
   "type": "Feature",
   "geometry": {
    "type": "Point",
    "coordinates": [
     126.921298328114,
     37.5520217507367
    ]
   },
   "properties": {
    "pid": "13333463",
    "name": "홍대돈부리 홍대본점",
    "phone": "02-3141-8398",
    "source": "서교동 - 홍대입구역 - 홍대돈부리",
    "address": "서울 마포구 잔다리로6길 40-8",
    "website": "http://place.map.daum.net/13333463",
    "category": "덮밥, 백반, 벤또(도시락)"
   }
  },
  {
   "type": "Feature",
   "geometry": {
    "type": "Point",
    "coordinates": [
     126.926940066612,
     37.5551860764204
    ]
   },
   "properties": {
    "pid": "27224287",
    "name": "소년식당 홍대본점",
    "phone": "070-4111-7179",
    "source": "서교동 - 홍대입구역 - 소년식당",
    "address": "서울 마포구 와우산로29라길 16",
    "website": "http://place.map.daum.net/27224287",
    "category": "덮밥, 백반, 벤또(도시락)"
   }
  },
  {
   "type": "Feature",
   "geometry": {
    "type": "Point",
    "coordinates": [
     126.917343083039,
     37.5510135344182
    ]
   },
   "properties": {
    "pid": "8025723",
    "name": "오자와",
    "phone": "02-335-5551",
    "source": "서교동 - 합정역 - 오자와",
    "address": "서울 마포구 양화로10길 15",
    "website": "http://place.map.daum.net/8025723",
    "category": "덮밥, 백반, 벤또(도시락)"
   }
  },
  {
   "type": "Feature",
   "geometry": {
    "type": "Point",
    "coordinates": [
     126.921288265113,
     37.5486772386944
    ]
   },
   "properties": {
    "pid": "21960086",
    "name": "히메시야",
    "phone": "070-8245-4562",
    "source": "상수동 - 상수역 - 히메시야",
    "address": "서울 마포구 독막로15길 3-18",
    "website": "http://place.map.daum.net/21960086",
    "category": "덮밥, 백반, 벤또(도시락)"
   }
  },
  {
   "type": "Feature",
   "geometry": {
    "type": "Point",
    "coordinates": [
     126.921117408099,
     37.5475851144441
    ]
   },
   "properties": {
    "pid": "25019151",
    "name": "만뽀스키야키 본점",
    "phone": "02-322-8688",
    "source": "상수동 - 상수역 - 만뽀",
    "address": "서울 마포구 독막로14길 4",
    "website": "http://place.map.daum.net/25019151",
    "category": "덮밥, 백반, 벤또(도시락)"
   }
  },
  {
   "type": "Feature",
   "geometry": {
    "type": "Point",
    "coordinates": [
     126.920795408253,
     37.5481723499708
    ]
   },
   "properties": {
    "pid": "19009165",
    "name": "홍대개미 상수본점",
    "phone": "02-586-9289",
    "source": "상수동 - 상수역 - 개미",
    "address": "서울 마포구 독막로 67-9",
    "website": "http://place.map.daum.net/19009165",
    "category": "덮밥, 백반, 벤또(도시락)"
   }
  },
  {
   "type": "Feature",
   "geometry": {
    "type": "Point",
    "coordinates": [
     126.925145179218,
     37.5619388254365
    ]
   },
   "properties": {
    "pid": "26089191",
    "name": "동차밥",
    "phone": "02-333-1066",
    "source": "연남동 - 홍대입구역 - 동차밥",
    "address": "서울 마포구 동교로38길 16",
    "website": "http://place.map.daum.net/26089191",
    "category": "덮밥, 백반, 벤또(도시락)"
   }
  },
  {
   "type": "Feature",
   "geometry": {
    "type": "Point",
    "coordinates": [
     126.987667118337,
     37.5371520148732
    ]
   },
   "properties": {
    "pid": "27477811",
    "name": "구루망",
    "phone": "02-749-2082",
    "source": "이태원동 - 녹사평역 - 구루망",
    "address": "서울 용산구 녹사평대로46길 16",
    "website": "http://place.map.daum.net/27477811",
    "category": "덮밥, 백반, 벤또(도시락)"
   }
  },
  {
   "type": "Feature",
   "geometry": {
    "type": "Point",
    "coordinates": [
     126.988296181398,
     37.5373250709752
    ]
   },
   "properties": {
    "pid": "26350675",
    "name": "마루쿠식당",
    "phone": "02-797-8984",
    "source": "이태원동 - 녹사평역 - 마루쿠식당",
    "address": "서울 용산구 녹사평대로46길 27",
    "website": "http://place.map.daum.net/26350675",
    "category": "덮밥, 백반, 벤또(도시락)"
   }
  },
  {
   "type": "Feature",
   "geometry": {
    "type": "Point",
    "coordinates": [
     126.976132031743,
     37.5190292984527
    ]
   },
   "properties": {
    "pid": "2072270827",
    "name": "미타니야 동부이촌점",
    "phone": "02-797-4060",
    "source": "이촌동 - 동부이촌동역 - 미타니야",
    "address": "서울 용산구 이촌로 264",
    "website": "http://place.map.daum.net/2072270827",
    "category": "덮밥, 백반, 벤또(도시락)"
   }
  },
  {
   "type": "Feature",
   "geometry": {
    "type": "Point",
    "coordinates": [
     126.933314579938,
     37.5544978825665
    ]
   },
   "properties": {
    "pid": "12273254",
    "name": "히노키공방",
    "phone": "02-3143-2979",
    "source": "노고산동 - 신촌역 - 히노키공방",
    "address": "서울 마포구 신촌로14안길 3",
    "website": "http://place.map.daum.net/12273254",
    "category": "덮밥, 백반, 벤또(도시락)"
   }
  },
  {
   "type": "Feature",
   "geometry": {
    "type": "Point",
    "coordinates": [
     127.062449582195,
     37.6590258106654
    ]
   },
   "properties": {
    "pid": "27515234",
    "name": "쯔이코",
    "phone": "02-931-3322",
    "source": "상계동 - 노원역 - 쯔이코",
    "address": "서울 노원구 상계로1길 62-57",
    "website": "http://place.map.daum.net/27515234",
    "category": "덮밥, 백반, 벤또(도시락)"
   }
  },
  {
   "type": "Feature",
   "geometry": {
    "type": "Point",
    "coordinates": [
     127.004188820075,
     37.580555418
    ]
   },
   "properties": {
    "pid": "21329976",
    "name": "돈텐동식당",
    "phone": "070-4103-4132",
    "source": "동숭동 - 대학로역 - 돈텐동식당",
    "address": "서울 종로구 동숭길 51",
    "website": "http://place.map.daum.net/21329976",
    "category": "덮밥, 백반, 벤또(도시락)"
   }
  },
  {
   "type": "Feature",
   "geometry": {
    "type": "Point",
    "coordinates": [
     126.999284481172,
     37.5829665490762
    ]
   },
   "properties": {
    "pid": "1518943689",
    "name": "세이치즈토스트 대학로점",
    "phone": "",
    "source": "당주동 - 광화문역 - 세이",
    "address": "서울 종로구 대명길 42",
    "website": "http://place.map.daum.net/1518943689",
    "category": "덮밥, 백반, 벤또(도시락)"
   }
  },
  {
   "type": "Feature",
   "geometry": {
    "type": "Point",
    "coordinates": [
     126.99953384138,
     37.5368823578011
    ]
   },
   "properties": {
    "pid": "16094203",
    "name": "진돈부리",
    "phone": "02-797-1179",
    "source": "한남동 - 한남역 - 진돈부리",
    "address": "서울 용산구 이태원로55가길 38",
    "website": "http://place.map.daum.net/16094203",
    "category": "덮밥, 백반, 벤또(도시락)"
   }
  },
  {
   "type": "Feature",
   "geometry": {
    "type": "Point",
    "coordinates": [
     127.051065727063,
     37.5847719079397
    ]
   },
   "properties": {
    "pid": "16448965",
    "name": "마카나이 시립대본점",
    "phone": "02-969-2972",
    "source": "전농동 - 청량리역 - 마카나이",
    "address": "서울 동대문구 왕산로 272",
    "website": "http://place.map.daum.net/16448965",
    "category": "덮밥, 백반, 벤또(도시락)"
   }
  },
  {
   "type": "Feature",
   "geometry": {
    "type": "Point",
    "coordinates": [
     127.023280752901,
     37.5222477981955
    ]
   },
   "properties": {
    "pid": "27345296",
    "name": "지구당 가로수길점",
    "phone": "",
    "source": "신사동 - 가로수길역 - 지구당",
    "address": "서울 강남구 압구정로14길 32",
    "website": "http://place.map.daum.net/27345296",
    "category": "덮밥, 백반, 벤또(도시락)"
   }
  },
  {
   "type": "Feature",
   "geometry": {
    "type": "Point",
    "coordinates": [
     127.021044019692,
     37.5171953925538
    ]
   },
   "properties": {
    "pid": "17446101",
    "name": "닝교초돈부리 신사점",
    "phone": "02-3448-0333",
    "source": "신사동 - 가로수길역 - 닝교초돈부리",
    "address": "서울 강남구 도산대로 115",
    "website": "http://place.map.daum.net/17446101",
    "category": "덮밥, 백반, 벤또(도시락)"
   }
  },
  {
   "type": "Feature",
   "geometry": {
    "type": "Point",
    "coordinates": [
     127.021760234956,
     37.5217579426294
    ]
   },
   "properties": {
    "pid": "27315740",
    "name": "다이칸야마키친",
    "phone": "02-547-9776",
    "source": "신사동 - 가로수길역 - 다이칸야마키친",
    "address": "서울 강남구 압구정로10길 30-3",
    "website": "http://place.map.daum.net/27315740",
    "category": "덮밥, 백반, 벤또(도시락)"
   }
  },
  {
   "type": "Feature",
   "geometry": {
    "type": "Point",
    "coordinates": [
     127.010481410861,
     37.5018941389855
    ]
   },
   "properties": {
    "pid": "13582855",
    "name": "마루심 본점",
    "phone": "02-592-8998",
    "source": "반포동 - 고속터미널역 - 마루심",
    "address": "서울 서초구 고무래로10길 10",
    "website": "http://place.map.daum.net/13582855",
    "category": "덮밥, 백반, 벤또(도시락)"
   }
  },
  {
   "type": "Feature",
   "geometry": {
    "type": "Point",
    "coordinates": [
     127.110309385989,
     37.5104386863379
    ]
   },
   "properties": {
    "pid": "23372407",
    "name": "만푸쿠",
    "phone": "02-424-4702",
    "source": "송파동 - 잠실역 - 만푸쿠",
    "address": "서울 송파구 오금로18길 4-9",
    "website": "http://place.map.daum.net/23372407",
    "category": "덮밥, 백반, 벤또(도시락)"
   }
  },
  {
   "type": "Feature",
   "geometry": {
    "type": "Point",
    "coordinates": [
     127.126694105736,
     37.5360287256748
    ]
   },
   "properties": {
    "pid": "19332214",
    "name": "미도리",
    "phone": "02-482-8246",
    "source": "성내동 - 천호역 - 미도리",
    "address": "서울 강동구 천호옛14길 22",
    "website": "http://place.map.daum.net/19332214",
    "category": "덮밥, 백반, 벤또(도시락)"
   }
  },
  {
   "type": "Feature",
   "geometry": {
    "type": "Point",
    "coordinates": [
     127.102452348525,
     37.4883747234024
    ]
   },
   "properties": {
    "pid": "17193131",
    "name": "와후진",
    "phone": "02-3412-8155",
    "source": "수서동 - 수서역 - 와후진",
    "address": "서울 강남구 광평로51길 8",
    "website": "http://place.map.daum.net/17193131",
    "category": "덮밥, 백반, 벤또(도시락)"
   }
  },
  {
   "type": "Feature",
   "geometry": {
    "type": "Point",
    "coordinates": [
     127.00212704210077,
     37.53373244102722
    ]
   },
   "properties": {
    "pid": "24264865",
    "name": "일호식 사운즈한남점",
    "phone": "02-794-2648",
    "source": "한남동 - 한남역 - 일호식",
    "address": "서울 용산구 대사관로 35",
    "website": "http://place.map.daum.net/24264865",
    "category": "덮밥, 백반, 벤또(도시락)"
   }
  },
  {
   "type": "Feature",
   "geometry": {
    "type": "Point",
    "coordinates": [
     127.043421494335,
     37.5227466723821
    ]
   },
   "properties": {
    "pid": "13294017",
    "name": "청담골",
    "phone": "02-543-1252",
    "source": "청담동 - 강남구청역 - 청담골",
    "address": "서울 강남구 선릉로148길 48",
    "website": "http://place.map.daum.net/13294017",
    "category": "덮밥, 백반, 벤또(도시락)"
   }
  },
  {
   "type": "Feature",
   "geometry": {
    "type": "Point",
    "coordinates": [
     127.031098664335,
     37.4976341575722
    ]
   },
   "properties": {
    "pid": "27504286",
    "name": "서진식당",
    "phone": "02-553-9576",
    "source": "역삼동 - 강남역 - 서진식당",
    "address": "서울 강남구 강남대로84길 33",
    "website": "http://place.map.daum.net/27504286",
    "category": "덮밥, 백반, 벤또(도시락)"
   }
  },
  {
   "type": "Feature",
   "geometry": {
    "type": "Point",
    "coordinates": [
     126.987801646366,
     37.5725756555685
    ]
   },
   "properties": {
    "pid": "15700115",
    "name": "일미식당",
    "phone": "02-766-6588",
    "source": "낙원동 - 종로3가역 - 일미식당",
    "address": "서울 종로구 삼일대로 428",
    "website": "http://place.map.daum.net/15700115",
    "category": "덮밥, 백반, 벤또(도시락)"
   }
  },
  {
   "type": "Feature",
   "geometry": {
    "type": "Point",
    "coordinates": [
     126.920177999979,
     37.5456203058257
    ]
   },
   "properties": {
    "pid": "27120754",
    "name": "당인식당",
    "phone": "02-335-0255",
    "source": "당인동 - 상수역 - 당인식당",
    "address": "서울 마포구 와우산로3길 50",
    "website": "http://place.map.daum.net/27120754",
    "category": "덮밥, 백반, 벤또(도시락)"
   }
  },
  {
   "type": "Feature",
   "geometry": {
    "type": "Point",
    "coordinates": [
     126.990305417094,
     37.5740967671284
    ]
   },
   "properties": {
    "pid": "25549560",
    "name": "익선동121",
    "phone": "02-765-0121",
    "source": "익선동 - 종로3강겨 - 익선동 121",
    "address": "서울 종로구 돈화문로11나길 30",
    "website": "http://place.map.daum.net/25549560",
    "category": "덮밥, 백반, 벤또(도시락)"
   }
  },
  {
   "type": "Feature",
   "geometry": {
    "type": "Point",
    "coordinates": [
     127.043785621446,
     37.5805545797471
    ]
   },
   "properties": {
    "pid": "18829150",
    "name": "광주식당",
    "phone": "02-969-4403",
    "source": "청량리동 - 청량리역 - 광주식당",
    "address": "서울 동대문구 경동시장로2길 49-4",
    "website": "http://place.map.daum.net/18829150",
    "category": "덮밥, 백반, 벤또(도시락)"
   }
  },
  {
   "type": "Feature",
   "geometry": {
    "type": "Point",
    "coordinates": [
     126.921148855133,
     37.5521081468158
    ]
   },
   "properties": {
    "pid": "26858884",
    "name": "문숙이미나리식당 본점",
    "phone": "02-322-2827",
    "source": "서교동 - 홍대입구역 - 미나리식당",
    "address": "서울 마포구 잔다리로6길 34-5",
    "website": "http://place.map.daum.net/26858884",
    "category": "덮밥, 백반, 벤또(도시락)"
   }
  },
  {
   "type": "Feature",
   "geometry": {
    "type": "Point",
    "coordinates": [
     126.919713291109,
     37.5484383147205
    ]
   },
   "properties": {
    "pid": "26871332",
    "name": "옹달샘 본점",
    "phone": "02-333-2440",
    "source": "서교동 - 홍대입구역 - 옹달샘",
    "address": "서울 마포구 양화로6길 99",
    "website": "http://place.map.daum.net/26871332",
    "category": "덮밥, 백반, 벤또(도시락)"
   }
  },
  {
   "type": "Feature",
   "geometry": {
    "type": "Point",
    "coordinates": [
     127.043363499971,
     37.5476287283931
    ]
   },
   "properties": {
    "pid": "27373628",
    "name": "할머니의레시피",
    "phone": "02-467-5101",
    "source": "성수동 - 뚝섬역 - 할머니의 레시피",
    "address": "서울 성동구 서울숲6길 15-1",
    "website": "http://place.map.daum.net/27373628",
    "category": "덮밥, 백반, 벤또(도시락)"
   }
  },
  {
   "type": "Feature",
   "geometry": {
    "type": "Point",
    "coordinates": [
     126.921148208727,
     37.548424865676
    ]
   },
   "properties": {
    "pid": "27315733",
    "name": "경주식당",
    "phone": "02-322-1674",
    "source": "상수동 - 상수역 - 경주식당",
    "address": "서울 마포구 와우산로13길 49-7",
    "website": "http://place.map.daum.net/27315733",
    "category": "덮밥, 백반, 벤또(도시락)"
   }
  },
  {
   "type": "Feature",
   "geometry": {
    "type": "Point",
    "coordinates": [
     126.904858352266,
     37.5547234533578
    ]
   },
   "properties": {
    "pid": "26857065",
    "name": "홍타하우스",
    "phone": "",
    "source": "상수동 - 상수역 - 홍타하우스",
    "address": "서울 마포구 희우정로16길 54",
    "website": "http://place.map.daum.net/26857065",
    "category": "덮밥, 백반, 벤또(도시락)"
   }
  },
  {
   "type": "Feature",
   "geometry": {
    "type": "Point",
    "coordinates": [
     126.920900635432,
     37.5513979943797
    ]
   },
   "properties": {
    "pid": "8229224",
    "name": "차웅가",
    "phone": "02-323-9930",
    "source": "서교동 - 합정역 - 나물먹는곰",
    "address": "서울 마포구 잔다리로 20-12",
    "website": "http://place.map.daum.net/8229224",
    "category": "덮밥, 백반, 벤또(도시락)"
   }
  },
  {
   "type": "Feature",
   "geometry": {
    "type": "Point",
    "coordinates": [
     126.924497306653,
     37.5489388217845
    ]
   },
   "properties": {
    "pid": "24768825",
    "name": "모 홍대본점",
    "phone": "02-6203-6911",
    "source": "서교동 - 합정역 - 모",
    "address": "서울 마포구 독막로19길 32",
    "website": "http://place.map.daum.net/24768825",
    "category": "덮밥, 백반, 벤또(도시락)"
   }
  },
  {
   "type": "Feature",
   "geometry": {
    "type": "Point",
    "coordinates": [
     126.922008475305,
     37.5525484047186
    ]
   },
   "properties": {
    "pid": "27282036",
    "name": "그녀의밥상",
    "phone": "02-324-4074",
    "source": "서교동 - 홍대입구역 - 그녀의밥상",
    "address": "서울 마포구 와우산로21길 36-4",
    "website": "http://place.map.daum.net/27282036",
    "category": "덮밥, 백반, 벤또(도시락)"
   }
  },
  {
   "type": "Feature",
   "geometry": {
    "type": "Point",
    "coordinates": [
     126.93990629230946,
     37.54813677050913
    ]
   },
   "properties": {
    "pid": "2019896158",
    "name": "도꼭지",
    "phone": "02-711-0431",
    "source": "서교동 - 홍대입구역 - 도꼭지",
    "address": "서울 마포구 백범로10길 30",
    "website": "http://place.map.daum.net/2019896158",
    "category": "덮밥, 백반, 벤또(도시락)"
   }
  },
  {
   "type": "Feature",
   "geometry": {
    "type": "Point",
    "coordinates": [
     126.927436330501,
     37.5662722452299
    ]
   },
   "properties": {
    "pid": "19313939",
    "name": "봉쥬르밥상",
    "phone": "02-337-9850",
    "source": "연희동 - 신촌역 - 봉쥬르밥상",
    "address": "서울 서대문구 연희로11가길 53",
    "website": "http://place.map.daum.net/19313939",
    "category": "덮밥, 백반, 벤또(도시락)"
   }
  },
  {
   "type": "Feature",
   "geometry": {
    "type": "Point",
    "coordinates": [
     126.974540361268,
     37.6091105764207
    ]
   },
   "properties": {
    "pid": "16418501",
    "name": "우노야",
    "phone": "02-379-5929",
    "source": "평창동 - 홍제역 - 우노야",
    "address": "서울 종로구 평창문화로 130",
    "website": "http://place.map.daum.net/16418501",
    "category": "덮밥, 백반, 벤또(도시락)"
   }
  },
  {
   "type": "Feature",
   "geometry": {
    "type": "Point",
    "coordinates": [
     126.93868087764662,
     37.55764347037842
    ]
   },
   "properties": {
    "pid": "18618208",
    "name": "유타카나 본점",
    "phone": "",
    "source": "창천동 - 신촌역 - 유타카나",
    "address": "서울 서대문구 연세로4길 36",
    "website": "http://place.map.daum.net/18618208",
    "category": "덮밥, 백반, 벤또(도시락)"
   }
  },
  {
   "type": "Feature",
   "geometry": {
    "type": "Point",
    "coordinates": [
     126.92137439078,
     37.5528705414174
    ]
   },
   "properties": {
    "pid": "1792643631",
    "name": "만만코코로 홍대점",
    "phone": "02-335-0004",
    "source": "서교동 - 홍대입구역 - 코코로",
    "address": "서울 마포구 양화로16길 34",
    "website": "http://place.map.daum.net/1792643631",
    "category": "덮밥, 백반, 벤또(도시락)"
   }
  },
  {
   "type": "Feature",
   "geometry": {
    "type": "Point",
    "coordinates": [
     126.922538206065,
     37.5611983266779
    ]
   },
   "properties": {
    "pid": "26568377",
    "name": "양갱식당",
    "phone": "02-332-5115",
    "source": "연남동 - 홍대입구역 - 양갱식당",
    "address": "서울 마포구 연남로 17",
    "website": "http://place.map.daum.net/26568377",
    "category": "덮밥, 백반, 벤또(도시락)"
   }
  },
  {
   "type": "Feature",
   "geometry": {
    "type": "Point",
    "coordinates": [
     126.969575594508,
     37.5749581996164
    ]
   },
   "properties": {
    "pid": "11831530",
    "name": "코엔",
    "phone": "02-738-1717",
    "source": "사직동 - 광화문역 - 코엔",
    "address": "서울 종로구 사직로8길 4",
    "website": "http://place.map.daum.net/11831530",
    "category": "덮밥, 백반, 벤또(도시락)"
   }
  },
  {
   "type": "Feature",
   "geometry": {
    "type": "Point",
    "coordinates": [
     126.969569142182,
     37.5796866158588
    ]
   },
   "properties": {
    "pid": "20616390",
    "name": "쉬는시간",
    "phone": "02-3210-3370",
    "source": "통인동 - 경복궁역 - 쉬는시간",
    "address": "서울 종로구 자하문로7길 52",
    "website": "http://place.map.daum.net/20616390",
    "category": "덮밥, 백반, 벤또(도시락)"
   }
  },
  {
   "type": "Feature",
   "geometry": {
    "type": "Point",
    "coordinates": [
     126.985220217273,
     37.5750332745031
    ]
   },
   "properties": {
    "pid": "8850738",
    "name": "누리",
    "phone": "02-736-7848",
    "source": "관훈동 - 안국역 - 누리",
    "address": "서울 종로구 인사동14길 23",
    "website": "http://place.map.daum.net/8850738",
    "category": "덮밥, 백반, 벤또(도시락)"
   }
  },
  {
   "type": "Feature",
   "geometry": {
    "type": "Point",
    "coordinates": [
     126.971609532027,
     37.5728143386711
    ]
   },
   "properties": {
    "pid": "14714818",
    "name": "테이엔",
    "phone": "02-733-5327",
    "source": "내수동 - 광화문역 - 테이엔",
    "address": "서울 종로구 경희궁2길 14-6",
    "website": "http://place.map.daum.net/14714818",
    "category": "덮밥, 백반, 벤또(도시락)"
   }
  },
  {
   "type": "Feature",
   "geometry": {
    "type": "Point",
    "coordinates": [
     126.92291919841148,
     37.608939955046026
    ]
   },
   "properties": {
    "pid": "16378318",
    "name": "벤또사마",
    "phone": "",
    "source": "대조동 - 불광역 - 벤또사마",
    "address": "서울 은평구 역말로8길 25",
    "website": "http://place.map.daum.net/16378318",
    "category": "덮밥, 백반, 벤또(도시락)"
   }
  },
  {
   "type": "Feature",
   "geometry": {
    "type": "Point",
    "coordinates": [
     126.974303717077,
     37.5199695620956
    ]
   },
   "properties": {
    "pid": "16558563",
    "name": "스즈란테이",
    "phone": "02-749-5324",
    "source": "이촌동 - 이촌역 - 스즈란테이",
    "address": "서울 용산구 이촌로 245",
    "website": "http://place.map.daum.net/16558563",
    "category": "덮밥, 백반, 벤또(도시락)"
   }
  },
  {
   "type": "Feature",
   "geometry": {
    "type": "Point",
    "coordinates": [
     126.954174562438,
     37.5468817715916
    ]
   },
   "properties": {
    "pid": "24062170",
    "name": "타타미공덕점",
    "phone": "02-716-3228",
    "source": "청파동 - 숙대입구역 - 타타미",
    "address": "서울 마포구 마포대로8안길 13",
    "website": "http://place.map.daum.net/24062170",
    "category": "덮밥, 백반, 벤또(도시락)"
   }
  },
  {
   "type": "Feature",
   "geometry": {
    "type": "Point",
    "coordinates": [
     126.969687647704,
     37.5442702714706
    ]
   },
   "properties": {
    "pid": "13314733",
    "name": "토도마루",
    "phone": "02-714-0323",
    "source": "청파동 - 숙대입구역 - 토도마루",
    "address": "서울 용산구 청파로45길 15",
    "website": "http://place.map.daum.net/13314733",
    "category": "덮밥, 백반, 벤또(도시락)"
   }
  },
  {
   "type": "Feature",
   "geometry": {
    "type": "Point",
    "coordinates": [
     126.953340686734,
     37.5485104507813
    ]
   },
   "properties": {
    "pid": "19039864",
    "name": "코이키",
    "phone": "02-704-0104",
    "source": "공덕동 - 공덕역 - 코이키",
    "address": "서울 마포구 마포대로11길 7-8",
    "website": "http://place.map.daum.net/19039864",
    "category": "덮밥, 백반, 벤또(도시락)"
   }
  },
  {
   "type": "Feature",
   "geometry": {
    "type": "Point",
    "coordinates": [
     127.006028161462,
     37.5341503707633
    ]
   },
   "properties": {
    "pid": "22301604",
    "name": "하즈벤",
    "phone": "02-797-7272",
    "source": "한남동 - 한남역 - 하즈벤",
    "address": "서울 용산구 대사관로31길 20",
    "website": "http://place.map.daum.net/22301604",
    "category": "덮밥, 백반, 벤또(도시락)"
   }
  },
  {
   "type": "Feature",
   "geometry": {
    "type": "Point",
    "coordinates": [
     126.889493069405,
     37.5799343395231
    ]
   },
   "properties": {
    "pid": "25577208",
    "name": "마치래빗 상암점",
    "phone": "02-6393-5205",
    "source": "신사동 - 신사역 - 마치래빗",
    "address": "서울 마포구 월드컵북로 402",
    "website": "http://place.map.daum.net/25577208",
    "category": "덮밥, 백반, 벤또(도시락)"
   }
  },
  {
   "type": "Feature",
   "geometry": {
    "type": "Point",
    "coordinates": [
     127.038594109959,
     37.524193556462
    ]
   },
   "properties": {
    "pid": "26787508",
    "name": "운우",
    "phone": "02-540-4009",
    "source": "신사동 - 압구정로데오역 - 운우",
    "address": "서울 강남구 도산대로53길 16",
    "website": "http://place.map.daum.net/26787508",
    "category": "덮밥, 백반, 벤또(도시락)"
   }
  },
  {
   "type": "Feature",
   "geometry": {
    "type": "Point",
    "coordinates": [
     127.032757557239,
     37.5155709183164
    ]
   },
   "properties": {
    "pid": "19141901",
    "name": "하코",
    "phone": "",
    "source": "논현동 - 학동역 - 하코",
    "address": "서울 강남구 논현로132길 29",
    "website": "http://place.map.daum.net/19141901",
    "category": "덮밥, 백반, 벤또(도시락)"
   }
  }
 ]
}