{
 "type": "FeatureCollection",
 "features": [
  {
   "type": "Feature",
   "geometry": {
    "type": "Point",
    "coordinates": [
     126.903136812067,
     37.569732651542
    ]
   },
   "properties": {
    "pid": "16044741",
    "name": "성산왕갈비",
    "phone": "02-306-2001",
    "source": "성산동 - 월드컵경기장역 - 성산왕갈비 - 돼지생갈비",
    "address": "서울 마포구 월드컵북로 233",
    "website": "http://place.map.daum.net/16044741",
    "category": "돼지고기"
   }
  },
  {
   "type": "Feature",
   "geometry": {
    "type": "Point",
    "coordinates": [
     126.872966349956,
     37.5254217789037
    ]
   },
   "properties": {
    "pid": "25490987",
    "name": "일미락 목동본점",
    "phone": "02-2642-9292",
    "source": "목동 - 오목교역 - 일미락 - 돼지생갈비",
    "address": "서울 양천구 목동동로 226-16",
    "website": "http://place.map.daum.net/25490987",
    "category": "돼지고기"
   }
  },
  {
   "type": "Feature",
   "geometry": {
    "type": "Point",
    "coordinates": [
     127.088605373691,
     37.5054581873057
    ]
   },
   "properties": {
    "pid": "24855889",
    "name": "화동생갈비 잠실지점",
    "phone": "02-420-5882",
    "source": "잠실동 - 신천역 - 화동생갈비 - 돼지생갈비",
    "address": "서울 송파구 삼전로 75",
    "website": "http://place.map.daum.net/24855889",
    "category": "돼지고기"
   }
  },
  {
   "type": "Feature",
   "geometry": {
    "type": "Point",
    "coordinates": [
     126.910785585788,
     37.5989813062448
    ]
   },
   "properties": {
    "pid": "25132525",
    "name": "남강숯불",
    "phone": "070-7370-4492",
    "source": "신사동 - 응암역 - 남강숯불갈비 - 돼지생갈비",
    "address": "서울 은평구 갈현로 10-7",
    "website": "http://place.map.daum.net/25132525",
    "category": "돼지고기"
   }
  },
  {
   "type": "Feature",
   "geometry": {
    "type": "Point",
    "coordinates": [
     127.027786305399,
     37.518808596862
    ]
   },
   "properties": {
    "pid": "13057957",
    "name": "삼다연 논현점",
    "phone": "02-511-9283",
    "source": "논현동 - 신사역 - 삼다연 - 오겹살",
    "address": "서울 강남구 논현로149길 6",
    "website": "http://place.map.daum.net/13057957",
    "category": "돼지고기"
   }
  },
  {
   "type": "Feature",
   "geometry": {
    "type": "Point",
    "coordinates": [
     127.056328024558,
     37.5125058245156
    ]
   },
   "properties": {
    "pid": "8686213",
    "name": "흑돈가 삼성역점",
    "phone": "02-2051-0008",
    "source": "삼성동 - 삼성역 - 흑돈가 - 오겹살",
    "address": "서울 강남구 봉은사로86길 14",
    "website": "http://place.map.daum.net/8686213",
    "category": "돼지고기"
   }
  },
  {
   "type": "Feature",
   "geometry": {
    "type": "Point",
    "coordinates": [
     127.024370081251,
     37.5742388089419
    ]
   },
   "properties": {
    "pid": "10331494",
    "name": "육전식당 본점",
    "phone": "02-2253-6373",
    "source": "신설동 - 신설동역 - 육전식당 - 오겹살",
    "address": "서울 동대문구 난계로30길 16",
    "website": "http://place.map.daum.net/10331494",
    "category": "돼지고기"
   }
  },
  {
   "type": "Feature",
   "geometry": {
    "type": "Point",
    "coordinates": [
     126.933651935508,
     37.5569343697136
    ]
   },
   "properties": {
    "pid": "26874707",
    "name": "돈불1971 신촌직영점",
    "phone": "02-3141-1617",
    "source": "창천동 - 신촌역 - 돈불 1971 - 오겹살",
    "address": "서울 서대문구 연세로5다길 36",
    "website": "http://place.map.daum.net/26874707",
    "category": "돼지고기"
   }
  },
  {
   "type": "Feature",
   "geometry": {
    "type": "Point",
    "coordinates": [
     127.090773294633,
     37.5062566336645
    ]
   },
   "properties": {
    "pid": "16066302",
    "name": "제주우다",
    "phone": "02-419-1932",
    "source": "삼전동 - 신천역 - 제주우다 - 오겹살",
    "address": "서울 송파구 백제고분로21길 27",
    "website": "http://place.map.daum.net/16066302",
    "category": "돼지고기"
   }
  },
  {
   "type": "Feature",
   "geometry": {
    "type": "Point",
    "coordinates": [
     127.035724102351,
     37.4838474347064
    ]
   },
   "properties": {
    "pid": "26869641",
    "name": "모닥제주흑돼지 양재본점",
    "phone": "",
    "source": "양재동 - 양재역 - 모닥제주흑돼지 - 오겹살",
    "address": "서울 서초구 강남대로 222-6",
    "website": "http://place.map.daum.net/26869641",
    "category": "돼지고기"
   }
  },
  {
   "type": "Feature",
   "geometry": {
    "type": "Point",
    "coordinates": [
     126.930765830024,
     37.5546261592335
    ]
   },
   "properties": {
    "pid": "16502691",
    "name": "김관석의탐라돈 홍대본점",
    "phone": "02-3141-4592",
    "source": "창전동 - 홍대입구역 - 김관석의 탐라돈 - 오겹살",
    "address": "서울 마포구 서강로9길 56",
    "website": "http://place.map.daum.net/16502691",
    "category": "돼지고기"
   }
  },
  {
   "type": "Feature",
   "geometry": {
    "type": "Point",
    "coordinates": [
     126.843925494004,
     37.4965332335671
    ]
   },
   "properties": {
    "pid": "27450708",
    "name": "한라산도새기",
    "phone": "02-2616-7591",
    "source": "오류동 - 오류동역 - 한라산도새기 - 오겹살",
    "address": "서울 구로구 경인로19가길 14-1",
    "website": "http://place.map.daum.net/27450708",
    "category": "돼지고기"
   }
  },
  {
   "type": "Feature",
   "geometry": {
    "type": "Point",
    "coordinates": [
     126.889410190589,
     37.5257158297004
    ]
   },
   "properties": {
    "pid": "26928234",
    "name": "육화몽",
    "phone": "02-2637-6450",
    "source": "양평동 - 양평역 - 육화몽 - 오겹살",
    "address": "서울 영등포구 양산로 57-5",
    "website": "http://place.map.daum.net/26928234",
    "category": "돼지고기"
   }
  },
  {
   "type": "Feature",
   "geometry": {
    "type": "Point",
    "coordinates": [
     126.916222272436,
     37.5696201273307
    ]
   },
   "properties": {
    "pid": "20538276",
    "name": "전라도식이네집",
    "phone": "02-309-5685",
    "source": "남가좌동 - 가좌역 - 전라도 식이네집 - 삼겹살",
    "address": "서울 서대문구 수색로2길 18",
    "website": "http://place.map.daum.net/20538276",
    "category": "돼지고기"
   }
  },
  {
   "type": "Feature",
   "geometry": {
    "type": "Point",
    "coordinates": [
     126.980044344757,
     37.5589299149017
    ]
   },
   "properties": {
    "pid": "8166839",
    "name": "회현집",
    "phone": "02-753-4349",
    "source": "회현동 - 회현역 - 회현집 - 삼겹살",
    "address": "서울 중구 퇴계로8길 7",
    "website": "http://place.map.daum.net/8166839",
    "category": "돼지고기"
   }
  },
  {
   "type": "Feature",
   "geometry": {
    "type": "Point",
    "coordinates": [
     126.99875940309,
     37.5685290082279
    ]
   },
   "properties": {
    "pid": "10375797",
    "name": "보건옥",
    "phone": "02-2275-3743",
    "source": "주교동 - 을지로4가역 - 보건옥 - 삼겹살",
    "address": "서울 중구 창경궁로8길 12",
    "website": "http://place.map.daum.net/10375797",
    "category": "돼지고기"
   }
  },
  {
   "type": "Feature",
   "geometry": {
    "type": "Point",
    "coordinates": [
     127.091394994148,
     37.5004068277696
    ]
   },
   "properties": {
    "pid": "16047151",
    "name": "부농정육식당",
    "phone": "02-413-3308",
    "source": "삼전동 - 신천역 - 부농정육식당 - 삼겹살",
    "address": "서울 송파구 백제고분로28길 29",
    "website": "http://place.map.daum.net/16047151",
    "category": "돼지고기"
   }
  },
  {
   "type": "Feature",
   "geometry": {
    "type": "Point",
    "coordinates": [
     126.978074034559,
     37.5623497494266
    ]
   },
   "properties": {
    "pid": "15808622",
    "name": "박씨화로숯불구이",
    "phone": "02-756-8997",
    "source": "북창동 - 시청역 - 박씨화로구이 - 삼겹살",
    "address": "서울 중구 남대문로1길 26-13",
    "website": "http://place.map.daum.net/15808622",
    "category": "돼지고기"
   }
  },
  {
   "type": "Feature",
   "geometry": {
    "type": "Point",
    "coordinates": [
     127.032990079594,
     37.5606857384056
    ]
   },
   "properties": {
    "pid": "487116221",
    "name": "땅코참숯구이 본점",
    "phone": "02-2281-6908",
    "source": "행당동 - 왕십리역 - 땅코참숯구이 - 목살",
    "address": "서울 성동구 행당로17길 26",
    "website": "http://place.map.daum.net/487116221",
    "category": "돼지고기"
   }
  },
  {
   "type": "Feature",
   "geometry": {
    "type": "Point",
    "coordinates": [
     126.990658717645,
     37.5732030087147
    ]
   },
   "properties": {
    "pid": "16377689",
    "name": "통돼지집",
    "phone": "02-743-0683",
    "source": "돈의동 - 종로 3가역 - 통돼지집 - 목살",
    "address": "서울 종로구 수표로28길 44",
    "website": "http://place.map.daum.net/16377689",
    "category": "돼지고기"
   }
  },
  {
   "type": "Feature",
   "geometry": {
    "type": "Point",
    "coordinates": [
     126.916634508591,
     37.5491173360161
    ]
   },
   "properties": {
    "pid": "19244639",
    "name": "정화",
    "phone": "02-3144-4920",
    "source": "서교동 - 상수역 - 정화 - 목살",
    "address": "서울 마포구 양화로8길 38",
    "website": "http://place.map.daum.net/19244639",
    "category": "돼지고기"
   }
  },
  {
   "type": "Feature",
   "geometry": {
    "type": "Point",
    "coordinates": [
     127.008754611347,
     37.5900300108733
    ]
   },
   "properties": {
    "pid": "8260699",
    "name": "돈가래",
    "phone": "02-764-0348",
    "source": "동소문동 - 한성대역 - 돈가래 - 목살",
    "address": "서울 성북구 성북로2길 56",
    "website": "http://place.map.daum.net/8260699",
    "category": "돼지고기"
   }
  },
  {
   "type": "Feature",
   "geometry": {
    "type": "Point",
    "coordinates": [
     127.065507398595,
     37.6566311444758
    ]
   },
   "properties": {
    "pid": "16056109",
    "name": "노원목고기집",
    "phone": "02-932-6599",
    "source": "상계동 - 노원역 - 노원목고기집 - 목살",
    "address": "서울 노원구 상계로 96",
    "website": "http://place.map.daum.net/16056109",
    "category": "돼지고기"
   }
  },
  {
   "type": "Feature",
   "geometry": {
    "type": "Point",
    "coordinates": [
     126.944748626931,
     37.5126973459037
    ]
   },
   "properties": {
    "pid": "8028469",
    "name": "우정소금구이제주흑돼지",
    "phone": "02-824-9325",
    "source": "노량진동 - 노량진역 - 우정소금구이 - 목살",
    "address": "서울 동작구 만양로14가길 27",
    "website": "http://place.map.daum.net/8028469",
    "category": "돼지고기"
   }
  },
  {
   "type": "Feature",
   "geometry": {
    "type": "Point",
    "coordinates": [
     126.991764806883,
     37.5618036922137
    ]
   },
   "properties": {
    "pid": "10365977",
    "name": "뚱보돼지갈비통고기",
    "phone": "02-2267-1801",
    "source": "충무로 - 충무로역 - 뚱보돼지갈비 통고기 - 목살",
    "address": "서울 중구 퇴계로27길 14",
    "website": "http://place.map.daum.net/10365977",
    "category": "돼지고기"
   }
  },
  {
   "type": "Feature",
   "geometry": {
    "type": "Point",
    "coordinates": [
     127.066308533442,
     37.563410756674
    ]
   },
   "properties": {
    "pid": "22321266",
    "name": "진미육가",
    "phone": "02-2216-7070",
    "source": "장안동 - 장한평역 - 진미육가 - 목살",
    "address": "서울 동대문구 장한로 24",
    "website": "http://place.map.daum.net/22321266",
    "category": "돼지고기"
   }
  },
  {
   "type": "Feature",
   "geometry": {
    "type": "Point",
    "coordinates": [
     127.028926617196,
     37.6126921103347
    ]
   },
   "properties": {
    "pid": "16383930",
    "name": "일미집",
    "phone": "02-987-3055",
    "source": "미아동 - 미아삼거리역 - 일미집 - 목살",
    "address": "서울 강북구 숭인로 65-3",
    "website": "http://place.map.daum.net/16383930",
    "category": "돼지고기"
   }
  },
  {
   "type": "Feature",
   "geometry": {
    "type": "Point",
    "coordinates": [
     126.950683377777,
     37.5420113652137
    ]
   },
   "properties": {
    "pid": "8742927",
    "name": "고바우",
    "phone": "02-712-7515",
    "source": "도화동 - 마포역 - 고바우 - 목살",
    "address": "서울 마포구 새창로 8-3",
    "website": "http://place.map.daum.net/8742927",
    "category": "돼지고기"
   }
  },
  {
   "type": "Feature",
   "geometry": {
    "type": "Point",
    "coordinates": [
     126.941151873888,
     37.5413654881715
    ]
   },
   "properties": {
    "pid": "27338466",
    "name": "그남자의가브리살 마포점",
    "phone": "02-714-4445",
    "source": "용강동 - 마포역 - 그남자의 가브리살 - 가브리살",
    "address": "서울 마포구 토정로 286-1",
    "website": "http://place.map.daum.net/27338466",
    "category": "돼지고기"
   }
  },
  {
   "type": "Feature",
   "geometry": {
    "type": "Point",
    "coordinates": [
     127.033749398015,
     37.5779630131534
    ]
   },
   "properties": {
    "pid": "24050752",
    "name": "마약고기",
    "phone": "02-927-2992",
    "source": "용두동 - 제기동역 - 마약고기 - 가브리살",
    "address": "서울 동대문구 왕산로 94",
    "website": "http://place.map.daum.net/24050752",
    "category": "돼지고기"
   }
  },
  {
   "type": "Feature",
   "geometry": {
    "type": "Point",
    "coordinates": [
     126.995488002711,
     37.5329467010943
    ]
   },
   "properties": {
    "pid": "26500256",
    "name": "한도니",
    "phone": "02-794-0092",
    "source": "이태원동 - 이태원역 - 한도니 - 가브리살",
    "address": "서울 용산구 우사단로 31",
    "website": "http://place.map.daum.net/26500256",
    "category": "돼지고기"
   }
  },
  {
   "type": "Feature",
   "geometry": {
    "type": "Point",
    "coordinates": [
     127.017971592806,
     37.5163273325749
    ]
   },
   "properties": {
    "pid": "27512537",
    "name": "해돈지",
    "phone": "02-514-2551",
    "source": "잠원동 - 신사역 - 해돈지 - 가브리살",
    "address": "서울 서초구 강남대로101안길 13",
    "website": "http://place.map.daum.net/27512537",
    "category": "돼지고기"
   }
  },
  {
   "type": "Feature",
   "geometry": {
    "type": "Point",
    "coordinates": [
     127.089910459413,
     37.5072916470656
    ]
   },
   "properties": {
    "pid": "27303080",
    "name": "부일갈매기",
    "phone": "02-412-1462",
    "source": "잠실동 - 신천역 - 부일갈매기 - 갈매기살",
    "address": "서울 송파구 삼전로13길 4",
    "website": "http://place.map.daum.net/27303080",
    "category": "돼지고기"
   }
  },
  {
   "type": "Feature",
   "geometry": {
    "type": "Point",
    "coordinates": [
     126.991052675542,
     37.5730264442222
    ]
   },
   "properties": {
    "pid": "16037751",
    "name": "미갈매기살전문",
    "phone": "02-3672-0081",
    "source": "돈의동 - 종로3가역 - 미갈매기살 - 갈매기살",
    "address": "서울 종로구 돈화문로11가길 7",
    "website": "http://place.map.daum.net/16037751",
    "category": "돼지고기"
   }
  },
  {
   "type": "Feature",
   "geometry": {
    "type": "Point",
    "coordinates": [
     126.991061732399,
     37.5730192369486
    ]
   },
   "properties": {
    "pid": "16037765",
    "name": "고창집",
    "phone": "02-766-4263",
    "source": "돈의동 - 종로3가역 - 고창집 - 갈매기살",
    "address": "서울 종로구 돈화문로11가길 7",
    "website": "http://place.map.daum.net/16037765",
    "category": "돼지고기"
   }
  },
  {
   "type": "Feature",
   "geometry": {
    "type": "Point",
    "coordinates": [
     127.065877420035,
     37.5622649306442
    ]
   },
   "properties": {
    "pid": "11941074",
    "name": "정원갈매기살",
    "phone": "02-2213-5729",
    "source": "장안동 - 장한편역 - 정원갈매기살 - 갈매기살",
    "address": "서울 동대문구 장한로2길 7",
    "website": "http://place.map.daum.net/11941074",
    "category": "돼지고기"
   }
  },
  {
   "type": "Feature",
   "geometry": {
    "type": "Point",
    "coordinates": [
     126.950900858432,
     37.5416654719775
    ]
   },
   "properties": {
    "pid": "25849722",
    "name": "마포갈매기",
    "phone": "02-712-0655",
    "source": "도화동 - 마포역 - 마포갈매기 - 갈매기살",
    "address": "서울 마포구 도화길 48-21",
    "website": "http://place.map.daum.net/25849722",
    "category": "돼지고기"
   }
  },
  {
   "type": "Feature",
   "geometry": {
    "type": "Point",
    "coordinates": [
     126.950914372937,
     37.5417627855592
    ]
   },
   "properties": {
    "pid": "8374003",
    "name": "부산갈매기",
    "phone": "02-718-5462",
    "source": "도화동 - 마포역 - 부산갈매기 - 갈매기살",
    "address": "서울 마포구 도화길 48-3",
    "website": "http://place.map.daum.net/8374003",
    "category": "돼지고기"
   }
  },
  {
   "type": "Feature",
   "geometry": {
    "type": "Point",
    "coordinates": [
     126.95212677123274,
     37.544542431937565
    ]
   },
   "properties": {
    "pid": "24840615",
    "name": "박가네마포갈매기숯불갈비",
    "phone": "02-702-5192",
    "source": "공덕동 - 공덕역 - 박가네 마포갈매기 숯불갈비 - 갈매기살",
    "address": "서울 마포구 만리재로1길 3",
    "website": "http://place.map.daum.net/24840615",
    "category": "돼지고기"
   }
  },
  {
   "type": "Feature",
   "geometry": {
    "type": "Point",
    "coordinates": [
     127.034208834394,
     37.5627072280498
    ]
   },
   "properties": {
    "pid": "15848104",
    "name": "껍데기집",
    "phone": "02-2292-3342",
    "source": "도선동 - 왕십리역 - 껍데기집 - 갈매기살",
    "address": "서울 성동구 무학로2길 42-1",
    "website": "http://place.map.daum.net/15848104",
    "category": "돼지고기"
   }
  },
  {
   "type": "Feature",
   "geometry": {
    "type": "Point",
    "coordinates": [
     127.037881011744,
     37.527869875873
    ]
   },
   "properties": {
    "pid": "27474522",
    "name": "불꾼",
    "phone": "02-516-9634",
    "source": "신사동 - 압구정로데오역 - 불꾼 - 갈매기살",
    "address": "서울 강남구 압구정로46길 5-14",
    "website": "http://place.map.daum.net/27474522",
    "category": "돼지고기"
   }
  },
  {
   "type": "Feature",
   "geometry": {
    "type": "Point",
    "coordinates": [
     127.068064170346,
     37.5473792102844
    ]
   },
   "properties": {
    "pid": "9367384",
    "name": "원조마포숯불갈비",
    "phone": "02-467-9292",
    "source": "화양동 - 건대입구역 - 원조숯불구이 - 항정살",
    "address": "서울 광진구 광나루로12길 5",
    "website": "http://place.map.daum.net/9367384",
    "category": "돼지고기"
   }
  },
  {
   "type": "Feature",
   "geometry": {
    "type": "Point",
    "coordinates": [
     127.010919067478,
     37.5561452127084
    ]
   },
   "properties": {
    "pid": "8552779",
    "name": "치맛살",
    "phone": "02-2256-6370",
    "source": "약수동 - 약수역 - 치맛살 - 항정살",
    "address": "서울 중구 동호로12길 19",
    "website": "http://place.map.daum.net/8552779",
    "category": "돼지고기"
   }
  },
  {
   "type": "Feature",
   "geometry": {
    "type": "Point",
    "coordinates": [
     126.963709437731,
     37.5609262371945
    ]
   },
   "properties": {
    "pid": "12441941",
    "name": "고릴라",
    "phone": "02-312-3541",
    "source": "충정로 - 충정로역 - 고릴라 - 항정살",
    "address": "서울 서대문구 충정로 22-2",
    "website": "http://place.map.daum.net/12441941",
    "category": "돼지고기"
   }
  },
  {
   "type": "Feature",
   "geometry": {
    "type": "Point",
    "coordinates": [
     126.97102731726517,
     37.53283871723341
    ]
   },
   "properties": {
    "pid": "7917849",
    "name": "삼각정",
    "phone": "02-798-3666",
    "source": "한강로 - 삼각지역 - 삼각정 - 항정살",
    "address": "서울 용산구 한강대로 151",
    "website": "http://place.map.daum.net/7917849",
    "category": "돼지고기"
   }
  },
  {
   "type": "Feature",
   "geometry": {
    "type": "Point",
    "coordinates": [
     127.026657483474,
     37.5254366330156
    ]
   },
   "properties": {
    "pid": "8345794",
    "name": "떼부짱 압구정본점",
    "phone": "02-517-0997",
    "source": "신사동 - 압구정역 - 떼부짱 - 항정살",
    "address": "서울 강남구 논현로175길 25",
    "website": "http://place.map.daum.net/8345794",
    "category": "돼지고기"
   }
  },
  {
   "type": "Feature",
   "geometry": {
    "type": "Point",
    "coordinates": [
     126.91194577671,
     37.5523070698644
    ]
   },
   "properties": {
    "pid": "11569705",
    "name": "제주돈사돈 서울본점",
    "phone": "02-324-7575",
    "source": "합정동 - 합정역 - 제주돈사돈 - 근고기",
    "address": "서울 마포구 월드컵로 33",
    "website": "http://place.map.daum.net/11569705",
    "category": "돼지고기"
   }
  },
  {
   "type": "Feature",
   "geometry": {
    "type": "Point",
    "coordinates": [
     127.037751380311,
     37.5220674628488
    ]
   },
   "properties": {
    "pid": "1798461830",
    "name": "돈사돈",
    "phone": "02-541-0419",
    "source": "역삼동 - 신논현역 - 돈사돈 - 근고기",
    "address": "서울 강남구 언주로150길 43",
    "website": "http://place.map.daum.net/1798461830",
    "category": "돼지고기"
   }
  },
  {
   "type": "Feature",
   "geometry": {
    "type": "Point",
    "coordinates": [
     127.02709075923497,
     37.52229563988595
    ]
   },
   "properties": {
    "pid": "26505091",
    "name": "제주애돈 압구정본점",
    "phone": "02-518-0997",
    "source": "신사동 - 압구정역 - 제주애돈 - 근고기",
    "address": "서울 강남구 논현로157길 11",
    "website": "http://place.map.daum.net/26505091",
    "category": "돼지고기"
   }
  },
  {
   "type": "Feature",
   "geometry": {
    "type": "Point",
    "coordinates": [
     127.049279408534,
     37.5060866146032
    ]
   },
   "properties": {
    "pid": "12890589",
    "name": "김돈이 본점",
    "phone": "02-558-5256",
    "source": "삼성동 - 선릉역 - 김돈이 - 근고기",
    "address": "서울 강남구 선릉로94길 9",
    "website": "http://place.map.daum.net/12890589",
    "category": "돼지고기"
   }
  },
  {
   "type": "Feature",
   "geometry": {
    "type": "Point",
    "coordinates": [
     127.02534655541879,
     37.50603651003916
    ]
   },
   "properties": {
    "pid": "26235725",
    "name": "육덕식당 본점",
    "phone": "02-511-1444",
    "source": "논현동 - 신논현역 - 육덕식당 - 근고기",
    "address": "서울 강남구 강남대로114길 13",
    "website": "http://place.map.daum.net/26235725",
    "category": "돼지고기"
   }
  },
  {
   "type": "Feature",
   "geometry": {
    "type": "Point",
    "coordinates": [
     127.070407266083,
     37.54086181021
    ]
   },
   "properties": {
    "pid": "15754572",
    "name": "제주돈통",
    "phone": "02-461-1818",
    "source": "화양동 - 건대입구역 - 제주돈통 - 근고기",
    "address": "서울 광진구 아차산로33길 16-2",
    "website": "http://place.map.daum.net/15754572",
    "category": "돼지고기"
   }
  },
  {
   "type": "Feature",
   "geometry": {
    "type": "Point",
    "coordinates": [
     127.12138028343,
     37.496559558866
    ]
   },
   "properties": {
    "pid": "24894038",
    "name": "제주탐도니 가락시장점",
    "phone": "02-401-0915",
    "source": "가락동 - 가락시장역 - 제주탐도니 - 근고기",
    "address": "서울 송파구 송파대로30길 41-10",
    "website": "http://place.map.daum.net/24894038",
    "category": "돼지고기"
   }
  },
  {
   "type": "Feature",
   "geometry": {
    "type": "Point",
    "coordinates": [
     126.978427034598,
     37.5471085367083
    ]
   },
   "properties": {
    "pid": "24059165",
    "name": "선명구이가",
    "phone": "02-319-6578",
    "source": "후암동 - 서울역 - 선명구이가 - 근고기",
    "address": "서울 용산구 후암로 16",
    "website": "http://place.map.daum.net/24059165",
    "category": "돼지고기"
   }
  },
  {
   "type": "Feature",
   "geometry": {
    "type": "Point",
    "coordinates": [
     127.126012512449,
     37.5101923209157
    ]
   },
   "properties": {
    "pid": "8364935",
    "name": "봉피양 방이점",
    "phone": "02-415-5527",
    "source": "방이동 - 방이역 - 봉피양 - 돼지갈비",
    "address": "서울 송파구 양재대로71길 1-4",
    "website": "http://place.map.daum.net/8364935",
    "category": "돼지고기"
   }
  },
  {
   "type": "Feature",
   "geometry": {
    "type": "Point",
    "coordinates": [
     126.993380571526,
     37.5673214948889
    ]
   },
   "properties": {
    "pid": "25732495",
    "name": "안성집",
    "phone": "02-2279-4522",
    "source": "을지로3가 - 을지로3가역 - 안성집 - 돼지갈비",
    "address": "서울 중구 을지로15길 19",
    "website": "http://place.map.daum.net/25732495",
    "category": "돼지고기"
   }
  },
  {
   "type": "Feature",
   "geometry": {
    "type": "Point",
    "coordinates": [
     127.087373842347,
     37.5937677466077
    ]
   },
   "properties": {
    "pid": "16501916",
    "name": "봉일천돼지부속",
    "phone": "02-491-9231",
    "source": "상봉동 - 상봉역 - 봉일천돼지부속 - 특수부위",
    "address": "서울 중랑구 봉우재로33길 23",
    "website": "http://place.map.daum.net/16501916",
    "category": "돼지고기"
   }
  },
  {
   "type": "Feature",
   "geometry": {
    "type": "Point",
    "coordinates": [
     127.110271620084,
     37.5155203824989
    ]
   },
   "properties": {
    "pid": "16326803",
    "name": "원조마포소금구이",
    "phone": "02-414-1981",
    "source": "방이동 - 잠실역 - 마포원조소금구이 - 특수부위",
    "address": "서울 송파구 오금로11길 29-7",
    "website": "http://place.map.daum.net/16326803",
    "category": "돼지고기"
   }
  },
  {
   "type": "Feature",
   "geometry": {
    "type": "Point",
    "coordinates": [
     127.079320450022,
     37.5635288711952
    ]
   },
   "properties": {
    "pid": "16086420",
    "name": "뽈장군",
    "phone": "",
    "source": "중곡동 - 군자역 - 뽈장군 - 특수부위",
    "address": "서울 광진구 긴고랑로 25",
    "website": "http://place.map.daum.net/16086420",
    "category": "돼지고기"
   }
  },
  {
   "type": "Feature",
   "geometry": {
    "type": "Point",
    "coordinates": [
     126.910585893381,
     37.5500751768335
    ]
   },
   "properties": {
    "pid": "27593948",
    "name": "합정뒷고기",
    "phone": "02-3144-7254",
    "source": "합정동 - 합정역 - 합정뒷고기 - 특수부위",
    "address": "서울 마포구 양화로1길 32",
    "website": "http://place.map.daum.net/27593948",
    "category": "돼지고기"
   }
  },
  {
   "type": "Feature",
   "geometry": {
    "type": "Point",
    "coordinates": [
     127.034577759563,
     37.5086759151253
    ]
   },
   "properties": {
    "pid": "26781592",
    "name": "돼지연구소",
    "phone": "02-6053-9010",
    "source": "논현동 - 신사역 - 돼지연구소 - 특수부위",
    "address": "서울 강남구 논현로114길 14",
    "website": "http://place.map.daum.net/26781592",
    "category": "돼지고기"
   }
  },
  {
   "type": "Feature",
   "geometry": {
    "type": "Point",
    "coordinates": [
     126.910535784814,
     37.6033274946928
    ]
   },
   "properties": {
    "pid": "12502472",
    "name": "솔밭뽈살하얀살전문",
    "phone": "02-388-5937",
    "source": "역촌동 - 응암역 - 솔밭식당 - 특수부위",
    "address": "서울 은평구 갈현로 62",
    "website": "http://place.map.daum.net/12502472",
    "category": "돼지고기"
   }
  },
  {
   "type": "Feature",
   "geometry": {
    "type": "Point",
    "coordinates": [
     126.852225682763,
     37.5241722869651
    ]
   },
   "properties": {
    "pid": "20194252",
    "name": "돈뿌리뽈살 본점",
    "phone": "02-2698-9909",
    "source": "신정동 - 신정동역 - 돈뿌리뽈살 - 특수부위",
    "address": "서울 양천구 오목로 132",
    "website": "http://place.map.daum.net/20194252",
    "category": "돼지고기"
   }
  },
  {
   "type": "Feature",
   "geometry": {
    "type": "Point",
    "coordinates": [
     126.88578298824,
     37.5244329550013
    ]
   },
   "properties": {
    "pid": "9380365",
    "name": "양평동장군집",
    "phone": "02-3667-1392",
    "source": "양평동 - 양평역 - 장군집 - 특수부위",
    "address": "서울 영등포구 선유서로 97",
    "website": "http://place.map.daum.net/9380365",
    "category": "돼지고기"
   }
  },
  {
   "type": "Feature",
   "geometry": {
    "type": "Point",
    "coordinates": [
     126.981109295942,
     37.4828890480645
    ]
   },
   "properties": {
    "pid": "22137672",
    "name": "놀란돼지 이수점",
    "phone": "02-522-5462",
    "source": "사당동 - 이수역 - 놀란돼지 - 특수부위",
    "address": "서울 동작구 동작대로17길 6",
    "website": "http://place.map.daum.net/22137672",
    "category": "돼지고기"
   }
  },
  {
   "type": "Feature",
   "geometry": {
    "type": "Point",
    "coordinates": [
     127.030428694579,
     37.5743707499846
    ]
   },
   "properties": {
    "pid": "12065696",
    "name": "오돌이",
    "phone": "02-921-5355",
    "source": "용두동 - 신설동역 - 오돌이 - 특수부위",
    "address": "서울 동대문구 무학로 113",
    "website": "http://place.map.daum.net/12065696",
    "category": "돼지고기"
   }
  },
  {
   "type": "Feature",
   "geometry": {
    "type": "Point",
    "coordinates": [
     126.981165552156,
     37.4749781950934
    ]
   },
   "properties": {
    "pid": "27282290",
    "name": "사당삼겹살",
    "phone": "02-597-1981",
    "source": "사당동 - 사당역 - 사당삼겹살 - 냉동삼겹살",
    "address": "서울 관악구 남현1길 68-18",
    "website": "http://place.map.daum.net/27282290",
    "category": "돼지고기"
   }
  },
  {
   "type": "Feature",
   "geometry": {
    "type": "Point",
    "coordinates": [
     126.972683536539,
     37.5580274441942
    ]
   },
   "properties": {
    "pid": "1785604695",
    "name": "명동집",
    "phone": "02-773-7318",
    "source": "남대문로 - 서울역 - 명동집 - 냉동삼겹살",
    "address": "서울 중구 통일로 22-14",
    "website": "http://place.map.daum.net/1785604695",
    "category": "돼지고기"
   }
  },
  {
   "type": "Feature",
   "geometry": {
    "type": "Point",
    "coordinates": [
     126.894258170574,
     37.5149911305962
    ]
   },
   "properties": {
    "pid": "18855921",
    "name": "문래돼지불백",
    "phone": "02-2677-2509",
    "source": "문래동 - 영등포구청역 - 문래돼지불백 - 돼지불고기 (직화)",
    "address": "서울 영등포구 당산로 2-1",
    "website": "http://place.map.daum.net/18855921",
    "category": "돼지고기"
   }
  },
  {
   "type": "Feature",
   "geometry": {
    "type": "Point",
    "coordinates": [
     126.944347145342,
     37.5111005779899
    ]
   },
   "properties": {
    "pid": "16045500",
    "name": "영흥정육식당",
    "phone": "02-813-1662",
    "source": "노량진동 - 노량진역 - 영흥정육식당 - 돼지불고기 (직화)",
    "address": "서울 동작구 만양로 85-1",
    "website": "http://place.map.daum.net/16045500",
    "category": "돼지고기"
   }
  },
  {
   "type": "Feature",
   "geometry": {
    "type": "Point",
    "coordinates": [
     126.924453146527,
     37.5612968751451
    ]
   },
   "properties": {
    "pid": "15839099",
    "name": "연남동돼지구이백반 연남본점",
    "phone": "02-333-9921",
    "source": "연남동 - 홍대입구역 - 연남동 돼지구이 백반 - 돼지불고기 (직화)",
    "address": "서울 마포구 동교로 240",
    "website": "http://place.map.daum.net/15839099",
    "category": "돼지고기"
   }
  },
  {
   "type": "Feature",
   "geometry": {
    "type": "Point",
    "coordinates": [
     126.92851343278,
     37.5572809573151
    ]
   },
   "properties": {
    "pid": "24483990",
    "name": "완행식당",
    "phone": "02-3142-6677",
    "source": "동교동 - 홍대입구역 - 완행식당 - 돼지불고기 (직화)",
    "address": "서울 마포구 신촌로4길 11",
    "website": "http://place.map.daum.net/24483990",
    "category": "돼지고기"
   }
  },
  {
   "type": "Feature",
   "geometry": {
    "type": "Point",
    "coordinates": [
     126.918641809607,
     37.5555698809849
    ]
   },
   "properties": {
    "pid": "21236362",
    "name": "아우네돼지불백",
    "phone": "02-338-6232",
    "source": "서교동 - 홍대입구역 - 아우네돼지불백 - 돼지불고기 (직화)",
    "address": "서울 마포구 동교로 149",
    "website": "http://place.map.daum.net/21236362",
    "category": "돼지고기"
   }
  },
  {
   "type": "Feature",
   "geometry": {
    "type": "Point",
    "coordinates": [
     126.996073161052,
     37.5932954655988
    ]
   },
   "properties": {
    "pid": "10479275",
    "name": "성북동돼지갈비집",
    "phone": "02-764-2420",
    "source": "성북동 - 한성대역 - 성북동 돼지갈비 - 돼지불고기 (직화)",
    "address": "서울 성북구 성북로 115",
    "website": "http://place.map.daum.net/10479275",
    "category": "돼지고기"
   }
  },
  {
   "type": "Feature",
   "geometry": {
    "type": "Point",
    "coordinates": [
     126.99630889092057,
     37.587875786298724
    ]
   },
   "properties": {
    "pid": "20946359",
    "name": "명륜골빈대떡",
    "phone": "",
    "source": "명륜3가 - 혜화역 - 명륜골 - 돼지불고기 (직화)",
    "address": "서울 종로구 명륜길 5",
    "website": "http://place.map.daum.net/20946359",
    "category": "돼지고기"
   }
  },
  {
   "type": "Feature",
   "geometry": {
    "type": "Point",
    "coordinates": [
     126.979452165434,
     37.5722213075116
    ]
   },
   "properties": {
    "pid": "10190486",
    "name": "남도식당",
    "phone": "02-734-0719",
    "source": "청진동 - 광화문역 - 남도식당 - 돼지불고기 (직화)",
    "address": "서울 종로구 종로3길 42",
    "website": "http://place.map.daum.net/10190486",
    "category": "돼지고기"
   }
  },
  {
   "type": "Feature",
   "geometry": {
    "type": "Point",
    "coordinates": [
     127.00548309116995,
     37.5687343144211
    ]
   },
   "properties": {
    "pid": "25770170",
    "name": "경상도집",
    "phone": "02-2265-4714",
    "source": "을지로 6가 - 동대문역 - 경상도집 - 돼지불고기 (직화)",
    "address": "서울 중구 을지로39길 41",
    "website": "http://place.map.daum.net/25770170",
    "category": "돼지고기"
   }
  },
  {
   "type": "Feature",
   "geometry": {
    "type": "Point",
    "coordinates": [
     127.005899761353,
     37.5702335508403
    ]
   },
   "properties": {
    "pid": "15758579",
    "name": "송정식당",
    "phone": "",
    "source": "종로5가 - 동대문역 - 송정식당 - 돼지불고기 (직화)",
    "address": "서울 종로구 종로40가길 13",
    "website": "http://place.map.daum.net/15758579",
    "category": "돼지고기"
   }
  },
  {
   "type": "Feature",
   "geometry": {
    "type": "Point",
    "coordinates": [
     126.986068177378,
     37.5685822524516
    ]
   },
   "properties": {
    "pid": "8696442",
    "name": "황소고집",
    "phone": "02-722-5747",
    "source": "관철동 - 종각역 - 황소고집 - 돼지불고기 (직화)",
    "address": "서울 종로구 청계천로 75-1",
    "website": "http://place.map.daum.net/8696442",
    "category": "돼지고기"
   }
  },
  {
   "type": "Feature",
   "geometry": {
    "type": "Point",
    "coordinates": [
     127.036267933101,
     37.5796164912843
    ]
   },
   "properties": {
    "pid": "21232071",
    "name": "감초식당",
    "phone": "02-962-4570",
    "source": "제기동 - 제기동역 - 감초식당 - 돼지불고기 (직화)",
    "address": "서울 동대문구 약령서길 28",
    "website": "http://place.map.daum.net/21232071",
    "category": "돼지고기"
   }
  },
  {
   "type": "Feature",
   "geometry": {
    "type": "Point",
    "coordinates": [
     127.0203302881,
     37.5548068868251
    ]
   },
   "properties": {
    "pid": "12439273",
    "name": "금호불고기",
    "phone": "02-2294-5515",
    "source": "금호동 - 금호역 - 금호불고기 - 돼지불고기 (직화)",
    "address": "서울 성동구 행당로 1",
    "website": "http://place.map.daum.net/12439273",
    "category": "돼지고기"
   }
  },
  {
   "type": "Feature",
   "geometry": {
    "type": "Point",
    "coordinates": [
     127.06490972310596,
     37.537010657673
    ]
   },
   "properties": {
    "pid": "16327859",
    "name": "송림분식",
    "phone": "02-465-7075",
    "source": "자양동 - 건대입구역 - 송림식당 - 돼지불고기 (직화)",
    "address": "서울 광진구 뚝섬로23길 28",
    "website": "http://place.map.daum.net/16327859",
    "category": "돼지고기"
   }
  },
  {
   "type": "Feature",
   "geometry": {
    "type": "Point",
    "coordinates": [
     127.035210958556,
     37.5083009100846
    ]
   },
   "properties": {
    "pid": "25068039",
    "name": "꼬추장",
    "phone": "02-511-4467",
    "source": "논현동 - 언주역 - 꼬추장 - 돼지불고기 (직화)",
    "address": "서울 강남구 봉은사로29길 6-8",
    "website": "http://place.map.daum.net/25068039",
    "category": "돼지고기"
   }
  },
  {
   "type": "Feature",
   "geometry": {
    "type": "Point",
    "coordinates": [
     127.01640316967492,
     37.49541151201487
    ]
   },
   "properties": {
    "pid": "27345122",
    "name": "봄불고기",
    "phone": "02-592-6020",
    "source": "서초동 - 교대역 - 봄불고기 - 돼지불고기 (직화)",
    "address": "서울 서초구 서초중앙로24길 27",
    "website": "http://place.map.daum.net/27345122",
    "category": "돼지고기"
   }
  },
  {
   "type": "Feature",
   "geometry": {
    "type": "Point",
    "coordinates": [
     127.05156196102,
     37.503115926766
    ]
   },
   "properties": {
    "pid": "23182882",
    "name": "오징어풍경",
    "phone": "02-501-0392",
    "source": "대치동 - 선릉역 - 오징어풍경 - 돼지불고기 (직화)",
    "address": "서울 강남구 테헤란로64길 26",
    "website": "http://place.map.daum.net/23182882",
    "category": "돼지고기"
   }
  },
  {
   "type": "Feature",
   "geometry": {
    "type": "Point",
    "coordinates": [
     127.110362725994,
     37.5159383629321
    ]
   },
   "properties": {
    "pid": "26516506",
    "name": "연탄이야기",
    "phone": "02-401-7546",
    "source": "방이동 - 잠실역 - 연탄이야기 - 돼지불고기 (직화)",
    "address": "서울 송파구 오금로11길 29-16",
    "website": "http://place.map.daum.net/26516506",
    "category": "돼지고기"
   }
  },
  {
   "type": "Feature",
   "geometry": {
    "type": "Point",
    "coordinates": [
     127.132250184742,
     37.5479626740458
    ]
   },
   "properties": {
    "pid": "16678373",
    "name": "고추장구이",
    "phone": "02-473-9291",
    "source": "암사동 - 암사역 - 고추장구이 - 돼지불고기 (직화)",
    "address": "서울 강동구 상암로 86",
    "website": "http://place.map.daum.net/16678373",
    "category": "돼지고기"
   }
  },
  {
   "type": "Feature",
   "geometry": {
    "type": "Point",
    "coordinates": [
     126.930082942684,
     37.4860161923422
    ]
   },
   "properties": {
    "pid": "21231145",
    "name": "십원집 신림점",
    "phone": "02-877-1995",
    "source": "신림동 - 신림역 - 십원집 - 돼지불고기 (직화)",
    "address": "서울 관악구 신림로 354",
    "website": "http://place.map.daum.net/21231145",
    "category": "돼지고기"
   }
  },
  {
   "type": "Feature",
   "geometry": {
    "type": "Point",
    "coordinates": [
     127.030529307342,
     37.5213163121308
    ]
   },
   "properties": {
    "pid": "23824736",
    "name": "병철이네쪽갈비",
    "phone": "02-3445-5558",
    "source": "신사동 - 압구정역 - 병철이네쪽갈비 - 껍데기",
    "address": "서울 강남구 논현로152길 28",
    "website": "http://place.map.daum.net/23824736",
    "category": "돼지고기"
   }
  },
  {
   "type": "Feature",
   "geometry": {
    "type": "Point",
    "coordinates": [
     127.01115855765656,
     37.55319712564836
    ]
   },
   "properties": {
    "pid": "8039037",
    "name": "우성갈비",
    "phone": "02-2238-9257",
    "source": "신당동 - 약수역 - 우성갈비 - 껍데기",
    "address": "서울 중구 동호로7길 13",
    "website": "http://place.map.daum.net/8039037",
    "category": "돼지고기"
   }
  },
  {
   "type": "Feature",
   "geometry": {
    "type": "Point",
    "coordinates": [
     127.065753365877,
     37.5086518631613
    ]
   },
   "properties": {
    "pid": "27549929",
    "name": "초량돼지",
    "phone": "02-508-0012",
    "source": "대치동 - 삼성역 - 초량돼지 - 껍데기",
    "address": "서울 강남구 테헤란로108길 12",
    "website": "http://place.map.daum.net/27549929",
    "category": "돼지고기"
   }
  },
  {
   "type": "Feature",
   "geometry": {
    "type": "Point",
    "coordinates": [
     126.912497588029,
     37.5526931071528
    ]
   },
   "properties": {
    "pid": "15244525",
    "name": "서강껍데기 합정점",
    "phone": "02-337-5541",
    "source": "서교동 - 합정역 - 서강껍데기 - 껍데기",
    "address": "서울 마포구 월드컵로 36",
    "website": "http://place.map.daum.net/15244525",
    "category": "돼지고기"
   }
  },
  {
   "type": "Feature",
   "geometry": {
    "type": "Point",
    "coordinates": [
     126.917847555743,
     37.61923706619
    ]
   },
   "properties": {
    "pid": "16377009",
    "name": "돼지뽈살",
    "phone": "02-352-0528",
    "source": "갈현동 - 연신내역 - 돼지뽈살 - 껍데기",
    "address": "서울 은평구 연서로29길 21-2",
    "website": "http://place.map.daum.net/16377009",
    "category": "돼지고기"
   }
  },
  {
   "type": "Feature",
   "geometry": {
    "type": "Point",
    "coordinates": [
     126.902279999837,
     37.5566783136707
    ]
   },
   "properties": {
    "pid": "22705945",
    "name": "한강껍데기",
    "phone": "02-6083-3733",
    "source": "망원동 - 마포구청역 - 한강껍데기 - 껍데기",
    "address": "서울 마포구 망원로 48-1",
    "website": "http://place.map.daum.net/22705945",
    "category": "돼지고기"
   }
  },
  {
   "type": "Feature",
   "geometry": {
    "type": "Point",
    "coordinates": [
     126.958070546113,
     37.5491321120886
    ]
   },
   "properties": {
    "pid": "13272684",
    "name": "용마루굴다리껍데기",
    "phone": "02-3273-2001",
    "source": "도화동 - 공덕역 - 용마루굴다리껍데기 - 껍데기",
    "address": "서울 마포구 만리재옛길 64",
    "website": "http://place.map.daum.net/13272684",
    "category": "돼지고기"
   }
  },
  {
   "type": "Feature",
   "geometry": {
    "type": "Point",
    "coordinates": [
     127.077416954084,
     37.5572411779021
    ]
   },
   "properties": {
    "pid": "11887286",
    "name": "본전주먹구이 군자본점",
    "phone": "02-461-0687",
    "source": "군자동 - 군자역 - 본전주먹구이 - 껍데기",
    "address": "서울 광진구 능동로35길 32",
    "website": "http://place.map.daum.net/11887286",
    "category": "돼지고기"
   }
  },
  {
   "type": "Feature",
   "geometry": {
    "type": "Point",
    "coordinates": [
     127.050643421277,
     37.502799170161
    ]
   },
   "properties": {
    "pid": "20702726",
    "name": "돈그리아",
    "phone": "02-569-2141",
    "source": "대치동 - 선릉역 - 돈그리아 - 껍데기",
    "address": "서울 강남구 선릉로86길 6-5",
    "website": "http://place.map.daum.net/20702726",
    "category": "돼지고기"
   }
  },
  {
   "type": "Feature",
   "geometry": {
    "type": "Point",
    "coordinates": [
     127.057307900162,
     37.5691494063631
    ]
   },
   "properties": {
    "pid": "15597468",
    "name": "일광",
    "phone": "02-489-5055",
    "source": "답십리동 - 답십리역 - 일광 - 쪽갈비",
    "address": "서울 동대문구 전농로 48",
    "website": "http://place.map.daum.net/15597468",
    "category": "돼지고기"
   }
  },
  {
   "type": "Feature",
   "geometry": {
    "type": "Point",
    "coordinates": [
     126.98138682399,
     37.5673021932756
    ]
   },
   "properties": {
    "pid": "12518556",
    "name": "오는정",
    "phone": "02-756-1658",
    "source": "다동 - 을지로입구역 - 오는정 - 쪽갈비",
    "address": "서울 중구 을지로3길 29",
    "website": "http://place.map.daum.net/12518556",
    "category": "돼지고기"
   }
  },
  {
   "type": "Feature",
   "geometry": {
    "type": "Point",
    "coordinates": [
     126.981327941131,
     37.5673958875419
    ]
   },
   "properties": {
    "pid": "11165297",
    "name": "장안문",
    "phone": "02-755-0673",
    "source": "다동 - 을지로입구역 - 장안문 - 쪽갈비",
    "address": "서울 중구 을지로3길 29",
    "website": "http://place.map.daum.net/11165297",
    "category": "돼지고기"
   }
  },
  {
   "type": "Feature",
   "geometry": {
    "type": "Point",
    "coordinates": [
     126.866018910664,
     37.5489626326028
    ]
   },
   "properties": {
    "pid": "27493385",
    "name": "인생극장쪽갈비등촌점",
    "phone": "02-2299-3010",
    "source": "목동 - 등촌역 - 인생극장쪽갈비 - 쪽갈비",
    "address": "서울 양천구 목동중앙북로7가길 23",
    "website": "http://place.map.daum.net/27493385",
    "category": "돼지고기"
   }
  },
  {
   "type": "Feature",
   "geometry": {
    "type": "Point",
    "coordinates": [
     127.10883918367,
     37.5136692479871
    ]
   },
   "properties": {
    "pid": "24766491",
    "name": "쪽갤러리",
    "phone": "02-419-9345",
    "source": "방이동 - 방이역 - 쪽갤러리 - 쪽갈비",
    "address": "서울 송파구 올림픽로32길 22-13",
    "website": "http://place.map.daum.net/24766491",
    "category": "돼지고기"
   }
  },
  {
   "type": "Feature",
   "geometry": {
    "type": "Point",
    "coordinates": [
     127.07110996698333,
     37.54179684386683
    ]
   },
   "properties": {
    "pid": "16762871",
    "name": "청춘극장",
    "phone": "",
    "source": "자양동 - 건대입구역 - 청춘극장 - 쪽갈비",
    "address": "서울 광진구 능동로11길 3",
    "website": "http://place.map.daum.net/16762871",
    "category": "돼지고기"
   }
  },
  {
   "type": "Feature",
   "geometry": {
    "type": "Point",
    "coordinates": [
     126.84516940349,
     37.5447168594238
    ]
   },
   "properties": {
    "pid": "18950142",
    "name": "오아라쭈꾸미청춘상회 화곡점",
    "phone": "02-2692-9289",
    "source": "화곡동 - 화곡역 - 청춘상회 - 쪽갈비",
    "address": "서울 강서구 초록마을로 8",
    "website": "http://place.map.daum.net/18950142",
    "category": "돼지고기"
   }
  },
  {
   "type": "Feature",
   "geometry": {
    "type": "Point",
    "coordinates": [
     126.992102635095,
     37.5352062335188
    ]
   },
   "properties": {
    "pid": "26472271",
    "name": "쪽갈비제작소",
    "phone": "02-792-8368",
    "source": "이태원동 - 이태원역 - 쪽갈비제작소 - 쪽갈비",
    "address": "서울 용산구 이태원로27가길 54-8",
    "website": "http://place.map.daum.net/26472271",
    "category": "돼지고기"
   }
  },
  {
   "type": "Feature",
   "geometry": {
    "type": "Point",
    "coordinates": [
     127.126934544663,
     37.5363672434854
    ]
   },
   "properties": {
    "pid": "19567420",
    "name": "풍년상회쪽갈비",
    "phone": "02-478-0555",
    "source": "성내동 - 천호역 - 풍년상회 - 쪽갈비",
    "address": "서울 강동구 천호옛14길 23-6",
    "website": "http://place.map.daum.net/19567420",
    "category": "돼지고기"
   }
  },
  {
   "type": "Feature",
   "geometry": {
    "type": "Point",
    "coordinates": [
     127.126359656376,
     37.5362993840159
    ]
   },
   "properties": {
    "pid": "24829560",
    "name": "등갈비달인 천호본점",
    "phone": "02-6203-4638",
    "source": "성내동 - 천호역 - 등갈비달인 - 쪽갈비",
    "address": "서울 강동구 천호대로158길 25",
    "website": "http://place.map.daum.net/24829560",
    "category": "돼지고기"
   }
  },
  {
   "type": "Feature",
   "geometry": {
    "type": "Point",
    "coordinates": [
     127.063596363995,
     37.6163473444505
    ]
   },
   "properties": {
    "pid": "16442113",
    "name": "최대포소금구이",
    "phone": "02-912-1531",
    "source": "월계동 - 석계역 - 최대포 소금구이 - 정취 / 포시리즈",
    "address": "서울 노원구 석계로7길 14",
    "website": "http://place.map.daum.net/16442113",
    "category": "돼지고기"
   }
  },
  {
   "type": "Feature",
   "geometry": {
    "type": "Point",
    "coordinates": [
     126.970539313122,
     37.5424180321202
    ]
   },
   "properties": {
    "pid": "12101770",
    "name": "진대포",
    "phone": "02-717-0398",
    "source": "청파동 - 숙대입구역 - 진대포 - 정취 / 포시리즈",
    "address": "서울 용산구 청파로 255",
    "website": "http://place.map.daum.net/12101770",
    "category": "돼지고기"
   }
  },
  {
   "type": "Feature",
   "geometry": {
    "type": "Point",
    "coordinates": [
     126.970171434602,
     37.5455822495366
    ]
   },
   "properties": {
    "pid": "16766032",
    "name": "쌍대포 본점",
    "phone": "02-707-1380",
    "source": "청파동 - 숙대입구역 - 쌍대포 - 정취 / 포시리즈",
    "address": "서울 용산구 청파로 291",
    "website": "http://place.map.daum.net/16766032",
    "category": "돼지고기"
   }
  },
  {
   "type": "Feature",
   "geometry": {
    "type": "Point",
    "coordinates": [
     126.970156427433,
     37.5491646171673
    ]
   },
   "properties": {
    "pid": "10893324",
    "name": "포대포",
    "phone": "02-3272-9629",
    "source": "청파동 - 숙대입구역 - 포대포 - 정취 / 포시리즈",
    "address": "서울 용산구 청파로 332",
    "website": "http://place.map.daum.net/10893324",
    "category": "돼지고기"
   }
  },
  {
   "type": "Feature",
   "geometry": {
    "type": "Point",
    "coordinates": [
     126.951126977549,
     37.5419502816666
    ]
   },
   "properties": {
    "pid": "8079947",
    "name": "마포정대포 본점",
    "phone": "02-713-0710",
    "source": "도화동 - 공덕역 - 정대포 - 정취 / 포시리즈",
    "address": "서울 마포구 도화길 52",
    "website": "http://place.map.daum.net/8079947",
    "category": "돼지고기"
   }
  },
  {
   "type": "Feature",
   "geometry": {
    "type": "Point",
    "coordinates": [
     126.951946021911,
     37.5422353336816
    ]
   },
   "properties": {
    "pid": "7901997",
    "name": "본점최대포 1호점",
    "phone": "02-712-9242",
    "source": "도화동 - 공덕역 - 본점최대포 - 정취 / 포시리즈",
    "address": "서울 마포구 새창로 17",
    "website": "http://place.map.daum.net/7901997",
    "category": "돼지고기"
   }
  },
  {
   "type": "Feature",
   "geometry": {
    "type": "Point",
    "coordinates": [
     126.95185849357,
     37.5446175404484
    ]
   },
   "properties": {
    "pid": "14615423",
    "name": "마포진짜원조최대포 본점",
    "phone": "02-719-9292",
    "source": "공덕동 - 공덕역 - 마포진짜원조최대포 - 정취 / 포시리즈",
    "address": "서울 마포구 마포대로 112-4",
    "website": "http://place.map.daum.net/14615423",
    "category": "돼지고기"
   }
  },
  {
   "type": "Feature",
   "geometry": {
    "type": "Point",
    "coordinates": [
     127.018111039273,
     37.5129539527663
    ]
   },
   "properties": {
    "pid": "10775834",
    "name": "진성집 된장박이 삼겹살 신사본점",
    "phone": "02-547-7892",
    "source": "잠원동 - 신사역 - 진성집 - 된장삼겹",
    "address": "서울 서초구 신반포로47길 57",
    "website": "http://place.map.daum.net/10775834",
    "category": "돼지고기"
   }
  },
  {
   "type": "Feature",
   "geometry": {
    "type": "Point",
    "coordinates": [
     127.093664583388,
     37.5030179661552
    ]
   },
   "properties": {
    "pid": "7834910",
    "name": "도나우",
    "phone": "02-2202-3897",
    "source": "삼전동 - 신천역 - 도나우 - 양념고추장",
    "address": "서울 송파구 백제고분로 243",
    "website": "http://place.map.daum.net/7834910",
    "category": "돼지고기"
   }
  },
  {
   "type": "Feature",
   "geometry": {
    "type": "Point",
    "coordinates": [
     127.089901048327,
     37.5069889166344
    ]
   },
   "properties": {
    "pid": "11170449",
    "name": "장수식당",
    "phone": "02-415-4148",
    "source": "삼전동 - 신천역 - 장수식당 - 김치 삼겹",
    "address": "서울 송파구 삼전로 95",
    "website": "http://place.map.daum.net/11170449",
    "category": "돼지고기"
   }
  },
  {
   "type": "Feature",
   "geometry": {
    "type": "Point",
    "coordinates": [
     127.02229752451,
     37.5178150529298
    ]
   },
   "properties": {
    "pid": "25547542",
    "name": "베러댄비프",
    "phone": "02-3446-0400",
    "source": "신사동 - 신사역 - 베러댄비프 - 퓨전",
    "address": "서울 강남구 도산대로11길 5",
    "website": "http://place.map.daum.net/25547542",
    "category": "돼지고기"
   }
  },
  {
   "type": "Feature",
   "geometry": {
    "type": "Point",
    "coordinates": [
     126.961052059489,
     37.5345837904983
    ]
   },
   "properties": {
    "pid": "15942702",
    "name": "재래식소금구이홍돈",
    "phone": "02-706-0916",
    "source": "원효로 - 효창공원역 - 홍돈 - 훈제",
    "address": "서울 용산구 원효로48길 11-7",
    "website": "http://place.map.daum.net/15942702",
    "category": "돼지고기"
   }
  },
  {
   "type": "Feature",
   "geometry": {
    "type": "Point",
    "coordinates": [
     126.970104666408,
     37.5767531158103
    ]
   },
   "properties": {
    "pid": "26441783",
    "name": "효자바베",
    "phone": "070-8749-0019",
    "source": "체부동 - 경복궁역 - 효자바베 - BBQ",
    "address": "서울 종로구 자하문로1길 42",
    "website": "http://place.map.daum.net/26441783",
    "category": "돼지고기"
   }
  },
  {
   "type": "Feature",
   "geometry": {
    "type": "Point",
    "coordinates": [
     126.97722727281,
     37.5628325232794
    ]
   },
   "properties": {
    "pid": "17149624",
    "name": "남매집",
    "phone": "02-777-0735",
    "source": "북창동 - 시청역 - 남매집 - 동그랑땡",
    "address": "서울 중구 남대문로1길 41",
    "website": "http://place.map.daum.net/17149624",
    "category": "돼지고기"
   }
  },
  {
   "type": "Feature",
   "geometry": {
    "type": "Point",
    "coordinates": [
     126.977227282683,
     37.5628000874073
    ]
   },
   "properties": {
    "pid": "8395121",
    "name": "삼성빨간양념",
    "phone": "02-752-6449",
    "source": "북창동 - 시청역 - 삼성집 - 동그랑땡",
    "address": "서울 중구 남대문로1길 37",
    "website": "http://place.map.daum.net/8395121",
    "category": "돼지고기"
   }
  },
  {
   "type": "Feature",
   "geometry": {
    "type": "Point",
    "coordinates": [
     127.001399098192,
     37.5701796302441
    ]
   },
   "properties": {
    "pid": "10637760",
    "name": "오라이등심",
    "phone": "02-2279-8449",
    "source": "종로5가 - 종로 5가역 - 오라이등심 - 동그랑땡",
    "address": "서울 종로구 종로32길 23-5",
    "website": "http://place.map.daum.net/10637760",
    "category": "돼지고기"
   }
  },
  {
   "type": "Feature",
   "geometry": {
    "type": "Point",
    "coordinates": [
     126.989495912733,
     37.5668418833729
    ]
   },
   "properties": {
    "pid": "9387801",
    "name": "전주옥 을지로점",
    "phone": "02-2279-1710",
    "source": "수표동 - 을지로3가역 - 전주옥 - 물갈비",
    "address": "서울 중구 수표로 63",
    "website": "http://place.map.daum.net/9387801",
    "category": "돼지고기"
   }
  },
  {
   "type": "Feature",
   "geometry": {
    "type": "Point",
    "coordinates": [
     126.991460814642,
     37.5676024823336
    ]
   },
   "properties": {
    "pid": "10795503",
    "name": "전주집",
    "phone": "02-2279-1086",
    "source": "입정동 - 을지로3가역 - 전주집 - 냉동목살",
    "address": "서울 중구 충무로11길 18-8",
    "website": "http://place.map.daum.net/10795503",
    "category": "돼지고기"
   }
  },
  {
   "type": "Feature",
   "geometry": {
    "type": "Point",
    "coordinates": [
     126.99563564142,
     37.562200337277
    ]
   },
   "properties": {
    "pid": "10990242",
    "name": "호남식당",
    "phone": "02-2273-1348",
    "source": "충무로 - 충무로역 - 호남식당 - 물갈비",
    "address": "서울 중구 퇴계로41길 9",
    "website": "http://place.map.daum.net/10990242",
    "category": "돼지고기"
   }
  },
  {
   "type": "Feature",
   "geometry": {
    "type": "Point",
    "coordinates": [
     127.129305160945,
     37.5253652537238
    ]
   },
   "properties": {
    "pid": "16646274",
    "name": "유산전주물갈비",
    "phone": "02-408-8587",
    "source": "성내동 - 둔촌동역 - 전주물갈비 - 물갈비",
    "address": "서울 강동구 성안로 15",
    "website": "http://place.map.daum.net/16646274",
    "category": "돼지고기"
   }
  },
  {
   "type": "Feature",
   "geometry": {
    "type": "Point",
    "coordinates": [
     126.99159574015,
     37.535343150644
    ]
   },
   "properties": {
    "pid": "27374014",
    "name": "이경식당",
    "phone": "",
    "source": "이태원동 - 이태원역 - 이경식당 - 드라이에이징",
    "address": "서울 용산구 이태원로19길 21",
    "website": "http://place.map.daum.net/27374014",
    "category": "돼지고기"
   }
  },
  {
   "type": "Feature",
   "geometry": {
    "type": "Point",
    "coordinates": [
     127.01275968226,
     37.4920621310479
    ]
   },
   "properties": {
    "pid": "25770215",
    "name": "교대이층집 본점",
    "phone": "02-525-6692",
    "source": "서초동 - 교대역 - 교대이층집 - 꽃삼겹",
    "address": "서울 서초구 서초대로50길 24",
    "website": "http://place.map.daum.net/25770215",
    "category": "돼지고기"
   }
  },
  {
   "type": "Feature",
   "geometry": {
    "type": "Point",
    "coordinates": [
     126.921519275899,
     37.552843607872
    ]
   },
   "properties": {
    "pid": "27197478",
    "name": "고기꾼김춘배",
    "phone": "",
    "source": "서교동 - 홍대입구역 - 고기꾼김춘배",
    "address": "서울 마포구 홍익로3길 36",
    "website": "http://place.map.daum.net/27197478",
    "category": "돼지고기"
   }
  },
  {
   "type": "Feature",
   "geometry": {
    "type": "Point",
    "coordinates": [
     126.922420309129,
     37.5526459837953
    ]
   },
   "properties": {
    "pid": "20995664",
    "name": "오십그램",
    "phone": "02-3144-6750",
    "source": "서교동 - 홍대입구역 - 50그램",
    "address": "서울 마포구 와우산로21길 28-8",
    "website": "http://place.map.daum.net/20995664",
    "category": "돼지고기"
   }
  },
  {
   "type": "Feature",
   "geometry": {
    "type": "Point",
    "coordinates": [
     126.973206593656,
     37.5764907702421
    ]
   },
   "properties": {
    "pid": "16064474",
    "name": "효자동소금구이",
    "phone": "02-735-1347",
    "source": "적선동 - 경복궁역 - 효자동소금구이",
    "address": "서울 종로구 사직로 133-9",
    "website": "http://place.map.daum.net/16064474",
    "category": "돼지고기"
   }
  },
  {
   "type": "Feature",
   "geometry": {
    "type": "Point",
    "coordinates": [
     127.040158571743,
     37.5219477365449
    ]
   },
   "properties": {
    "pid": "11257354",
    "name": "현대정육식당",
    "phone": "02-540-7205",
    "source": "청담동 - 강남구청역 - 현대정육식당",
    "address": "서울 강남구 선릉로146길 5",
    "website": "http://place.map.daum.net/11257354",
    "category": "돼지고기"
   }
  },
  {
   "type": "Feature",
   "geometry": {
    "type": "Point",
    "coordinates": [
     126.896317898977,
     37.5174761215575
    ]
   },
   "properties": {
    "pid": "27220746",
    "name": "월화고기 문래동본점",
    "phone": "02-2671-7592",
    "source": "문래동 - 문래역 - 월화고기",
    "address": "서울 영등포구 당산로 34",
    "website": "http://place.map.daum.net/27220746",
    "category": "돼지고기"
   }
  },
  {
   "type": "Feature",
   "geometry": {
    "type": "Point",
    "coordinates": [
     126.997159238998,
     37.498672572072
    ]
   },
   "properties": {
    "pid": "22513264",
    "name": "서래통",
    "phone": "02-535-3789",
    "source": "반포동 - 고속터미널역 - 서래통",
    "address": "서울 서초구 서래로7길 19",
    "website": "http://place.map.daum.net/22513264",
    "category": "돼지고기"
   }
  },
  {
   "type": "Feature",
   "geometry": {
    "type": "Point",
    "coordinates": [
     127.030735685648,
     37.4949420446687
    ]
   },
   "properties": {
    "pid": "27347288",
    "name": "제주몬트락 강남본점",
    "phone": "02-555-3391",
    "source": "역삼동 - 강남역 - 제주몬트락",
    "address": "서울 강남구 강남대로78길 16",
    "website": "http://place.map.daum.net/27347288",
    "category": "돼지고기"
   }
  },
  {
   "type": "Feature",
   "geometry": {
    "type": "Point",
    "coordinates": [
     127.036378409568,
     37.5181106885105
    ]
   },
   "properties": {
    "pid": "13294737",
    "name": "해몽",
    "phone": "02-515-6080",
    "source": "논현동 - 논현역 - 해몽",
    "address": "서울 강남구 학동로41길 32",
    "website": "http://place.map.daum.net/13294737",
    "category": "돼지고기"
   }
  },
  {
   "type": "Feature",
   "geometry": {
    "type": "Point",
    "coordinates": [
     127.027395485093,
     37.5017941187317
    ]
   },
   "properties": {
    "pid": "7912852",
    "name": "봉우화로 강남본점",
    "phone": "02-558-8452",
    "source": "역삼동 - 강남역 - 봉우화로",
    "address": "서울 강남구 봉은사로18길 76",
    "website": "http://place.map.daum.net/7912852",
    "category": "돼지고기"
   }
  },
  {
   "type": "Feature",
   "geometry": {
    "type": "Point",
    "coordinates": [
     127.02519767387064,
     37.50052238760927
    ]
   },
   "properties": {
    "pid": "12997393",
    "name": "칼맞은삼겹살 강남본점",
    "phone": "02-533-7732",
    "source": "서초동 - 강남역 - 칼맞은삼겹살",
    "address": "서울 서초구 서초대로75길 34",
    "website": "http://place.map.daum.net/12997393",
    "category": "돼지고기"
   }
  },
  {
   "type": "Feature",
   "geometry": {
    "type": "Point",
    "coordinates": [
     127.017375880874,
     37.542438448704
    ]
   },
   "properties": {
    "pid": "16057680",
    "name": "일품생고기",
    "phone": "02-2295-6566",
    "source": "옥수동 - 옥수역 - 일품생고기",
    "address": "서울 성동구 독서당로40길 29",
    "website": "http://place.map.daum.net/16057680",
    "category": "돼지고기"
   }
  },
  {
   "type": "Feature",
   "geometry": {
    "type": "Point",
    "coordinates": [
     127.051423812303,
     37.5852330609161
    ]
   },
   "properties": {
    "pid": "22115796",
    "name": "퐈이야",
    "phone": "02-960-1541",
    "source": "전농동 - 청량리역 - 퐈이야",
    "address": "서울 동대문구 왕산로 278",
    "website": "http://place.map.daum.net/22115796",
    "category": "돼지고기"
   }
  },
  {
   "type": "Feature",
   "geometry": {
    "type": "Point",
    "coordinates": [
     126.92487874285696,
     37.52517788629538
    ]
   },
   "properties": {
    "pid": "658025674",
    "name": "삼거리푸줏간 IFC점",
    "phone": "02-6137-3033",
    "source": "상수동 - 상수역 - 삼거리푸줏간",
    "address": "서울 영등포구 국제금융로 10",
    "website": "http://place.map.daum.net/658025674",
    "category": "돼지고기"
   }
  },
  {
   "type": "Feature",
   "geometry": {
    "type": "Point",
    "coordinates": [
     126.921152535888,
     37.5572077953762
    ]
   },
   "properties": {
    "pid": "26940521",
    "name": "쌈도적",
    "phone": "02-305-8620",
    "source": "서교동 - 홍대입구역 - 도적",
    "address": "서울 마포구 동교로 181-11",
    "website": "http://place.map.daum.net/26940521",
    "category": "돼지고기"
   }
  },
  {
   "type": "Feature",
   "geometry": {
    "type": "Point",
    "coordinates": [
     127.055520043592,
     37.5211450280646
    ]
   },
   "properties": {
    "pid": "25889861",
    "name": "제주탐돈가 청담점",
    "phone": "02-512-3392",
    "source": "청담동 - 강남구청역 - 청담돈가",
    "address": "서울 강남구 학동로97길 20",
    "website": "http://place.map.daum.net/25889861",
    "category": "돼지고기"
   }
  },
  {
   "type": "Feature",
   "geometry": {
    "type": "Point",
    "coordinates": [
     127.01865147639161,
     37.59379140473443
    ]
   },
   "properties": {
    "pid": "26869649",
    "name": "김통",
    "phone": "02-921-4007",
    "source": "동선동 - 성신여대입구역 - 김통",
    "address": "서울 성북구 동소문로 124",
    "website": "http://place.map.daum.net/26869649",
    "category": "돼지고기"
   }
  },
  {
   "type": "Feature",
   "geometry": {
    "type": "Point",
    "coordinates": [
     127.032497376312,
     37.5624518285236
    ]
   },
   "properties": {
    "pid": "15882142",
    "name": "59년똥돼지",
    "phone": "02-2298-3373",
    "source": "하왕십리동 - 상왕십리역 - 59년 똥돼지",
    "address": "서울 성동구 무학봉28길 3",
    "website": "http://place.map.daum.net/15882142",
    "category": "돼지고기"
   }
  },
  {
   "type": "Feature",
   "geometry": {
    "type": "Point",
    "coordinates": [
     126.93020475686691,
     37.48390763475858
    ]
   },
   "properties": {
    "pid": "2102669765",
    "name": "도쿄스테이크 신림포도몰점",
    "phone": "02-881-8380",
    "source": "신사동 - 압구정로데오역 - 포도식당",
    "address": "서울 관악구 신림로 330",
    "website": "http://place.map.daum.net/2102669765",
    "category": "돼지고기"
   }
  },
  {
   "type": "Feature",
   "geometry": {
    "type": "Point",
    "coordinates": [
     126.890628882718,
     37.5773981991648
    ]
   },
   "properties": {
    "pid": "16050757",
    "name": "예쁜돼지 상암점",
    "phone": "02-6393-6373",
    "source": "상암동 - 디지털미디어시티역 - 예쁜돼지",
    "address": "서울 마포구 월드컵북로 375",
    "website": "http://place.map.daum.net/16050757",
    "category": "돼지고기"
   }
  },
  {
   "type": "Feature",
   "geometry": {
    "type": "Point",
    "coordinates": [
     126.893512755823,
     37.4759696753307
    ]
   },
   "properties": {
    "pid": "15299012",
    "name": "상상돼지",
    "phone": "02-861-4564",
    "source": "가산동 - 가산디지털단지역 - 상상돼지",
    "address": "서울 금천구 시흥대로153길 95",
    "website": "http://place.map.daum.net/15299012",
    "category": "돼지고기"
   }
  },
  {
   "type": "Feature",
   "geometry": {
    "type": "Point",
    "coordinates": [
     127.081599465365,
     37.5111143355683
    ]
   },
   "properties": {
    "pid": "10455826",
    "name": "불타는삼겹살 신천본점",
    "phone": "02-423-3876",
    "source": "신천역 - 잠실동 - 불타는 삼겹살",
    "address": "서울 송파구 올림픽로12길 4-23",
    "website": "http://place.map.daum.net/10455826",
    "category": "돼지고기"
   }
  },
  {
   "type": "Feature",
   "geometry": {
    "type": "Point",
    "coordinates": [
     127.036767203651,
     37.5266628853153
    ]
   },
   "properties": {
    "pid": "17731989",
    "name": "우돈청",
    "phone": "02-544-5055",
    "source": "신사동 - 압구정로데오역 - 우돈청",
    "address": "서울 강남구 언주로170길 37",
    "website": "http://place.map.daum.net/17731989",
    "category": "돼지고기"
   }
  },
  {
   "type": "Feature",
   "geometry": {
    "type": "Point",
    "coordinates": [
     126.982837082227,
     37.5611576183085
    ]
   },
   "properties": {
    "pid": "21748255",
    "name": "육통령 명동본점",
    "phone": "02-778-8592",
    "source": "명동 - 명동역 - 육통령",
    "address": "서울 중구 명동8나길 37-2",
    "website": "http://place.map.daum.net/21748255",
    "category": "돼지고기"
   }
  },
  {
   "type": "Feature",
   "geometry": {
    "type": "Point",
    "coordinates": [
     127.046303086356,
     37.6530435241878
    ]
   },
   "properties": {
    "pid": "24926496",
    "name": "덩어리 창동점",
    "phone": "02-993-0522",
    "source": "창동 - 창동역 - 덩어리",
    "address": "서울 도봉구 노해로63길 79",
    "website": "http://place.map.daum.net/24926496",
    "category": "돼지고기"
   }
  },
  {
   "type": "Feature",
   "geometry": {
    "type": "Point",
    "coordinates": [
     127.110371350449,
     37.5095051881408
    ]
   },
   "properties": {
    "pid": "11554112",
    "name": "큰손흑돼지",
    "phone": "02-420-5524",
    "source": "송파동 - 석촌역 - 큰손제주흑돼지",
    "address": "서울 송파구 백제고분로45길 10",
    "website": "http://place.map.daum.net/11554112",
    "category": "돼지고기"
   }
  },
  {
   "type": "Feature",
   "geometry": {
    "type": "Point",
    "coordinates": [
     127.10938595246,
     37.5132002210091
    ]
   },
   "properties": {
    "pid": "20527500",
    "name": "제주오겹살왕돌구이집 방이동본점",
    "phone": "02-423-0333",
    "source": "방이동 - 잠실역 - 제주오겹살왕돌구이",
    "address": "서울 송파구 오금로15길 9-12",
    "website": "http://place.map.daum.net/20527500",
    "category": "돼지고기"
   }
  },
  {
   "type": "Feature",
   "geometry": {
    "type": "Point",
    "coordinates": [
     127.026252382736,
     37.5057696146623
    ]
   },
   "properties": {
    "pid": "26983846",
    "name": "장남식당",
    "phone": "02-511-8392",
    "source": "논현동 - 신논현역 - 장남식당",
    "address": "서울 강남구 봉은사로5길 10",
    "website": "http://place.map.daum.net/26983846",
    "category": "돼지고기"
   }
  },
  {
   "type": "Feature",
   "geometry": {
    "type": "Point",
    "coordinates": [
     126.92212190982788,
     37.54794257666435
    ]
   },
   "properties": {
    "pid": "24245433",
    "name": "고고갈비 홍대상수점",
    "phone": "02-6219-9090",
    "source": "상수동 - 홍대입구역 - 고고갈비",
    "address": "서울 마포구 독막로 77",
    "website": "http://place.map.daum.net/24245433",
    "category": "돼지고기"
   }
  },
  {
   "type": "Feature",
   "geometry": {
    "type": "Point",
    "coordinates": [
     127.02576058005,
     37.6410198655684
    ]
   },
   "properties": {
    "pid": "7932820",
    "name": "삼천포",
    "phone": "02-998-3447",
    "source": "수유동 - 수유역 - 삼천포식당",
    "address": "서울 강북구 한천로 1052",
    "website": "http://place.map.daum.net/7932820",
    "category": "돼지고기"
   }
  },
  {
   "type": "Feature",
   "geometry": {
    "type": "Point",
    "coordinates": [
     127.035024682281,
     37.6612715759054
    ]
   },
   "properties": {
    "pid": "16325761",
    "name": "삼성숯불갈비",
    "phone": "02-3491-2685",
    "source": "방학동 - 방학역 - 삼성숯불갈비",
    "address": "서울 도봉구 도당로 36",
    "website": "http://place.map.daum.net/16325761",
    "category": "돼지고기"
   }
  }
 ]
}