{
 "type": "FeatureCollection",
 "features": [
  {
   "type": "Feature",
   "geometry": {
    "type": "Point",
    "coordinates": [
     126.835777548855,
     37.5487622664737
    ]
   },
   "properties": {
    "pid": "17419322",
    "name": "경상도집",
    "phone": "02-2607-5112",
    "source": "내발산동 - 우장산역 - 경상도집",
    "address": "서울 강서구 강서로45나길 16",
    "website": "http://place.map.daum.net/17419322",
    "category": "돼지갈비"
   }
  },
  {
   "type": "Feature",
   "geometry": {
    "type": "Point",
    "coordinates": [
     126.9777425369,
     37.6113420731628
    ]
   },
   "properties": {
    "pid": "17421008",
    "name": "북악정",
    "phone": "02-394-2340",
    "source": "평창동 - 홍제역 - 북악정",
    "address": "서울 종로구 평창36길 6",
    "website": "http://place.map.daum.net/17421008",
    "category": "돼지갈비"
   }
  },
  {
   "type": "Feature",
   "geometry": {
    "type": "Point",
    "coordinates": [
     126.9159699867611,
     37.56935305429198
    ]
   },
   "properties": {
    "pid": "23994581",
    "name": "전통모래내갈비 별관",
    "phone": "",
    "source": "남가좌동 - 가좌역 - 모래내갈비",
    "address": "서울 서대문구 수색로2길 11",
    "website": "http://place.map.daum.net/23994581",
    "category": "돼지갈비"
   }
  },
  {
   "type": "Feature",
   "geometry": {
    "type": "Point",
    "coordinates": [
     126.916281488646,
     37.5693030190091
    ]
   },
   "properties": {
    "pid": "11666710",
    "name": "소문난갈비",
    "phone": "02-373-9292",
    "source": "남가좌동 - 가좌역 - 소문난갈비집",
    "address": "서울 서대문구 수색로2길 10",
    "website": "http://place.map.daum.net/11666710",
    "category": "돼지갈비"
   }
  },
  {
   "type": "Feature",
   "geometry": {
    "type": "Point",
    "coordinates": [
     126.903136812067,
     37.569732651542
    ]
   },
   "properties": {
    "pid": "16044741",
    "name": "성산왕갈비",
    "phone": "02-306-2001",
    "source": "성산동 - 월드컵경기장역 - 성산왕갈비",
    "address": "서울 마포구 월드컵북로 233",
    "website": "http://place.map.daum.net/16044741",
    "category": "돼지갈비"
   }
  },
  {
   "type": "Feature",
   "geometry": {
    "type": "Point",
    "coordinates": [
     126.92212190982788,
     37.54794257666435
    ]
   },
   "properties": {
    "pid": "24245433",
    "name": "고고갈비 홍대상수점",
    "phone": "02-6219-9090",
    "source": "상수동 - 홍대입구역 - 고고갈비",
    "address": "서울 마포구 독막로 77",
    "website": "http://place.map.daum.net/24245433",
    "category": "돼지갈비"
   }
  },
  {
   "type": "Feature",
   "geometry": {
    "type": "Point",
    "coordinates": [
     126.934379303691,
     37.5586250468317
    ]
   },
   "properties": {
    "pid": "13586409",
    "name": "쌍판댁",
    "phone": "02-334-5392",
    "source": "창천동 - 신촌역 - 쌍판댁",
    "address": "서울 서대문구 연세로9길 43",
    "website": "http://place.map.daum.net/13586409",
    "category": "돼지갈비"
   }
  },
  {
   "type": "Feature",
   "geometry": {
    "type": "Point",
    "coordinates": [
     126.934924586377,
     37.556293567912
    ]
   },
   "properties": {
    "pid": "13323880",
    "name": "통큰갈비 신촌본점",
    "phone": "02-3141-1397",
    "source": "창천동 - 신촌역 - 통큰갈비",
    "address": "서울 서대문구 연세로5다길 9",
    "website": "http://place.map.daum.net/13323880",
    "category": "돼지갈비"
   }
  },
  {
   "type": "Feature",
   "geometry": {
    "type": "Point",
    "coordinates": [
     126.937326844647,
     37.5581689417276
    ]
   },
   "properties": {
    "pid": "23297993",
    "name": "고바우",
    "phone": "02-393-2576",
    "source": "창천동 - 신촌역 - 고바우",
    "address": "서울 서대문구 명물1길 16",
    "website": "http://place.map.daum.net/23297993",
    "category": "돼지갈비"
   }
  },
  {
   "type": "Feature",
   "geometry": {
    "type": "Point",
    "coordinates": [
     126.8892210781395,
     37.51666147888489
    ]
   },
   "properties": {
    "pid": "9149745",
    "name": "송원마포돼지갈비",
    "phone": "02-2678-2978",
    "source": "문래동 - 문래역 - 송원돼지갈비",
    "address": "서울 영등포구 도림로147길 2-1",
    "website": "http://place.map.daum.net/9149745",
    "category": "돼지갈비"
   }
  },
  {
   "type": "Feature",
   "geometry": {
    "type": "Point",
    "coordinates": [
     126.99563564142,
     37.562200337277
    ]
   },
   "properties": {
    "pid": "10990242",
    "name": "호남식당",
    "phone": "02-2273-1348",
    "source": "충무로 4가 - 충무로역 - 호남식당",
    "address": "서울 중구 퇴계로41길 9",
    "website": "http://place.map.daum.net/10990242",
    "category": "돼지갈비"
   }
  },
  {
   "type": "Feature",
   "geometry": {
    "type": "Point",
    "coordinates": [
     126.992674696707,
     37.5628380962607
    ]
   },
   "properties": {
    "pid": "8588960",
    "name": "충무로돼지갈비",
    "phone": "02-2272-6428",
    "source": "충무로 3가 - 충무로역 - 충무로돼지갈비",
    "address": "서울 중구 수표로6길 39",
    "website": "http://place.map.daum.net/8588960",
    "category": "돼지갈비"
   }
  },
  {
   "type": "Feature",
   "geometry": {
    "type": "Point",
    "coordinates": [
     126.991764806883,
     37.5618036922137
    ]
   },
   "properties": {
    "pid": "10365977",
    "name": "뚱보돼지갈비통고기",
    "phone": "02-2267-1801",
    "source": "필동 - 충무로역 - 뚱보돼지갈비",
    "address": "서울 중구 퇴계로27길 14",
    "website": "http://place.map.daum.net/10365977",
    "category": "돼지갈비"
   }
  },
  {
   "type": "Feature",
   "geometry": {
    "type": "Point",
    "coordinates": [
     126.989495912733,
     37.5668418833729
    ]
   },
   "properties": {
    "pid": "9387801",
    "name": "전주옥 을지로점",
    "phone": "02-2279-1710",
    "source": "을지로3가 - 을지로3가역 - 전주옥",
    "address": "서울 중구 수표로 63",
    "website": "http://place.map.daum.net/9387801",
    "category": "돼지갈비"
   }
  },
  {
   "type": "Feature",
   "geometry": {
    "type": "Point",
    "coordinates": [
     126.993380571526,
     37.5673214948889
    ]
   },
   "properties": {
    "pid": "25732495",
    "name": "안성집",
    "phone": "02-2279-4522",
    "source": "을지로3가 - 을지로3가역 - 안성집",
    "address": "서울 중구 을지로15길 19",
    "website": "http://place.map.daum.net/25732495",
    "category": "돼지갈비"
   }
  },
  {
   "type": "Feature",
   "geometry": {
    "type": "Point",
    "coordinates": [
     127.00548309116995,
     37.5687343144211
    ]
   },
   "properties": {
    "pid": "25770170",
    "name": "경상도집",
    "phone": "02-2265-4714",
    "source": "을지로6가 - 동대문역 - 경상도집",
    "address": "서울 중구 을지로39길 41",
    "website": "http://place.map.daum.net/25770170",
    "category": "돼지갈비"
   }
  },
  {
   "type": "Feature",
   "geometry": {
    "type": "Point",
    "coordinates": [
     127.01115855765656,
     37.55319712564836
    ]
   },
   "properties": {
    "pid": "8039037",
    "name": "우성갈비",
    "phone": "02-2238-9257",
    "source": "신당동 - 약수역 - 우성갈비",
    "address": "서울 중구 동호로7길 13",
    "website": "http://place.map.daum.net/8039037",
    "category": "돼지갈비"
   }
  },
  {
   "type": "Feature",
   "geometry": {
    "type": "Point",
    "coordinates": [
     127.036267933101,
     37.5796164912843
    ]
   },
   "properties": {
    "pid": "21232071",
    "name": "감초식당",
    "phone": "02-962-4570",
    "source": "제기동 - 제기동역 - 감초식당",
    "address": "서울 동대문구 약령서길 28",
    "website": "http://place.map.daum.net/21232071",
    "category": "돼지갈비"
   }
  },
  {
   "type": "Feature",
   "geometry": {
    "type": "Point",
    "coordinates": [
     127.055500817698,
     37.6720826928714
    ]
   },
   "properties": {
    "pid": "21413276",
    "name": "배밭고을",
    "phone": "02-938-9500",
    "source": "상계동 - 수락산역 - 배밭고을",
    "address": "서울 노원구 동일로 1611",
    "website": "http://place.map.daum.net/21413276",
    "category": "돼지갈비"
   }
  },
  {
   "type": "Feature",
   "geometry": {
    "type": "Point",
    "coordinates": [
     127.03521496429,
     37.6514219822975
    ]
   },
   "properties": {
    "pid": "8157527",
    "name": "감포면옥",
    "phone": "02-992-5202",
    "source": "쌍문동 - 쌍문역 - 감포면옥",
    "address": "서울 도봉구 노해로 243",
    "website": "http://place.map.daum.net/8157527",
    "category": "돼지갈비"
   }
  },
  {
   "type": "Feature",
   "geometry": {
    "type": "Point",
    "coordinates": [
     127.027843050617,
     37.6348422393686
    ]
   },
   "properties": {
    "pid": "19777856",
    "name": "산성골",
    "phone": "02-989-7341",
    "source": "번동 - 수유역 - 산성골숯불화로구이",
    "address": "서울 강북구 덕릉로 126",
    "website": "http://place.map.daum.net/19777856",
    "category": "돼지갈비"
   }
  },
  {
   "type": "Feature",
   "geometry": {
    "type": "Point",
    "coordinates": [
     127.024713060726,
     37.639210912431
    ]
   },
   "properties": {
    "pid": "19360766",
    "name": "유리갈비",
    "phone": "02-904-8804",
    "source": "수유동 - 수유역 - 유리갈비",
    "address": "서울 강북구 도봉로87길 26-19",
    "website": "http://place.map.daum.net/19360766",
    "category": "돼지갈비"
   }
  },
  {
   "type": "Feature",
   "geometry": {
    "type": "Point",
    "coordinates": [
     126.967320528173,
     37.5647439130022
    ]
   },
   "properties": {
    "pid": "11143903",
    "name": "서대문원조통술집",
    "phone": "02-362-3048",
    "source": "미근동 - 충정로역 - 통술집",
    "address": "서울 서대문구 통일로 107-4",
    "website": "http://place.map.daum.net/11143903",
    "category": "돼지갈비"
   }
  },
  {
   "type": "Feature",
   "geometry": {
    "type": "Point",
    "coordinates": [
     127.03187916012,
     37.5672200688154
    ]
   },
   "properties": {
    "pid": "11224889",
    "name": "특우정",
    "phone": "02-2293-7575",
    "source": "홍익동 - 왕십리역 - 특우정",
    "address": "서울 성동구 무학로12길 13",
    "website": "http://place.map.daum.net/11224889",
    "category": "돼지갈비"
   }
  },
  {
   "type": "Feature",
   "geometry": {
    "type": "Point",
    "coordinates": [
     127.044087398228,
     37.5470590290817
    ]
   },
   "properties": {
    "pid": "12055448",
    "name": "대성참숯갈비",
    "phone": "02-464-3012",
    "source": "성수동 - 뚝섬역 - 대성갈비",
    "address": "서울 성동구 서울숲4길 27",
    "website": "http://place.map.daum.net/12055448",
    "category": "돼지갈비"
   }
  },
  {
   "type": "Feature",
   "geometry": {
    "type": "Point",
    "coordinates": [
     127.044268536244,
     37.5471959131373
    ]
   },
   "properties": {
    "pid": "11486949",
    "name": "수원원조갈비",
    "phone": "02-463-6975",
    "source": "성수동 - 뚝섬역 - 수원갈비",
    "address": "서울 성동구 왕십리로5길 12-2",
    "website": "http://place.map.daum.net/11486949",
    "category": "돼지갈비"
   }
  },
  {
   "type": "Feature",
   "geometry": {
    "type": "Point",
    "coordinates": [
     127.04431825874,
     37.5470805666336
    ]
   },
   "properties": {
    "pid": "13064422",
    "name": "늘봄숯불갈비",
    "phone": "02-497-0301",
    "source": "성수동 - 뚝섬역 - 늘봄숯불갈비",
    "address": "서울 성동구 왕십리로5길 12",
    "website": "http://place.map.daum.net/13064422",
    "category": "돼지갈비"
   }
  },
  {
   "type": "Feature",
   "geometry": {
    "type": "Point",
    "coordinates": [
     126.958070546113,
     37.5491321120886
    ]
   },
   "properties": {
    "pid": "13272684",
    "name": "용마루굴다리껍데기",
    "phone": "02-3273-2001",
    "source": "공덕동 - 에오개역 - 용마루굴다리껍데기",
    "address": "서울 마포구 만리재옛길 64",
    "website": "http://place.map.daum.net/13272684",
    "category": "돼지갈비"
   }
  },
  {
   "type": "Feature",
   "geometry": {
    "type": "Point",
    "coordinates": [
     126.94448834078,
     37.5403615880007
    ]
   },
   "properties": {
    "pid": "12447398",
    "name": "석양집",
    "phone": "02-716-6847",
    "source": "용강동 - 마포역 - 석양집",
    "address": "서울 마포구 토정로35길 12",
    "website": "http://place.map.daum.net/12447398",
    "category": "돼지갈비"
   }
  },
  {
   "type": "Feature",
   "geometry": {
    "type": "Point",
    "coordinates": [
     126.95185849357,
     37.5446175404484
    ]
   },
   "properties": {
    "pid": "14615423",
    "name": "마포진짜원조최대포 본점",
    "phone": "02-719-9292",
    "source": "공덕동 - 공덕역 - 마포진짜원조최대포",
    "address": "서울 마포구 마포대로 112-4",
    "website": "http://place.map.daum.net/14615423",
    "category": "돼지갈비"
   }
  },
  {
   "type": "Feature",
   "geometry": {
    "type": "Point",
    "coordinates": [
     126.950683377777,
     37.5420113652137
    ]
   },
   "properties": {
    "pid": "8742927",
    "name": "고바우",
    "phone": "02-712-7515",
    "source": "도화동 - 마포역 - 고바우",
    "address": "서울 마포구 새창로 8-3",
    "website": "http://place.map.daum.net/8742927",
    "category": "돼지갈비"
   }
  },
  {
   "type": "Feature",
   "geometry": {
    "type": "Point",
    "coordinates": [
     126.943913838594,
     37.5399576685965
    ]
   },
   "properties": {
    "pid": "20526340",
    "name": "원조조박집 본관",
    "phone": "02-712-7462",
    "source": "용강동 - 마포역 - 조박집",
    "address": "서울 마포구 토정로 313-1",
    "website": "http://place.map.daum.net/20526340",
    "category": "돼지갈비"
   }
  },
  {
   "type": "Feature",
   "geometry": {
    "type": "Point",
    "coordinates": [
     126.943948135208,
     37.5122716948155
    ]
   },
   "properties": {
    "pid": "16476498",
    "name": "연탄집",
    "phone": "02-813-9288",
    "source": "노량진동 - 노량진역 - 연탄집",
    "address": "서울 동작구 노량진로16길 30",
    "website": "http://place.map.daum.net/16476498",
    "category": "돼지갈비"
   }
  },
  {
   "type": "Feature",
   "geometry": {
    "type": "Point",
    "coordinates": [
     126.885441455345,
     37.4873544765841
    ]
   },
   "properties": {
    "pid": "31814234",
    "name": "55년전통일번옥",
    "phone": "02-854-2092",
    "source": "구로동 - 남구로역 - 일번옥",
    "address": "서울 구로구 구로동로 96-2",
    "website": "http://place.map.daum.net/31814234",
    "category": "돼지갈비"
   }
  },
  {
   "type": "Feature",
   "geometry": {
    "type": "Point",
    "coordinates": [
     126.954110684807,
     37.481205770315
    ]
   },
   "properties": {
    "pid": "16559772",
    "name": "돈뼈락연탄갈비",
    "phone": "02-887-5579",
    "source": "봉천동 - 서울대입구역 - 돈뼈락연탄갈비",
    "address": "서울 관악구 남부순환로 1835-26",
    "website": "http://place.map.daum.net/16559772",
    "category": "돼지갈비"
   }
  },
  {
   "type": "Feature",
   "geometry": {
    "type": "Point",
    "coordinates": [
     126.983625030795,
     37.4774112878723
    ]
   },
   "properties": {
    "pid": "17757712",
    "name": "굴뚝집 사당본점",
    "phone": "02-521-4069",
    "source": "방배동 - 사당역 - 굴뚝집",
    "address": "서울 서초구 방배천로2안길 7",
    "website": "http://place.map.daum.net/17757712",
    "category": "돼지갈비"
   }
  },
  {
   "type": "Feature",
   "geometry": {
    "type": "Point",
    "coordinates": [
     127.01318035264788,
     37.492184621861135
    ]
   },
   "properties": {
    "pid": "26878761",
    "name": "교대갈비집",
    "phone": "02-587-6692",
    "source": "서초동 - 교대역 - 교대갈비집",
    "address": "서울 서초구 반포대로28길 91",
    "website": "http://place.map.daum.net/26878761",
    "category": "돼지갈비"
   }
  },
  {
   "type": "Feature",
   "geometry": {
    "type": "Point",
    "coordinates": [
     127.02412752288,
     37.5100840792061
    ]
   },
   "properties": {
    "pid": "24528855",
    "name": "배꼽집",
    "phone": "02-539-3323",
    "source": "논현동 - 논현역 - 배꼽집",
    "address": "서울 강남구 강남대로128길 22",
    "website": "http://place.map.daum.net/24528855",
    "category": "돼지갈비"
   }
  },
  {
   "type": "Feature",
   "geometry": {
    "type": "Point",
    "coordinates": [
     127.044141732723,
     37.4856357943622
    ]
   },
   "properties": {
    "pid": "1041362072",
    "name": "마포집",
    "phone": "02-529-2954",
    "source": "도곡동 - 매봉역 - 마포집",
    "address": "서울 강남구 남부순환로 2726",
    "website": "http://place.map.daum.net/1041362072",
    "category": "돼지갈비"
   }
  },
  {
   "type": "Feature",
   "geometry": {
    "type": "Point",
    "coordinates": [
     127.033866306862,
     37.4860572543864
    ]
   },
   "properties": {
    "pid": "27288839",
    "name": "로스옥",
    "phone": "02-529-7763",
    "source": "도곡동 - 양재역 - 로스옥",
    "address": "서울 강남구 강남대로 252",
    "website": "http://place.map.daum.net/27288839",
    "category": "돼지갈비"
   }
  },
  {
   "type": "Feature",
   "geometry": {
    "type": "Point",
    "coordinates": [
     127.036736492897,
     37.4824703830408
    ]
   },
   "properties": {
    "pid": "8701738",
    "name": "갈비사랑",
    "phone": "02-3463-6800",
    "source": "양재동 - 양재역 - 갈비사랑",
    "address": "서울 서초구 강남대로 204",
    "website": "http://place.map.daum.net/8701738",
    "category": "돼지갈비"
   }
  },
  {
   "type": "Feature",
   "geometry": {
    "type": "Point",
    "coordinates": [
     127.017474227093,
     37.5177726168298
    ]
   },
   "properties": {
    "pid": "10519646",
    "name": "신사동연탄공장",
    "phone": "02-546-1799",
    "source": "신사동 - 압구정역 - 연탄공장",
    "address": "서울 서초구 강남대로101길 46",
    "website": "http://place.map.daum.net/10519646",
    "category": "돼지갈비"
   }
  },
  {
   "type": "Feature",
   "geometry": {
    "type": "Point",
    "coordinates": [
     127.022932948494,
     37.5094716340331
    ]
   },
   "properties": {
    "pid": "16037922",
    "name": "영동삼미숯불갈비",
    "phone": "02-549-9485",
    "source": "논현동 - 논현역 - 삼미숯불갈비",
    "address": "서울 강남구 학동로2길 30",
    "website": "http://place.map.daum.net/16037922",
    "category": "돼지갈비"
   }
  },
  {
   "type": "Feature",
   "geometry": {
    "type": "Point",
    "coordinates": [
     127.086064255723,
     37.5381232096895
    ]
   },
   "properties": {
    "pid": "27133940",
    "name": "웅이갈비 구의본점",
    "phone": "02-3436-5747",
    "source": "구의동 - 구의역 - 웅이갈비",
    "address": "서울 광진구 자양로18길 45",
    "website": "http://place.map.daum.net/27133940",
    "category": "돼지갈비"
   }
  },
  {
   "type": "Feature",
   "geometry": {
    "type": "Point",
    "coordinates": [
     127.088605373691,
     37.5054581873057
    ]
   },
   "properties": {
    "pid": "24855889",
    "name": "화동생갈비 잠실지점",
    "phone": "02-420-5882",
    "source": "잠실동 - 신천역 - 화동생갈비",
    "address": "서울 송파구 삼전로 75",
    "website": "http://place.map.daum.net/24855889",
    "category": "돼지갈비"
   }
  },
  {
   "type": "Feature",
   "geometry": {
    "type": "Point",
    "coordinates": [
     127.089579689223,
     37.5068594160848
    ]
   },
   "properties": {
    "pid": "12347827",
    "name": "담은갈비",
    "phone": "02-423-8053",
    "source": "잠실동 - 신천역 - 담은갈비",
    "address": "서울 송파구 삼전로 93",
    "website": "http://place.map.daum.net/12347827",
    "category": "돼지갈비"
   }
  },
  {
   "type": "Feature",
   "geometry": {
    "type": "Point",
    "coordinates": [
     127.106023448181,
     37.5093722180724
    ]
   },
   "properties": {
    "pid": "7947817",
    "name": "석촌옛터",
    "phone": "02-421-0043",
    "source": "송파동 - 석촌역 - 석촌옛터",
    "address": "서울 송파구 백제고분로41길 42",
    "website": "http://place.map.daum.net/7947817",
    "category": "돼지갈비"
   }
  },
  {
   "type": "Feature",
   "geometry": {
    "type": "Point",
    "coordinates": [
     127.09852712308,
     37.5060738238401
    ]
   },
   "properties": {
    "pid": "20745282",
    "name": "삼광호수",
    "phone": "02-414-2512",
    "source": "석촌동 - 석촌역 - 삼광호수",
    "address": "서울 송파구 송파대로49길 58",
    "website": "http://place.map.daum.net/20745282",
    "category": "돼지갈비"
   }
  }
 ]
}