{
 "type": "FeatureCollection",
 "features": [
  {
   "type": "Feature",
   "geometry": {
    "type": "Point",
    "coordinates": [
     126.828134619221,
     37.5378709322354
    ]
   },
   "properties": {
    "pid": "21396249",
    "name": "철이네분식",
    "phone": "02-2691-8135",
    "source": "신월동 - 화곡역 - 철이네분식",
    "address": "서울 양천구 남부순환로33길 7",
    "website": "http://place.map.daum.net/21396249",
    "category": "떡볶이"
   }
  },
  {
   "type": "Feature",
   "geometry": {
    "type": "Point",
    "coordinates": [
     126.944285092628,
     37.5884278357389
    ]
   },
   "properties": {
    "pid": "27105942",
    "name": "불난집",
    "phone": "",
    "source": "홍제동 - 홍제역 - 불난집",
    "address": "서울 서대문구 통일로 445",
    "website": "http://place.map.daum.net/27105942",
    "category": "떡볶이"
   }
  },
  {
   "type": "Feature",
   "geometry": {
    "type": "Point",
    "coordinates": [
     126.918767222513,
     37.623479551194
    ]
   },
   "properties": {
    "pid": "14737337",
    "name": "갈현동할머니떡볶이",
    "phone": "02-354-8399",
    "source": "갈현동 - 연신내역 - 갈현동 할머니떡볶이",
    "address": "서울 은평구 통일로87길 8-1",
    "website": "http://place.map.daum.net/14737337",
    "category": "떡볶이"
   }
  },
  {
   "type": "Feature",
   "geometry": {
    "type": "Point",
    "coordinates": [
     126.908337574159,
     37.615413477616
    ]
   },
   "properties": {
    "pid": "13138640",
    "name": "통나무집",
    "phone": "02-384-8268",
    "source": "구산동 - 구산역 - 통나무집",
    "address": "서울 은평구 서오릉로 231",
    "website": "http://place.map.daum.net/13138640",
    "category": "떡볶이"
   }
  },
  {
   "type": "Feature",
   "geometry": {
    "type": "Point",
    "coordinates": [
     126.916579575046,
     37.6105506493929
    ]
   },
   "properties": {
    "pid": "16646821",
    "name": "코스모스",
    "phone": "02-358-6623",
    "source": "구산동 - 구산역 - 코스모스 분식",
    "address": "서울 은평구 연서로15길 2",
    "website": "http://place.map.daum.net/16646821",
    "category": "떡볶이"
   }
  },
  {
   "type": "Feature",
   "geometry": {
    "type": "Point",
    "coordinates": [
     126.915728971027,
     37.5694179533012
    ]
   },
   "properties": {
    "pid": "21394113",
    "name": "신흥떡볶이",
    "phone": "",
    "source": "남가좌동 - 가좌역 - 신흥떡볶이",
    "address": "서울 서대문구 수색로 28-5",
    "website": "http://place.map.daum.net/21394113",
    "category": "떡볶이"
   }
  },
  {
   "type": "Feature",
   "geometry": {
    "type": "Point",
    "coordinates": [
     126.923326729488,
     37.5781087204764
    ]
   },
   "properties": {
    "pid": "11902547",
    "name": "이정희떡볶이",
    "phone": "02-303-4302",
    "source": "남가좌동 - 증산역 - 이정희떡볶이",
    "address": "서울 서대문구 증가로10길 14",
    "website": "http://place.map.daum.net/11902547",
    "category": "떡볶이"
   }
  },
  {
   "type": "Feature",
   "geometry": {
    "type": "Point",
    "coordinates": [
     126.924163620995,
     37.5789417794517
    ]
   },
   "properties": {
    "pid": "21328592",
    "name": "엄마손떡볶이 본점",
    "phone": "02-305-7572",
    "source": "남가좌동 - 증산역 - 엄마손떡볶이",
    "address": "서울 서대문구 증가로10길 37",
    "website": "http://place.map.daum.net/21328592",
    "category": "떡볶이"
   }
  },
  {
   "type": "Feature",
   "geometry": {
    "type": "Point",
    "coordinates": [
     126.924049179207,
     37.5623201479542
    ]
   },
   "properties": {
    "pid": "27272702",
    "name": "폭풍간지스낵 연남점",
    "phone": "02-325-4548",
    "source": "연남동 - 홍대입구역 - 연남스낵",
    "address": "서울 마포구 동교로39길 4",
    "website": "http://place.map.daum.net/27272702",
    "category": "떡볶이"
   }
  },
  {
   "type": "Feature",
   "geometry": {
    "type": "Point",
    "coordinates": [
     126.92585658072831,
     37.55675313644327
    ]
   },
   "properties": {
    "pid": "27270739",
    "name": "청년다방 홍대점",
    "phone": "02-3144-1822",
    "source": "동교동 - 홍대입구역 - 청년다방",
    "address": "서울 마포구 양화로18안길 22",
    "website": "http://place.map.daum.net/27270739",
    "category": "떡볶이"
   }
  },
  {
   "type": "Feature",
   "geometry": {
    "type": "Point",
    "coordinates": [
     126.921381512661,
     37.5504000096211
    ]
   },
   "properties": {
    "pid": "11731505",
    "name": "홍대조폭떡볶이",
    "phone": "",
    "source": "서교동 - 홍대입구역 - 조폭떡볶이",
    "address": "서울 마포구 어울마당로 60",
    "website": "http://place.map.daum.net/11731505",
    "category": "떡볶이"
   }
  },
  {
   "type": "Feature",
   "geometry": {
    "type": "Point",
    "coordinates": [
     126.921217355443,
     37.551538761818
    ]
   },
   "properties": {
    "pid": "27454468",
    "name": "미미네 홍대본점",
    "phone": "02-3143-7245",
    "source": "서교동 - 홍대입구역 - 미미네",
    "address": "서울 마포구 잔다리로2길 24",
    "website": "http://place.map.daum.net/27454468",
    "category": "떡볶이"
   }
  },
  {
   "type": "Feature",
   "geometry": {
    "type": "Point",
    "coordinates": [
     126.924414771106,
     37.5589506551078
    ]
   },
   "properties": {
    "pid": "763211643",
    "name": "또보겠지떡볶이집 붕붕허니비점",
    "phone": "02-332-1287",
    "source": "서교동 - 홍대입구역, 합정역 - 또보겠지떡볶이",
    "address": "서울 마포구 양화로19길 22-25",
    "website": "http://place.map.daum.net/763211643",
    "category": "떡볶이"
   }
  },
  {
   "type": "Feature",
   "geometry": {
    "type": "Point",
    "coordinates": [
     126.922796239572,
     37.5480547433048
    ]
   },
   "properties": {
    "pid": "23579045",
    "name": "김사또 상수본점",
    "phone": "02-323-6362",
    "source": "상수동 - 상수역 - 김사또",
    "address": "서울 마포구 와우산로 39",
    "website": "http://place.map.daum.net/23579045",
    "category": "떡볶이"
   }
  },
  {
   "type": "Feature",
   "geometry": {
    "type": "Point",
    "coordinates": [
     126.963613686875,
     37.5623209505437
    ]
   },
   "properties": {
    "pid": "25880887",
    "name": "철길떡볶이",
    "phone": "02-364-3440",
    "source": "충정로3가 - 충정로역 - 철길떡볶이",
    "address": "",
    "website": "http://place.map.daum.net/25880887",
    "category": "떡볶이"
   }
  },
  {
   "type": "Feature",
   "geometry": {
    "type": "Point",
    "coordinates": [
     126.970343097044,
     37.5806995299
    ]
   },
   "properties": {
    "pid": "11807397",
    "name": "원조할머니떡볶이",
    "phone": "02-725-4870",
    "source": "통인동 - 경복궁역 - 원조할머니 떡볶이집",
    "address": "서울 종로구 자하문로15길 11",
    "website": "http://place.map.daum.net/11807397",
    "category": "떡볶이"
   }
  },
  {
   "type": "Feature",
   "geometry": {
    "type": "Point",
    "coordinates": [
     126.96909915363,
     37.577351117107
    ]
   },
   "properties": {
    "pid": "7865900",
    "name": "만나분식",
    "phone": "02-732-5101",
    "source": "필운동 - 경복궁역 - 만나분식",
    "address": "서울 종로구 필운대로1길 4",
    "website": "http://place.map.daum.net/7865900",
    "category": "떡볶이"
   }
  },
  {
   "type": "Feature",
   "geometry": {
    "type": "Point",
    "coordinates": [
     126.966964763954,
     37.5809256832267
    ]
   },
   "properties": {
    "pid": "18643183",
    "name": "남도분식",
    "phone": "02-723-7775",
    "source": "누상동 - 경복궁역 - 남도분식",
    "address": "서울 종로구 옥인2길 2",
    "website": "http://place.map.daum.net/18643183",
    "category": "떡볶이"
   }
  },
  {
   "type": "Feature",
   "geometry": {
    "type": "Point",
    "coordinates": [
     126.96865235330233,
     37.579180017367534
    ]
   },
   "properties": {
    "pid": "15109504",
    "name": "송스키친 경복궁점",
    "phone": "02-725-1713",
    "source": "누하동 - 경복궁역 - 송스키친",
    "address": "서울 종로구 필운대로 35-3",
    "website": "http://place.map.daum.net/15109504",
    "category": "떡볶이"
   }
  },
  {
   "type": "Feature",
   "geometry": {
    "type": "Point",
    "coordinates": [
     126.98250692268,
     37.5790981900259
    ]
   },
   "properties": {
    "pid": "11082648",
    "name": "먹쉬돈나 삼청동점",
    "phone": "02-723-8089",
    "source": "삼청동 - 안국역 - 먹쉬돈나",
    "address": "서울 종로구 율곡로3길 74-7",
    "website": "http://place.map.daum.net/11082648",
    "category": "떡볶이"
   }
  },
  {
   "type": "Feature",
   "geometry": {
    "type": "Point",
    "coordinates": [
     126.981704949576,
     37.5809469078875
    ]
   },
   "properties": {
    "pid": "13284345",
    "name": "풍년쌀농산",
    "phone": "02-732-7081",
    "source": "삼청동 - 안국역 - 풍년쌀농산",
    "address": "서울 종로구 북촌로5가길 32",
    "website": "http://place.map.daum.net/13284345",
    "category": "떡볶이"
   }
  },
  {
   "type": "Feature",
   "geometry": {
    "type": "Point",
    "coordinates": [
     126.98224895898845,
     37.57845303976659
    ]
   },
   "properties": {
    "pid": "26875954",
    "name": "닭칼",
    "phone": "",
    "source": "삼청동 - 안국역 - 도토리",
    "address": "서울 종로구 율곡로3길 64",
    "website": "http://place.map.daum.net/26875954",
    "category": "떡볶이"
   }
  },
  {
   "type": "Feature",
   "geometry": {
    "type": "Point",
    "coordinates": [
     126.98486624613187,
     37.579855951474045
    ]
   },
   "properties": {
    "pid": "1643224226",
    "name": "명품삼청동떡볶이",
    "phone": "",
    "source": "삼청동 - 안국역 - 명품삼청동떡볶이",
    "address": "서울 종로구 북촌로 33-2",
    "website": "http://place.map.daum.net/1643224226",
    "category": "떡볶이"
   }
  },
  {
   "type": "Feature",
   "geometry": {
    "type": "Point",
    "coordinates": [
     126.985800412599,
     37.5718942795488
    ]
   },
   "properties": {
    "pid": "25453767",
    "name": "떡싸롱 인사동점",
    "phone": "02-725-9449",
    "source": "인사동 - 종각역 - 떡싸롱",
    "address": "서울 종로구 인사동3길 16",
    "website": "http://place.map.daum.net/25453767",
    "category": "떡볶이"
   }
  },
  {
   "type": "Feature",
   "geometry": {
    "type": "Point",
    "coordinates": [
     126.985705421135,
     37.5713969187569
    ]
   },
   "properties": {
    "pid": "26874296",
    "name": "다락쿡",
    "phone": "",
    "source": "종로1가 - 종각역 - 다락떡볶이",
    "address": "서울 종로구 종로11길 22-1",
    "website": "http://place.map.daum.net/26874296",
    "category": "떡볶이"
   }
  },
  {
   "type": "Feature",
   "geometry": {
    "type": "Point",
    "coordinates": [
     127.00163922353256,
     37.58221321920418
    ]
   },
   "properties": {
    "pid": "215290061",
    "name": "옥이모깻잎떡볶이",
    "phone": "070-8119-5668",
    "source": "혜화동 - 혜화역 - 옥이모떡볶이",
    "address": "서울 종로구 대학로 123-1",
    "website": "http://place.map.daum.net/215290061",
    "category": "떡볶이"
   }
  },
  {
   "type": "Feature",
   "geometry": {
    "type": "Point",
    "coordinates": [
     126.997885122103,
     37.5837305746825
    ]
   },
   "properties": {
    "pid": "10199904",
    "name": "나누미떡볶이 성대본점",
    "phone": "02-747-0881",
    "source": "혜화동 - 혜화역 - 나누미떡볶이 (HOT 떡볶이)",
    "address": "서울 종로구 성균관로 9-1",
    "website": "http://place.map.daum.net/10199904",
    "category": "떡볶이"
   }
  },
  {
   "type": "Feature",
   "geometry": {
    "type": "Point",
    "coordinates": [
     127.001172905072,
     37.5828151785186
    ]
   },
   "properties": {
    "pid": "8624124",
    "name": "혜화돌쇠아저씨",
    "phone": "",
    "source": "명륜동 - 혜화역 - 혜화돌쇠아저씨",
    "address": "서울 종로구 대학로 129-10",
    "website": "http://place.map.daum.net/8624124",
    "category": "떡볶이"
   }
  },
  {
   "type": "Feature",
   "geometry": {
    "type": "Point",
    "coordinates": [
     127.003255796729,
     37.5768397478035
    ]
   },
   "properties": {
    "pid": "12435366",
    "name": "선다래분식",
    "phone": "02-744-4620",
    "source": "이화동 - 혜화역 - 선다래분식",
    "address": "서울 종로구 이화장길 14",
    "website": "http://place.map.daum.net/12435366",
    "category": "떡볶이"
   }
  },
  {
   "type": "Feature",
   "geometry": {
    "type": "Point",
    "coordinates": [
     127.01567174526,
     37.5962677628461
    ]
   },
   "properties": {
    "pid": "15725260",
    "name": "쌀떡볶이나라 돈암점",
    "phone": "02-923-4243",
    "source": "동선동 - 성신여대입구역 - 쌀떡볶이나라",
    "address": "서울 성북구 아리랑로 38",
    "website": "http://place.map.daum.net/15725260",
    "category": "떡볶이"
   }
  },
  {
   "type": "Feature",
   "geometry": {
    "type": "Point",
    "coordinates": [
     127.047210121544,
     37.5821209887251
    ]
   },
   "properties": {
    "pid": "15606757",
    "name": "매콤달콤",
    "phone": "02-959-5372",
    "source": "청량리동 - 청량리역 - 매콤달콤",
    "address": "서울 동대문구 왕산로 225",
    "website": "http://place.map.daum.net/15606757",
    "category": "떡볶이"
   }
  },
  {
   "type": "Feature",
   "geometry": {
    "type": "Point",
    "coordinates": [
     127.02928912655196,
     37.584000861903704
    ]
   },
   "properties": {
    "pid": "14512484",
    "name": "유자유김치떡볶이 본점",
    "phone": "02-928-7754",
    "source": "안암동 - 안암역 - 유자유",
    "address": "서울 성북구 인촌로24길 48",
    "website": "http://place.map.daum.net/14512484",
    "category": "떡볶이"
   }
  },
  {
   "type": "Feature",
   "geometry": {
    "type": "Point",
    "coordinates": [
     127.029094482147,
     37.6133083454134
    ]
   },
   "properties": {
    "pid": "16624169",
    "name": "제일분식",
    "phone": "02-985-7333",
    "source": "미아동 - 미아삼거리역 - 제일분식",
    "address": "서울 강북구 도봉로 45",
    "website": "http://place.map.daum.net/16624169",
    "category": "떡볶이"
   }
  },
  {
   "type": "Feature",
   "geometry": {
    "type": "Point",
    "coordinates": [
     127.017055282216,
     37.625164095934
    ]
   },
   "properties": {
    "pid": "506487871",
    "name": "삼양시장떡볶이순대",
    "phone": "",
    "source": "미아동 - 미아역 - 삼양시장떡볶이",
    "address": "서울 강북구 솔매로 46",
    "website": "http://place.map.daum.net/506487871",
    "category": "떡볶이"
   }
  },
  {
   "type": "Feature",
   "geometry": {
    "type": "Point",
    "coordinates": [
     127.023464564256,
     37.6034023182646
    ]
   },
   "properties": {
    "pid": "11962375",
    "name": "불난집",
    "phone": "02-943-6983",
    "source": "길음동 - 길음역 - 불난집",
    "address": "서울 성북구 동소문로 241-1",
    "website": "http://place.map.daum.net/11962375",
    "category": "떡볶이"
   }
  },
  {
   "type": "Feature",
   "geometry": {
    "type": "Point",
    "coordinates": [
     127.034789364658,
     37.652449229007
    ]
   },
   "properties": {
    "pid": "21392443",
    "name": "호호분식",
    "phone": "02-900-1377",
    "source": "쌍문동 - 쌍문역 - 호호분식",
    "address": "서울 도봉구 도봉로121길 32",
    "website": "http://place.map.daum.net/21392443",
    "category": "떡볶이"
   }
  },
  {
   "type": "Feature",
   "geometry": {
    "type": "Point",
    "coordinates": [
     127.06085847436401,
     37.655949849395064
    ]
   },
   "properties": {
    "pid": "17079123",
    "name": "영스넥",
    "phone": "",
    "source": "중계동 - 노원역 - 영스낵",
    "address": "서울 노원구 상계로 51",
    "website": "http://place.map.daum.net/17079123",
    "category": "떡볶이"
   }
  },
  {
   "type": "Feature",
   "geometry": {
    "type": "Point",
    "coordinates": [
     127.06086301882551,
     37.65596426270578
    ]
   },
   "properties": {
    "pid": "20749023",
    "name": "미도분식",
    "phone": "",
    "source": "중계동 - 노원역 - 미도분식",
    "address": "서울 노원구 상계로 51",
    "website": "http://place.map.daum.net/20749023",
    "category": "떡볶이"
   }
  },
  {
   "type": "Feature",
   "geometry": {
    "type": "Point",
    "coordinates": [
     127.103395744563,
     37.6017123494922
    ]
   },
   "properties": {
    "pid": "16061905",
    "name": "홍이네떡볶이",
    "phone": "02-439-5831",
    "source": "망우동 - 망우역 - 홍이네분식",
    "address": "서울 중랑구 망우로73길 26",
    "website": "http://place.map.daum.net/16061905",
    "category": "떡볶이"
   }
  },
  {
   "type": "Feature",
   "geometry": {
    "type": "Point",
    "coordinates": [
     127.103083750214,
     37.6021162659992
    ]
   },
   "properties": {
    "pid": "21396462",
    "name": "경상도떡볶이",
    "phone": "02-438-6245",
    "source": "망우동 - 망우역 - 경상도떡볶이",
    "address": "서울 중랑구 망우로71길 36-17",
    "website": "http://place.map.daum.net/21396462",
    "category": "떡볶이"
   }
  },
  {
   "type": "Feature",
   "geometry": {
    "type": "Point",
    "coordinates": [
     127.09049444492,
     37.5525611082502
    ]
   },
   "properties": {
    "pid": "13319252",
    "name": "신토불이떡볶이",
    "phone": "",
    "source": "구의동 - 아차산역 - 신토불이",
    "address": "서울 광진구 자양로43길 42",
    "website": "http://place.map.daum.net/13319252",
    "category": "떡볶이"
   }
  },
  {
   "type": "Feature",
   "geometry": {
    "type": "Point",
    "coordinates": [
     127.07232485191693,
     37.54813531833237
    ]
   },
   "properties": {
    "pid": "11354357",
    "name": "은혜즉석떡볶이",
    "phone": "02-468-7401",
    "source": "화양동 - 어린이대공원역 - 은혜즉석떡볶이",
    "address": "서울 광진구 광나루로 381-1",
    "website": "http://place.map.daum.net/11354357",
    "category": "떡볶이"
   }
  },
  {
   "type": "Feature",
   "geometry": {
    "type": "Point",
    "coordinates": [
     127.069146685137,
     37.5432303818235
    ]
   },
   "properties": {
    "pid": "19238595",
    "name": "아찌떡볶이",
    "phone": "02-462-8340",
    "source": "화양동 - 건대입구역 - 아찌떡볶이",
    "address": "서울 광진구 아차산로29길 53",
    "website": "http://place.map.daum.net/19238595",
    "category": "떡볶이"
   }
  },
  {
   "type": "Feature",
   "geometry": {
    "type": "Point",
    "coordinates": [
     127.069518482116,
     37.5439293389752
    ]
   },
   "properties": {
    "pid": "914293828",
    "name": "꼽사리 건대본점",
    "phone": "070-8112-9800",
    "source": "화양동 - 건대입구역 - 꼽사리떡볶이",
    "address": "서울 광진구 아차산로29길 71",
    "website": "http://place.map.daum.net/914293828",
    "category": "떡볶이"
   }
  },
  {
   "type": "Feature",
   "geometry": {
    "type": "Point",
    "coordinates": [
     127.06738786259852,
     37.54027612001135
    ]
   },
   "properties": {
    "pid": "19774860",
    "name": "바나바나 건대본점",
    "phone": "02-466-9997",
    "source": "자양동 - 건대입구역 - 바나바나",
    "address": "서울 광진구 동일로20길 72",
    "website": "http://place.map.daum.net/19774860",
    "category": "떡볶이"
   }
  },
  {
   "type": "Feature",
   "geometry": {
    "type": "Point",
    "coordinates": [
     127.064904242533,
     37.5363960026963
    ]
   },
   "properties": {
    "pid": "27232173",
    "name": "노룬산분식점",
    "phone": "02-465-1739",
    "source": "자양동 - 뚝섬유원지역 - 노룬산분식",
    "address": "서울 광진구 뚝섬로 491",
    "website": "http://place.map.daum.net/27232173",
    "category": "떡볶이"
   }
  },
  {
   "type": "Feature",
   "geometry": {
    "type": "Point",
    "coordinates": [
     127.085398905473,
     37.5420520515618
    ]
   },
   "properties": {
    "pid": "16560934",
    "name": "크레파스분식",
    "phone": "02-454-7179",
    "source": "구의동 - 구의역 - 크레파스분식",
    "address": "서울 광진구 자양로28길 22",
    "website": "http://place.map.daum.net/16560934",
    "category": "떡볶이"
   }
  },
  {
   "type": "Feature",
   "geometry": {
    "type": "Point",
    "coordinates": [
     127.085525686215,
     37.5420952077803
    ]
   },
   "properties": {
    "pid": "15188115",
    "name": "모두랑",
    "phone": "02-457-1178",
    "source": "구의동 - 구의역 - 모두랑",
    "address": "서울 광진구 자양로28길 24",
    "website": "http://place.map.daum.net/15188115",
    "category": "떡볶이"
   }
  },
  {
   "type": "Feature",
   "geometry": {
    "type": "Point",
    "coordinates": [
     127.043833846637,
     37.5469365876302
    ]
   },
   "properties": {
    "pid": "2001235320",
    "name": "분식비스트로뚝떡",
    "phone": "02-462-0082",
    "source": "성수동 - 뚝섬역 - 뚝떡",
    "address": "서울 성동구 서울숲4길 28",
    "website": "http://place.map.daum.net/2001235320",
    "category": "떡볶이"
   }
  },
  {
   "type": "Feature",
   "geometry": {
    "type": "Point",
    "coordinates": [
     127.044879254796,
     37.546611835326
    ]
   },
   "properties": {
    "pid": "27220217",
    "name": "서울스낵",
    "phone": "02-462-7644",
    "source": "성수동 - 뚝섬역 - 서울스낵",
    "address": "서울 성동구 왕십리로 102",
    "website": "http://place.map.daum.net/27220217",
    "category": "떡볶이"
   }
  },
  {
   "type": "Feature",
   "geometry": {
    "type": "Point",
    "coordinates": [
     127.041044045933,
     37.5606615893525
    ]
   },
   "properties": {
    "pid": "11101743",
    "name": "악어떡볶이",
    "phone": "02-2281-9988",
    "source": "행당동 - 왕십리역 - 악어떡볶이",
    "address": "서울 성동구 마조로 33",
    "website": "http://place.map.daum.net/11101743",
    "category": "떡볶이"
   }
  },
  {
   "type": "Feature",
   "geometry": {
    "type": "Point",
    "coordinates": [
     127.012372760252,
     37.55937063961
    ]
   },
   "properties": {
    "pid": "21325635",
    "name": "원조짜장떡복이",
    "phone": "02-2231-0010",
    "source": "신당동 - 청구역 - 원조짜장떡볶이",
    "address": "서울 중구 동호로12길 96",
    "website": "http://place.map.daum.net/21325635",
    "category": "떡볶이"
   }
  },
  {
   "type": "Feature",
   "geometry": {
    "type": "Point",
    "coordinates": [
     127.016873353939,
     37.5619649530894
    ]
   },
   "properties": {
    "pid": "12506676",
    "name": "원조진미떡볶이",
    "phone": "02-2252-5889",
    "source": "신당동 - 청구역 - 진미떡볶이",
    "address": "서울 중구 다산로36길 36",
    "website": "http://place.map.daum.net/12506676",
    "category": "떡볶이"
   }
  },
  {
   "type": "Feature",
   "geometry": {
    "type": "Point",
    "coordinates": [
     127.01554883708786,
     37.56609620309695
    ]
   },
   "properties": {
    "pid": "1070303617",
    "name": "동대문엽기떡볶이 동대문본점",
    "phone": "02-2234-8592",
    "source": "흥인동 - 신당역 - 동대문엽기떡볶이",
    "address": "서울 중구 퇴계로75길 15",
    "website": "http://place.map.daum.net/1070303617",
    "category": "떡볶이"
   }
  },
  {
   "type": "Feature",
   "geometry": {
    "type": "Point",
    "coordinates": [
     127.015130598493,
     37.5632806442408
    ]
   },
   "properties": {
    "pid": "25036918",
    "name": "신당동 마복림떡볶이집",
    "phone": "02-2232-8930",
    "source": "신당동 - 신당역 - 마복림떡볶이",
    "address": "서울 중구 다산로35길 5",
    "website": "http://place.map.daum.net/25036918",
    "category": "떡볶이"
   }
  },
  {
   "type": "Feature",
   "geometry": {
    "type": "Point",
    "coordinates": [
     127.014913183763,
     37.5627833218483
    ]
   },
   "properties": {
    "pid": "27388900",
    "name": "우정",
    "phone": "02-2233-0669",
    "source": "신당동 - 신당역 - 우정",
    "address": "서울 중구 퇴계로76길 55",
    "website": "http://place.map.daum.net/27388900",
    "category": "떡볶이"
   }
  },
  {
   "type": "Feature",
   "geometry": {
    "type": "Point",
    "coordinates": [
     127.014827272861,
     37.5633347425102
    ]
   },
   "properties": {
    "pid": "7992623",
    "name": "아이러브신당동",
    "phone": "02-2232-7872",
    "source": "신당동 - 신당역 - 아이러브신당",
    "address": "서울 중구 퇴계로76길 50",
    "website": "http://place.map.daum.net/7992623",
    "category": "떡볶이"
   }
  },
  {
   "type": "Feature",
   "geometry": {
    "type": "Point",
    "coordinates": [
     127.015039942378,
     37.5627436619221
    ]
   },
   "properties": {
    "pid": "16268317",
    "name": "신당동 원조종점떡볶이",
    "phone": "02-2234-3649",
    "source": "신당동 - 신당역 - 종점떡볶이",
    "address": "서울 중구 다산로 217-1",
    "website": "http://place.map.daum.net/16268317",
    "category": "떡볶이"
   }
  },
  {
   "type": "Feature",
   "geometry": {
    "type": "Point",
    "coordinates": [
     127.01493579619,
     37.5626607834625
    ]
   },
   "properties": {
    "pid": "27234119",
    "name": "우리집떡볶이",
    "phone": "02-2232-4531",
    "source": "신당동 - 신당역 - 우리집떡볶이",
    "address": "서울 중구 다산로 217-1",
    "website": "http://place.map.daum.net/27234119",
    "category": "떡볶이"
   }
  },
  {
   "type": "Feature",
   "geometry": {
    "type": "Point",
    "coordinates": [
     127.0147547433,
     37.562873441406
    ]
   },
   "properties": {
    "pid": "10439711",
    "name": "신당동떡볶이 삼대할먼네",
    "phone": "02-2233-1559",
    "source": "신당동 - 신당역 - 삼대할먼네",
    "address": "서울 중구 퇴계로76길 54",
    "website": "http://place.map.daum.net/10439711",
    "category": "떡볶이"
   }
  },
  {
   "type": "Feature",
   "geometry": {
    "type": "Point",
    "coordinates": [
     127.014727508054,
     37.5625130461949
    ]
   },
   "properties": {
    "pid": "23493648",
    "name": "들국화떡볶이",
    "phone": "02-2235-2967",
    "source": "신당동 - 신당역 - 들국화",
    "address": "서울 중구 퇴계로76길 61",
    "website": "http://place.map.daum.net/23493648",
    "category": "떡볶이"
   }
  },
  {
   "type": "Feature",
   "geometry": {
    "type": "Point",
    "coordinates": [
     127.0005610732118,
     37.534972145949745
    ]
   },
   "properties": {
    "pid": "21329787",
    "name": "바바라스키친",
    "phone": "070-8834-0908",
    "source": "한남동 - 한강진역 - 바바라스키친",
    "address": "서울 용산구 대사관로5길 17",
    "website": "http://place.map.daum.net/21329787",
    "category": "떡볶이"
   }
  },
  {
   "type": "Feature",
   "geometry": {
    "type": "Point",
    "coordinates": [
     127.008372373532,
     37.5334979031489
    ]
   },
   "properties": {
    "pid": "14557499",
    "name": "5마일",
    "phone": "02-796-0258",
    "source": "한남동 - 한남역 - 5마일",
    "address": "서울 용산구 독서당로 70",
    "website": "http://place.map.daum.net/14557499",
    "category": "떡볶이"
   }
  },
  {
   "type": "Feature",
   "geometry": {
    "type": "Point",
    "coordinates": [
     127.01021661736188,
     37.53392933746489
    ]
   },
   "properties": {
    "pid": "21853513",
    "name": "로얄맨션",
    "phone": "02-792-2655",
    "source": "한남동 - 한남역 - 로얄맨션",
    "address": "서울 용산구 유엔빌리지길 11",
    "website": "http://place.map.daum.net/21853513",
    "category": "떡볶이"
   }
  },
  {
   "type": "Feature",
   "geometry": {
    "type": "Point",
    "coordinates": [
     126.995216406581,
     37.5339125634909
    ]
   },
   "properties": {
    "pid": "21393230",
    "name": "느네집",
    "phone": "02-794-8386",
    "source": "이태원동 - 이태원역 - 느네집",
    "address": "서울 용산구 보광로60길 20",
    "website": "http://place.map.daum.net/21393230",
    "category": "떡볶이"
   }
  },
  {
   "type": "Feature",
   "geometry": {
    "type": "Point",
    "coordinates": [
     126.984009279467,
     37.5628804884461
    ]
   },
   "properties": {
    "pid": "15449346",
    "name": "남산아래빨강떡",
    "phone": "02-755-4014",
    "source": "명동 - 명동역 - 남산아래빨강떡",
    "address": "서울 중구 명동8길 8-23",
    "website": "http://place.map.daum.net/15449346",
    "category": "떡볶이"
   }
  },
  {
   "type": "Feature",
   "geometry": {
    "type": "Point",
    "coordinates": [
     126.997600529861,
     37.5615264480559
    ]
   },
   "properties": {
    "pid": "16376515",
    "name": "다시열린하얀집",
    "phone": "02-2278-5953",
    "source": "충무로5가 - 충무로역 - 다시열린하얀집",
    "address": "서울 중구 서애로 12-20",
    "website": "http://place.map.daum.net/16376515",
    "category": "떡볶이"
   }
  },
  {
   "type": "Feature",
   "geometry": {
    "type": "Point",
    "coordinates": [
     127.002671014733,
     37.5589063431948
    ]
   },
   "properties": {
    "pid": "14823876",
    "name": "꽃사슴떡볶이 VS얼큰",
    "phone": "02-2264-8525",
    "source": "장충동 - 동대입구역 - 꽃사슴떡볶이",
    "address": "서울 중구 동호로25길 3",
    "website": "http://place.map.daum.net/14823876",
    "category": "떡볶이"
   }
  },
  {
   "type": "Feature",
   "geometry": {
    "type": "Point",
    "coordinates": [
     126.974973085016,
     37.5208707088076
    ]
   },
   "properties": {
    "pid": "8056170",
    "name": "스마일이촌떡볶이",
    "phone": "02-749-5507",
    "source": "이촌동 - 동부이촌동역 - 스마일떡볶이 (이촌떡볶이)",
    "address": "서울 용산구 이촌로65가길 72",
    "website": "http://place.map.daum.net/8056170",
    "category": "떡볶이"
   }
  },
  {
   "type": "Feature",
   "geometry": {
    "type": "Point",
    "coordinates": [
     126.9685980564289,
     37.53052792908615
    ]
   },
   "properties": {
    "pid": "949515069",
    "name": "현선이네",
    "phone": "02-796-1191",
    "source": "한강로2가 - 신용산역 - 현선이네",
    "address": "서울 용산구 한강대로39길 5",
    "website": "http://place.map.daum.net/949515069",
    "category": "떡볶이"
   }
  },
  {
   "type": "Feature",
   "geometry": {
    "type": "Point",
    "coordinates": [
     126.949848831185,
     37.5040499758197
    ]
   },
   "properties": {
    "pid": "11756002",
    "name": "오시오떡볶이",
    "phone": "02-825-7798",
    "source": "상도동 - 상도역 - 오시오떡볶이",
    "address": "서울 동작구 양녕로 278-2",
    "website": "http://place.map.daum.net/11756002",
    "category": "떡볶이"
   }
  },
  {
   "type": "Feature",
   "geometry": {
    "type": "Point",
    "coordinates": [
     126.940475221314,
     37.5043483621683
    ]
   },
   "properties": {
    "pid": "14101253",
    "name": "영도분식",
    "phone": "02-813-6920",
    "source": "상도동 - 장승배기역 - 영도분식 (잡채떡볶이)",
    "address": "서울 동작구 장승배기로10길 26",
    "website": "http://place.map.daum.net/14101253",
    "category": "떡볶이"
   }
  },
  {
   "type": "Feature",
   "geometry": {
    "type": "Point",
    "coordinates": [
     126.944400481981,
     37.5123872371327
    ]
   },
   "properties": {
    "pid": "27389946",
    "name": "빨봉분식 노량진점",
    "phone": "02-817-8082",
    "source": "노량진동 - 노량진역 - 빨봉분식",
    "address": "서울 동작구 만양로 100",
    "website": "http://place.map.daum.net/27389946",
    "category": "떡볶이"
   }
  },
  {
   "type": "Feature",
   "geometry": {
    "type": "Point",
    "coordinates": [
     126.945138364609,
     37.5118181475205
    ]
   },
   "properties": {
    "pid": "18780677",
    "name": "와우신내떡 노량진점",
    "phone": "02-2631-8484",
    "source": "노량진동 - 노량진역 - 신이 내린 매운 떡볶이",
    "address": "서울 동작구 만양로14가길 3",
    "website": "http://place.map.daum.net/18780677",
    "category": "떡볶이"
   }
  },
  {
   "type": "Feature",
   "geometry": {
    "type": "Point",
    "coordinates": [
     126.965649802539,
     37.5451917891433
    ]
   },
   "properties": {
    "pid": "8301349",
    "name": "달볶이 숙명여대점",
    "phone": "02-715-6137",
    "source": "청파동 - 숙대입구역 - 달볶이",
    "address": "서울 용산구 청파로47길 88",
    "website": "http://place.map.daum.net/8301349",
    "category": "떡볶이"
   }
  },
  {
   "type": "Feature",
   "geometry": {
    "type": "Point",
    "coordinates": [
     126.918181545947,
     37.4630219884237
    ]
   },
   "properties": {
    "pid": "16082879",
    "name": "장수만두김밥",
    "phone": "02-854-9304",
    "source": "난향동 - 신대방역 - 장수만두",
    "address": "서울 관악구 난향길 12",
    "website": "http://place.map.daum.net/16082879",
    "category": "떡볶이"
   }
  },
  {
   "type": "Feature",
   "geometry": {
    "type": "Point",
    "coordinates": [
     126.931362106684,
     37.467081325867
    ]
   },
   "properties": {
    "pid": "17340937",
    "name": "미림분식",
    "phone": "02-888-8567",
    "source": "신림동 - 신림역 - 미림분식",
    "address": "서울 관악구 호암로 553",
    "website": "http://place.map.daum.net/17340937",
    "category": "떡볶이"
   }
  },
  {
   "type": "Feature",
   "geometry": {
    "type": "Point",
    "coordinates": [
     126.882313843059,
     37.4974967389733
    ]
   },
   "properties": {
    "pid": "21404160",
    "name": "하하네매운떡볶이 구로점",
    "phone": "",
    "source": "구로동 - 구로역 - 하하네 매운떡볶이",
    "address": "서울 구로구 구로동로 211",
    "website": "http://place.map.daum.net/21404160",
    "category": "떡볶이"
   }
  },
  {
   "type": "Feature",
   "geometry": {
    "type": "Point",
    "coordinates": [
     126.88550545462208,
     37.488770987089644
    ]
   },
   "properties": {
    "pid": "832462058",
    "name": "칠공주떡볶이",
    "phone": "",
    "source": "구로동 - 남구로역 - 7공주 떡볶이",
    "address": "",
    "website": "http://place.map.daum.net/832462058",
    "category": "떡볶이"
   }
  },
  {
   "type": "Feature",
   "geometry": {
    "type": "Point",
    "coordinates": [
     126.948860505858,
     37.5403203143532
    ]
   },
   "properties": {
    "pid": "8105623",
    "name": "코끼리즉석떡볶이",
    "phone": "02-717-9061",
    "source": "도화동 - 마포역 - 코끼리분식",
    "address": "서울 마포구 도화2길 3",
    "website": "http://place.map.daum.net/8105623",
    "category": "떡볶이"
   }
  },
  {
   "type": "Feature",
   "geometry": {
    "type": "Point",
    "coordinates": [
     126.948797131751,
     37.5403347028892
    ]
   },
   "properties": {
    "pid": "7865809",
    "name": "마포원조떡볶이",
    "phone": "02-719-2005",
    "source": "도화동 - 마포역 - 마포원조떡볶이",
    "address": "서울 마포구 도화2길 3",
    "website": "http://place.map.daum.net/7865809",
    "category": "떡볶이"
   }
  },
  {
   "type": "Feature",
   "geometry": {
    "type": "Point",
    "coordinates": [
     126.94876562964,
     37.5400715972598
    ]
   },
   "properties": {
    "pid": "15883282",
    "name": "다락",
    "phone": "02-706-0519",
    "source": "도화동 - 마포역 - 다락",
    "address": "서울 마포구 도화2길 8",
    "website": "http://place.map.daum.net/15883282",
    "category": "떡볶이"
   }
  },
  {
   "type": "Feature",
   "geometry": {
    "type": "Point",
    "coordinates": [
     126.950692631758,
     37.5417050292014
    ]
   },
   "properties": {
    "pid": "19401137",
    "name": "이서방네",
    "phone": "02-703-3250",
    "source": "도화동 - 마포역 - 이서방네 분식",
    "address": "서울 마포구 도화길 46",
    "website": "http://place.map.daum.net/19401137",
    "category": "떡볶이"
   }
  },
  {
   "type": "Feature",
   "geometry": {
    "type": "Point",
    "coordinates": [
     127.037988101243,
     37.5248785146999
    ]
   },
   "properties": {
    "pid": "13556163",
    "name": "서강쇠떡볶이",
    "phone": "02-542-3312",
    "source": "압구정동 - 압구정로데오역 - 서강쇠떡볶이",
    "address": "서울 강남구 선릉로153길 18",
    "website": "http://place.map.daum.net/13556163",
    "category": "떡볶이"
   }
  },
  {
   "type": "Feature",
   "geometry": {
    "type": "Point",
    "coordinates": [
     127.037635023264,
     37.5246371591244
    ]
   },
   "properties": {
    "pid": "20125427",
    "name": "루비떡볶이",
    "phone": "02-516-7147",
    "source": "압구정동 - 압구정로데오역 - 루비",
    "address": "서울 강남구 선릉로153길 21",
    "website": "http://place.map.daum.net/20125427",
    "category": "떡볶이"
   }
  },
  {
   "type": "Feature",
   "geometry": {
    "type": "Point",
    "coordinates": [
     127.03670145820617,
     37.514849856696365
    ]
   },
   "properties": {
    "pid": "7850629",
    "name": "슈퍼집 논현점",
    "phone": "02-540-1591",
    "source": "논현동 - 강남구청역 - 수퍼집",
    "address": "서울 강남구 언주로130길 14",
    "website": "http://place.map.daum.net/7850629",
    "category": "떡볶이"
   }
  },
  {
   "type": "Feature",
   "geometry": {
    "type": "Point",
    "coordinates": [
     127.037450881828,
     37.52062144900292
    ]
   },
   "properties": {
    "pid": "14711970",
    "name": "압구정변강쇠떡볶이",
    "phone": "02-3443-9978",
    "source": "논현동 - 강남구청역 - 변강쇠떡볶이",
    "address": "서울 강남구 도산대로46길 21",
    "website": "http://place.map.daum.net/14711970",
    "category": "떡볶이"
   }
  },
  {
   "type": "Feature",
   "geometry": {
    "type": "Point",
    "coordinates": [
     127.04706709265,
     37.5059217318685
    ]
   },
   "properties": {
    "pid": "19532843",
    "name": "공수간",
    "phone": "02-2051-7377",
    "source": "논현동 - 논현역 - 공수간",
    "address": "서울 강남구 테헤란로55길 22",
    "website": "http://place.map.daum.net/19532843",
    "category": "떡볶이"
   }
  },
  {
   "type": "Feature",
   "geometry": {
    "type": "Point",
    "coordinates": [
     127.023207031329,
     37.5179770583374
    ]
   },
   "properties": {
    "pid": "14760977",
    "name": "반장즉석떡볶이 신사가로수길점",
    "phone": "02-3444-5377",
    "source": "신사동 - 신사역 - 반장떡볶이",
    "address": "서울 강남구 도산대로 135",
    "website": "http://place.map.daum.net/14760977",
    "category": "떡볶이"
   }
  },
  {
   "type": "Feature",
   "geometry": {
    "type": "Point",
    "coordinates": [
     126.990129307015,
     37.5017536346826
    ]
   },
   "properties": {
    "pid": "10587024",
    "name": "애플하우스",
    "phone": "02-595-1629",
    "source": "반포동 - 구반포역 - 애플하우스",
    "address": "서울 서초구 신반포로 50",
    "website": "http://place.map.daum.net/10587024",
    "category": "떡볶이"
   }
  },
  {
   "type": "Feature",
   "geometry": {
    "type": "Point",
    "coordinates": [
     126.98773111230078,
     37.50220111974396
    ]
   },
   "properties": {
    "pid": "21236775",
    "name": "미소의집",
    "phone": "02-537-0547",
    "source": "반포동 - 이수역 - 미소의집",
    "address": "서울 서초구 신반포로 27-6",
    "website": "http://place.map.daum.net/21236775",
    "category": "떡볶이"
   }
  },
  {
   "type": "Feature",
   "geometry": {
    "type": "Point",
    "coordinates": [
     127.010777073395,
     37.5131782986176
    ]
   },
   "properties": {
    "pid": "26974119",
    "name": "잠원떡볶이",
    "phone": "02-591-4108",
    "source": "잠원동 - 잠원역 - 잠원떡볶이",
    "address": "서울 서초구 잠원로4길 45",
    "website": "http://place.map.daum.net/26974119",
    "category": "떡볶이"
   }
  },
  {
   "type": "Feature",
   "geometry": {
    "type": "Point",
    "coordinates": [
     127.036602541856,
     37.486005981919
    ]
   },
   "properties": {
    "pid": "16060644",
    "name": "그린네은쟁반 양재역본점",
    "phone": "02-571-7500",
    "source": "도곡동 - 양재역 - 그린네 은쟁반",
    "address": "서울 강남구 남부순환로359길 16",
    "website": "http://place.map.daum.net/16060644",
    "category": "떡볶이"
   }
  },
  {
   "type": "Feature",
   "geometry": {
    "type": "Point",
    "coordinates": [
     127.035540112817,
     37.4868820862099
    ]
   },
   "properties": {
    "pid": "14590990",
    "name": "작은공간",
    "phone": "02-3462-3533",
    "source": "도곡동 - 양재역 - 은광여고 작은공간",
    "address": "서울 강남구 남부순환로359길 31",
    "website": "http://place.map.daum.net/14590990",
    "category": "떡볶이"
   }
  },
  {
   "type": "Feature",
   "geometry": {
    "type": "Point",
    "coordinates": [
     127.085999245625,
     37.5090929645248
    ]
   },
   "properties": {
    "pid": "13498957",
    "name": "오렌지분식",
    "phone": "02-420-2245",
    "source": "잠실동 - 신천역 - 오렌지 분식",
    "address": "서울 송파구 석촌호수로12길 3",
    "website": "http://place.map.daum.net/13498957",
    "category": "떡볶이"
   }
  },
  {
   "type": "Feature",
   "geometry": {
    "type": "Point",
    "coordinates": [
     127.08391663287078,
     37.508752711400625
    ]
   },
   "properties": {
    "pid": "26062948",
    "name": "홍코너 새마을시장점",
    "phone": "02-422-0124",
    "source": "잠실동 - 신천역 - 홍코너 떡볶이",
    "address": "서울 송파구 석촌호수로12길 23",
    "website": "http://place.map.daum.net/26062948",
    "category": "떡볶이"
   }
  },
  {
   "type": "Feature",
   "geometry": {
    "type": "Point",
    "coordinates": [
     127.112325823291,
     37.5004716725217
    ]
   },
   "properties": {
    "pid": "8116392",
    "name": "가나안",
    "phone": "02-417-4667",
    "source": "송파동 - 송파역 - 가나안",
    "address": "서울 송파구 송파대로36길 5-13",
    "website": "http://place.map.daum.net/8116392",
    "category": "떡볶이"
   }
  },
  {
   "type": "Feature",
   "geometry": {
    "type": "Point",
    "coordinates": [
     127.112334811109,
     37.5004320197287
    ]
   },
   "properties": {
    "pid": "7867010",
    "name": "모꼬지에",
    "phone": "02-424-6150",
    "source": "송파동 - 송파역 - 모꼬지에",
    "address": "서울 송파구 송파대로36길 5-13",
    "website": "http://place.map.daum.net/7867010",
    "category": "떡볶이"
   }
  },
  {
   "type": "Feature",
   "geometry": {
    "type": "Point",
    "coordinates": [
     127.123489346447,
     37.4890285612452
    ]
   },
   "properties": {
    "pid": "11831381",
    "name": "골목떡볶이",
    "phone": "02-3402-3452",
    "source": "문정동 - 문정역 - 골목떡볶이",
    "address": "서울 송파구 문정로1길 33",
    "website": "http://place.map.daum.net/11831381",
    "category": "떡볶이"
   }
  },
  {
   "type": "Feature",
   "geometry": {
    "type": "Point",
    "coordinates": [
     127.133614268334,
     37.5235007897484
    ]
   },
   "properties": {
    "pid": "11029672",
    "name": "국민떡볶이",
    "phone": "",
    "source": "성내동 - 둔촌동역 - 국민떡볶이",
    "address": "서울 강동구 양재대로83길 14",
    "website": "http://place.map.daum.net/11029672",
    "category": "떡볶이"
   }
  },
  {
   "type": "Feature",
   "geometry": {
    "type": "Point",
    "coordinates": [
     127.133072691386,
     37.5268495232955
    ]
   },
   "properties": {
    "pid": "16617519",
    "name": "셀프하우스 둔촌점",
    "phone": "02-475-3394",
    "source": "성내동 - 강동구청역 - 셀프하우스",
    "address": "서울 강동구 강동대로53길 94",
    "website": "http://place.map.daum.net/16617519",
    "category": "떡볶이"
   }
  },
  {
   "type": "Feature",
   "geometry": {
    "type": "Point",
    "coordinates": [
     127.121903612645,
     37.5318711460347
    ]
   },
   "properties": {
    "pid": "21235700",
    "name": "하얀집",
    "phone": "02-472-5745",
    "source": "성내동 - 강동구청역 - 하얀집",
    "address": "서울 강동구 천호옛길 25",
    "website": "http://place.map.daum.net/21235700",
    "category": "떡볶이"
   }
  },
  {
   "type": "Feature",
   "geometry": {
    "type": "Point",
    "coordinates": [
     127.13598310446386,
     37.53658692577748
    ]
   },
   "properties": {
    "pid": "21855996",
    "name": "모범떡볶이앤수제돈가스 길동점",
    "phone": "02-476-0422",
    "source": "길동 - 강동역 - 모범떡볶이",
    "address": "서울 강동구 진황도로 85",
    "website": "http://place.map.daum.net/21855996",
    "category": "떡볶이"
   }
  },
  {
   "type": "Feature",
   "geometry": {
    "type": "Point",
    "coordinates": [
     127.139340734388,
     37.5369226886832
    ]
   },
   "properties": {
    "pid": "26868197",
    "name": "드럼통즉석떡볶이 길동직영점",
    "phone": "02-403-6699",
    "source": "길동 - 길동역 - 드럼통팩토리",
    "address": "서울 강동구 양재대로 1465",
    "website": "http://place.map.daum.net/26868197",
    "category": "떡볶이"
   }
  },
  {
   "type": "Feature",
   "geometry": {
    "type": "Point",
    "coordinates": [
     127.154839883573,
     37.5513950438376
    ]
   },
   "properties": {
    "pid": "12152173",
    "name": "진이네떡볶이",
    "phone": "02-481-2585",
    "source": "명일동 - 고덕역 - 진이네떡볶이",
    "address": "서울 강동구 동남로71길 23",
    "website": "http://place.map.daum.net/12152173",
    "category": "떡볶이"
   }
  },
  {
   "type": "Feature",
   "geometry": {
    "type": "Point",
    "coordinates": [
     127.143421932815,
     37.5505336950557
    ]
   },
   "properties": {
    "pid": "14585959",
    "name": "꾸러기분식",
    "phone": "02-485-6977",
    "source": "명일동 - 명일역 - 꾸러기분식",
    "address": "서울 강동구 구천면로 404",
    "website": "http://place.map.daum.net/14585959",
    "category": "떡볶이"
   }
  },
  {
   "type": "Feature",
   "geometry": {
    "type": "Point",
    "coordinates": [
     127.152063828325,
     37.4995298027308
    ]
   },
   "properties": {
    "pid": "16877319",
    "name": "버벅이네",
    "phone": "02-407-4516",
    "source": "마천동 - 마천역 - 버벅이네",
    "address": "서울 송파구 성내천로 222",
    "website": "http://place.map.daum.net/16877319",
    "category": "떡볶이"
   }
  }
 ]
}