{"type": "FeatureCollection","features": [
  {"type": "Feature", "geometry": {"type": "Point", "coordinates": [126.828134619221, 37.5378709322354]}, "properties": {"name": "\ucca0\uc774\ub124\ubd84\uc2dd", "address": "\uc11c\uc6b8 \uc591\ucc9c\uad6c \ub0a8\ubd80\uc21c\ud658\ub85c33\uae38 7", "website": "http://place.map.daum.net/21396249", "source": "\uc2e0\uc6d4\ub3d9 - \ud654\uace1\uc5ed - \ucca0\uc774\ub124\ubd84\uc2dd"}}
  ,{"type": "Feature", "geometry": {"type": "Point", "coordinates": [126.944285092628, 37.5884278357389]}, "properties": {"name": "\ubd88\ub09c\uc9d1", "address": "\uc11c\uc6b8 \uc11c\ub300\ubb38\uad6c \ud1b5\uc77c\ub85c 445", "website": "http://place.map.daum.net/27105942", "source": "\ud64d\uc81c\ub3d9 - \ud64d\uc81c\uc5ed - \ubd88\ub09c\uc9d1"}}
  ,{"type": "Feature", "geometry": {"type": "Point", "coordinates": [126.918767222513, 37.623479551194]}, "properties": {"name": "\uac08\ud604\ub3d9\ud560\uba38\ub2c8\ub5a1\ubcf6\uc774", "address": "\uc11c\uc6b8 \uc740\ud3c9\uad6c \ud1b5\uc77c\ub85c87\uae38 8-1", "website": "http://place.map.daum.net/14737337", "source": "\uac08\ud604\ub3d9 - \uc5f0\uc2e0\ub0b4\uc5ed - \uac08\ud604\ub3d9 \ud560\uba38\ub2c8\ub5a1\ubcf6\uc774"}}
  ,{"type": "Feature", "geometry": {"type": "Point", "coordinates": [126.908337574159, 37.615413477616]}, "properties": {"name": "\ud1b5\ub098\ubb34\uc9d1", "address": "\uc11c\uc6b8 \uc740\ud3c9\uad6c \uc11c\uc624\ub989\ub85c 231", "website": "http://place.map.daum.net/13138640", "source": "\uad6c\uc0b0\ub3d9 - \uad6c\uc0b0\uc5ed - \ud1b5\ub098\ubb34\uc9d1"}}
  ,{"type": "Feature", "geometry": {"type": "Point", "coordinates": [126.916579575046, 37.6105506493929]}, "properties": {"name": "\ucf54\uc2a4\ubaa8\uc2a4", "address": "\uc11c\uc6b8 \uc740\ud3c9\uad6c \uc5f0\uc11c\ub85c15\uae38 2", "website": "http://place.map.daum.net/16646821", "source": "\uad6c\uc0b0\ub3d9 - \uad6c\uc0b0\uc5ed - \ucf54\uc2a4\ubaa8\uc2a4 \ubd84\uc2dd"}}
  ,{"type": "Feature", "geometry": {"type": "Point", "coordinates": [126.916579575046, 37.6105506493929]}, "properties": {"name": "\ucf54\uc2a4\ubaa8\uc2a4", "address": "\uc11c\uc6b8 \uc740\ud3c9\uad6c \uc5f0\uc11c\ub85c15\uae38 2", "website": "http://place.map.daum.net/16646821", "source": "\uad6c\uc0b0\ub3d9 - \uad6c\uc0b0\uc5ed - \ucf54\uc2a4\ubaa8\uc2a4 \ubd84\uc2dd"}}
  ,{"type": "Feature", "geometry": {"type": "Point", "coordinates": [126.915728971027, 37.5694179533012]}, "properties": {"name": "\uc2e0\ud765\ub5a1\ubcf6\uc774", "address": "\uc11c\uc6b8 \uc11c\ub300\ubb38\uad6c \uc218\uc0c9\ub85c 28-5", "website": "http://place.map.daum.net/21394113", "source": "\ub0a8\uac00\uc88c\ub3d9 - \uac00\uc88c\uc5ed - \uc2e0\ud765\ub5a1\ubcf6\uc774"}}
  ,{"type": "Feature", "geometry": {"type": "Point", "coordinates": [126.923326729488, 37.5781087204764]}, "properties": {"name": "\uc774\uc815\ud76c\ub5a1\ubcf6\uc774", "address": "\uc11c\uc6b8 \uc11c\ub300\ubb38\uad6c \uc99d\uac00\ub85c10\uae38 14", "website": "http://place.map.daum.net/11902547", "source": "\ub0a8\uac00\uc88c\ub3d9 - \uc99d\uc0b0\uc5ed - \uc774\uc815\ud76c\ub5a1\ubcf6\uc774"}}
  ,{"type": "Feature", "geometry": {"type": "Point", "coordinates": [126.924163620995, 37.5789417794517]}, "properties": {"name": "\uc5c4\ub9c8\uc190\ub5a1\ubcf6\uc774 \ubcf8\uc810", "address": "\uc11c\uc6b8 \uc11c\ub300\ubb38\uad6c \uc99d\uac00\ub85c10\uae38 37", "website": "http://place.map.daum.net/21328592", "source": "\ub0a8\uac00\uc88c\ub3d9 - \uc99d\uc0b0\uc5ed - \uc5c4\ub9c8\uc190\ub5a1\ubcf6\uc774"}}
  ,{"type": "Feature", "geometry": {"type": "Point", "coordinates": [126.924163620995, 37.5789417794517]}, "properties": {"name": "\uc5c4\ub9c8\uc190\ub5a1\ubcf6\uc774 \ubcf8\uc810", "address": "\uc11c\uc6b8 \uc11c\ub300\ubb38\uad6c \uc99d\uac00\ub85c10\uae38 37", "website": "http://place.map.daum.net/21328592", "source": "\ub0a8\uac00\uc88c\ub3d9 - \uc99d\uc0b0\uc5ed - \uc5c4\ub9c8\uc190\ub5a1\ubcf6\uc774"}}
  ,{"type": "Feature", "geometry": {"type": "Point", "coordinates": [126.924049179207, 37.5623201479542]}, "properties": {"name": "\ud3ed\ud48d\uac04\uc9c0\uc2a4\ub0b5 \uc5f0\ub0a8\uc810", "address": "\uc11c\uc6b8 \ub9c8\ud3ec\uad6c \ub3d9\uad50\ub85c39\uae38 4", "website": "http://place.map.daum.net/27272702", "source": "\uc5f0\ub0a8\ub3d9 - \ud64d\ub300\uc785\uad6c\uc5ed - \uc5f0\ub0a8\uc2a4\ub0b5"}}
  ,{"type": "Feature", "geometry": {"type": "Point", "coordinates": [126.92585658072831, 37.55675313644327]}, "properties": {"name": "\uccad\ub144\ub2e4\ubc29 \ud64d\ub300\uc810", "address": "\uc11c\uc6b8 \ub9c8\ud3ec\uad6c \uc591\ud654\ub85c18\uc548\uae38 22", "website": "http://place.map.daum.net/27270739", "source": "\ub3d9\uad50\ub3d9 - \ud64d\ub300\uc785\uad6c\uc5ed - \uccad\ub144\ub2e4\ubc29"}}
  ,{"type": "Feature", "geometry": {"type": "Point", "coordinates": [126.921381512661, 37.5504000096211]}, "properties": {"name": "\ud64d\ub300\uc870\ud3ed\ub5a1\ubcf6\uc774", "address": "\uc11c\uc6b8 \ub9c8\ud3ec\uad6c \uc5b4\uc6b8\ub9c8\ub2f9\ub85c 60", "website": "http://place.map.daum.net/11731505", "source": "\uc11c\uad50\ub3d9 - \ud64d\ub300\uc785\uad6c\uc5ed - \uc870\ud3ed\ub5a1\ubcf6\uc774"}}
  ,{"type": "Feature", "geometry": {"type": "Point", "coordinates": [126.921217355443, 37.551538761818]}, "properties": {"name": "\ubbf8\ubbf8\ub124 \ud64d\ub300\ubcf8\uc810", "address": "\uc11c\uc6b8 \ub9c8\ud3ec\uad6c \uc794\ub2e4\ub9ac\ub85c2\uae38 24", "website": "http://place.map.daum.net/27454468", "source": "\uc11c\uad50\ub3d9 - \ud64d\ub300\uc785\uad6c\uc5ed - \ubbf8\ubbf8\ub124"}}
  ,{"type": "Feature", "geometry": {"type": "Point", "coordinates": [126.924414771106, 37.5589506551078]}, "properties": {"name": "\ub610\ubcf4\uaca0\uc9c0\ub5a1\ubcf6\uc774\uc9d1 \ubd95\ubd95\ud5c8\ub2c8\ube44\uc810", "address": "\uc11c\uc6b8 \ub9c8\ud3ec\uad6c \uc591\ud654\ub85c19\uae38 22-25", "website": "http://place.map.daum.net/763211643", "source": "\uc11c\uad50\ub3d9 - \ud64d\ub300\uc785\uad6c\uc5ed, \ud569\uc815\uc5ed - \ub610\ubcf4\uaca0\uc9c0\ub5a1\ubcf6\uc774"}}
  ,{"type": "Feature", "geometry": {"type": "Point", "coordinates": [126.922796239572, 37.5480547433048]}, "properties": {"name": "\uae40\uc0ac\ub610 \uc0c1\uc218\ubcf8\uc810", "address": "\uc11c\uc6b8 \ub9c8\ud3ec\uad6c \uc640\uc6b0\uc0b0\ub85c 39", "website": "http://place.map.daum.net/23579045", "source": "\uc0c1\uc218\ub3d9 - \uc0c1\uc218\uc5ed - \uae40\uc0ac\ub610"}}
  ,{"type": "Feature", "geometry": {"type": "Point", "coordinates": [126.922796239572, 37.5480547433048]}, "properties": {"name": "\uae40\uc0ac\ub610 \uc0c1\uc218\ubcf8\uc810", "address": "\uc11c\uc6b8 \ub9c8\ud3ec\uad6c \uc640\uc6b0\uc0b0\ub85c 39", "website": "http://place.map.daum.net/23579045", "source": "\uc0c1\uc218\ub3d9 - \uc0c1\uc218\uc5ed - \uae40\uc0ac\ub610"}}
  ,{"type": "Feature", "geometry": {"type": "Point", "coordinates": [126.963613686875, 37.5623209505437]}, "properties": {"name": "\ucca0\uae38\ub5a1\ubcf6\uc774", "address": "", "website": "http://place.map.daum.net/25880887", "source": "\ucda9\uc815\ub85c3\uac00 - \ucda9\uc815\ub85c\uc5ed - \ucca0\uae38\ub5a1\ubcf6\uc774"}}
  ,{"type": "Feature", "geometry": {"type": "Point", "coordinates": [126.963613686875, 37.5623209505437]}, "properties": {"name": "\ucca0\uae38\ub5a1\ubcf6\uc774", "address": "", "website": "http://place.map.daum.net/25880887", "source": "\ucda9\uc815\ub85c3\uac00 - \ucda9\uc815\ub85c\uc5ed - \ucca0\uae38\ub5a1\ubcf6\uc774"}}
  ,{"type": "Feature", "geometry": {"type": "Point", "coordinates": [126.970343097044, 37.5806995299]}, "properties": {"name": "\uc6d0\uc870\ud560\uba38\ub2c8\ub5a1\ubcf6\uc774", "address": "\uc11c\uc6b8 \uc885\ub85c\uad6c \uc790\ud558\ubb38\ub85c15\uae38 11", "website": "http://place.map.daum.net/11807397", "source": "\ud1b5\uc778\ub3d9 - \uacbd\ubcf5\uad81\uc5ed - \uc6d0\uc870\ud560\uba38\ub2c8 \ub5a1\ubcf6\uc774\uc9d1"}}
  ,{"type": "Feature", "geometry": {"type": "Point", "coordinates": [126.970343097044, 37.5806995299]}, "properties": {"name": "\uc6d0\uc870\ud560\uba38\ub2c8\ub5a1\ubcf6\uc774", "address": "\uc11c\uc6b8 \uc885\ub85c\uad6c \uc790\ud558\ubb38\ub85c15\uae38 11", "website": "http://place.map.daum.net/11807397", "source": "\ud1b5\uc778\ub3d9 - \uacbd\ubcf5\uad81\uc5ed - \uc6d0\uc870\ud560\uba38\ub2c8 \ub5a1\ubcf6\uc774\uc9d1"}}
  ,{"type": "Feature", "geometry": {"type": "Point", "coordinates": [126.96909915363, 37.577351117107]}, "properties": {"name": "\ub9cc\ub098\ubd84\uc2dd", "address": "\uc11c\uc6b8 \uc885\ub85c\uad6c \ud544\uc6b4\ub300\ub85c1\uae38 4", "website": "http://place.map.daum.net/7865900", "source": "\ud544\uc6b4\ub3d9 - \uacbd\ubcf5\uad81\uc5ed - \ub9cc\ub098\ubd84\uc2dd"}}
  ,{"type": "Feature", "geometry": {"type": "Point", "coordinates": [126.966964763954, 37.5809256832267]}, "properties": {"name": "\ub0a8\ub3c4\ubd84\uc2dd", "address": "\uc11c\uc6b8 \uc885\ub85c\uad6c \uc625\uc7782\uae38 2", "website": "http://place.map.daum.net/18643183", "source": "\ub204\uc0c1\ub3d9 - \uacbd\ubcf5\uad81\uc5ed - \ub0a8\ub3c4\ubd84\uc2dd"}}
  ,{"type": "Feature", "geometry": {"type": "Point", "coordinates": [126.96865235330233, 37.579180017367534]}, "properties": {"name": "\uc1a1\uc2a4\ud0a4\uce5c \uacbd\ubcf5\uad81\uc810", "address": "\uc11c\uc6b8 \uc885\ub85c\uad6c \ud544\uc6b4\ub300\ub85c 35-3", "website": "http://place.map.daum.net/15109504", "source": "\ub204\ud558\ub3d9 - \uacbd\ubcf5\uad81\uc5ed - \uc1a1\uc2a4\ud0a4\uce5c"}}
  ,{"type": "Feature", "geometry": {"type": "Point", "coordinates": [126.98250692268, 37.5790981900259]}, "properties": {"name": "\uba39\uc26c\ub3c8\ub098 \uc0bc\uccad\ub3d9\uc810", "address": "\uc11c\uc6b8 \uc885\ub85c\uad6c \uc728\uace1\ub85c3\uae38 74-7", "website": "http://place.map.daum.net/11082648", "source": "\uc0bc\uccad\ub3d9 - \uc548\uad6d\uc5ed - \uba39\uc26c\ub3c8\ub098"}}
  ,{"type": "Feature", "geometry": {"type": "Point", "coordinates": [126.981704949576, 37.5809469078875]}, "properties": {"name": "\ud48d\ub144\uc300\ub18d\uc0b0", "address": "\uc11c\uc6b8 \uc885\ub85c\uad6c \ubd81\ucd0c\ub85c5\uac00\uae38 32", "website": "http://place.map.daum.net/13284345", "source": "\uc0bc\uccad\ub3d9 - \uc548\uad6d\uc5ed - \ud48d\ub144\uc300\ub18d\uc0b0"}}
  ,{"type": "Feature", "geometry": {"type": "Point", "coordinates": [126.98224895898845, 37.57845303976659]}, "properties": {"name": "\ub2ed\uce7c", "address": "\uc11c\uc6b8 \uc885\ub85c\uad6c \uc728\uace1\ub85c3\uae38 64", "website": "http://place.map.daum.net/26875954", "source": "\uc0bc\uccad\ub3d9 - \uc548\uad6d\uc5ed - \ub3c4\ud1a0\ub9ac"}}
  ,{"type": "Feature", "geometry": {"type": "Point", "coordinates": [126.98486624613187, 37.579855951474045]}, "properties": {"name": "\uba85\ud488\uc0bc\uccad\ub3d9\ub5a1\ubcf6\uc774", "address": "\uc11c\uc6b8 \uc885\ub85c\uad6c \ubd81\ucd0c\ub85c 33-2", "website": "http://place.map.daum.net/1643224226", "source": "\uc0bc\uccad\ub3d9 - \uc548\uad6d\uc5ed - \uba85\ud488\uc0bc\uccad\ub3d9\ub5a1\ubcf6\uc774"}}
  ,{"type": "Feature", "geometry": {"type": "Point", "coordinates": [126.98486624613187, 37.579855951474045]}, "properties": {"name": "\uba85\ud488\uc0bc\uccad\ub3d9\ub5a1\ubcf6\uc774", "address": "\uc11c\uc6b8 \uc885\ub85c\uad6c \ubd81\ucd0c\ub85c 33-2", "website": "http://place.map.daum.net/1643224226", "source": "\uc0bc\uccad\ub3d9 - \uc548\uad6d\uc5ed - \uba85\ud488\uc0bc\uccad\ub3d9\ub5a1\ubcf6\uc774"}}
  ,{"type": "Feature", "geometry": {"type": "Point", "coordinates": [126.985800412599, 37.5718942795488]}, "properties": {"name": "\ub5a1\uc2f8\ub871 \uc778\uc0ac\ub3d9\uc810", "address": "\uc11c\uc6b8 \uc885\ub85c\uad6c \uc778\uc0ac\ub3d93\uae38 16", "website": "http://place.map.daum.net/25453767", "source": "\uc778\uc0ac\ub3d9 - \uc885\uac01\uc5ed - \ub5a1\uc2f8\ub871"}}
  ,{"type": "Feature", "geometry": {"type": "Point", "coordinates": [126.985705421135, 37.5713969187569]}, "properties": {"name": "\ub2e4\ub77d\ucfe1", "address": "\uc11c\uc6b8 \uc885\ub85c\uad6c \uc885\ub85c11\uae38 22-1", "website": "http://place.map.daum.net/26874296", "source": "\uc885\ub85c1\uac00 - \uc885\uac01\uc5ed - \ub2e4\ub77d\ub5a1\ubcf6\uc774"}}
  ,{"type": "Feature", "geometry": {"type": "Point", "coordinates": [127.00163922353256, 37.58221321920418]}, "properties": {"name": "\uc625\uc774\ubaa8\uae7b\uc78e\ub5a1\ubcf6\uc774", "address": "\uc11c\uc6b8 \uc885\ub85c\uad6c \ub300\ud559\ub85c 123-1", "website": "http://place.map.daum.net/215290061", "source": "\ud61c\ud654\ub3d9 - \ud61c\ud654\uc5ed - \uc625\uc774\ubaa8\ub5a1\ubcf6\uc774"}}
  ,{"type": "Feature", "geometry": {"type": "Point", "coordinates": [126.997885122103, 37.5837305746825]}, "properties": {"name": "\ub098\ub204\ubbf8\ub5a1\ubcf6\uc774 \uc131\ub300\ubcf8\uc810", "address": "\uc11c\uc6b8 \uc885\ub85c\uad6c \uc131\uade0\uad00\ub85c 9-1", "website": "http://place.map.daum.net/10199904", "source": "\ud61c\ud654\ub3d9 - \ud61c\ud654\uc5ed - \ub098\ub204\ubbf8\ub5a1\ubcf6\uc774 (HOT \ub5a1\ubcf6\uc774)"}}
  ,{"type": "Feature", "geometry": {"type": "Point", "coordinates": [127.001172905072, 37.5828151785186]}, "properties": {"name": "\ud61c\ud654\ub3cc\uc1e0\uc544\uc800\uc528", "address": "\uc11c\uc6b8 \uc885\ub85c\uad6c \ub300\ud559\ub85c 129-10", "website": "http://place.map.daum.net/8624124", "source": "\uba85\ub95c\ub3d9 - \ud61c\ud654\uc5ed - \ud61c\ud654\ub3cc\uc1e0\uc544\uc800\uc528"}}
  ,{"type": "Feature", "geometry": {"type": "Point", "coordinates": [126.997885122103, 37.5837305746825]}, "properties": {"name": "\ub098\ub204\ubbf8\ub5a1\ubcf6\uc774 \uc131\ub300\ubcf8\uc810", "address": "\uc11c\uc6b8 \uc885\ub85c\uad6c \uc131\uade0\uad00\ub85c 9-1", "website": "http://place.map.daum.net/10199904", "source": "\uba85\ub95c\ub3d9 - \ud61c\ud654\uc5ed - 88\ub5a1\ubcf6\uc774"}}
  ,{"type": "Feature", "geometry": {"type": "Point", "coordinates": [127.003255796729, 37.5768397478035]}, "properties": {"name": "\uc120\ub2e4\ub798\ubd84\uc2dd", "address": "\uc11c\uc6b8 \uc885\ub85c\uad6c \uc774\ud654\uc7a5\uae38 14", "website": "http://place.map.daum.net/12435366", "source": "\uc774\ud654\ub3d9 - \ud61c\ud654\uc5ed - \uc120\ub2e4\ub798\ubd84\uc2dd"}}
  ,{"type": "Feature", "geometry": {"type": "Point", "coordinates": [127.01567174526, 37.5962677628461]}, "properties": {"name": "\uc300\ub5a1\ubcf6\uc774\ub098\ub77c \ub3c8\uc554\uc810", "address": "\uc11c\uc6b8 \uc131\ubd81\uad6c \uc544\ub9ac\ub791\ub85c 38", "website": "http://place.map.daum.net/15725260", "source": "\ub3d9\uc120\ub3d9 - \uc131\uc2e0\uc5ec\ub300\uc785\uad6c\uc5ed - \uc300\ub5a1\ubcf6\uc774\ub098\ub77c"}}
  ,{"type": "Feature", "geometry": {"type": "Point", "coordinates": [127.047210121544, 37.5821209887251]}, "properties": {"name": "\ub9e4\ucf64\ub2ec\ucf64", "address": "\uc11c\uc6b8 \ub3d9\ub300\ubb38\uad6c \uc655\uc0b0\ub85c 225", "website": "http://place.map.daum.net/15606757", "source": "\uccad\ub7c9\ub9ac\ub3d9 - \uccad\ub7c9\ub9ac\uc5ed - \ub9e4\ucf64\ub2ec\ucf64"}}
  ,{"type": "Feature", "geometry": {"type": "Point", "coordinates": [127.02928912655196, 37.584000861903704]}, "properties": {"name": "\uc720\uc790\uc720\uae40\uce58\ub5a1\ubcf6\uc774 \ubcf8\uc810", "address": "\uc11c\uc6b8 \uc131\ubd81\uad6c \uc778\ucd0c\ub85c24\uae38 48", "website": "http://place.map.daum.net/14512484", "source": "\uc548\uc554\ub3d9 - \uc548\uc554\uc5ed - \uc720\uc790\uc720"}}
  ,{"type": "Feature", "geometry": {"type": "Point", "coordinates": [127.029094482147, 37.6133083454134]}, "properties": {"name": "\uc81c\uc77c\ubd84\uc2dd", "address": "\uc11c\uc6b8 \uac15\ubd81\uad6c \ub3c4\ubd09\ub85c 45", "website": "http://place.map.daum.net/16624169", "source": "\ubbf8\uc544\ub3d9 - \ubbf8\uc544\uc0bc\uac70\ub9ac\uc5ed - \uc81c\uc77c\ubd84\uc2dd"}}
  ,{"type": "Feature", "geometry": {"type": "Point", "coordinates": [127.017055282216, 37.625164095934]}, "properties": {"name": "\uc0bc\uc591\uc2dc\uc7a5\ub5a1\ubcf6\uc774\uc21c\ub300", "address": "\uc11c\uc6b8 \uac15\ubd81\uad6c \uc194\ub9e4\ub85c 46", "website": "http://place.map.daum.net/506487871", "source": "\ubbf8\uc544\ub3d9 - \ubbf8\uc544\uc5ed - \uc0bc\uc591\uc2dc\uc7a5\ub5a1\ubcf6\uc774"}}
  ,{"type": "Feature", "geometry": {"type": "Point", "coordinates": [127.023464564256, 37.6034023182646]}, "properties": {"name": "\ubd88\ub09c\uc9d1", "address": "\uc11c\uc6b8 \uc131\ubd81\uad6c \ub3d9\uc18c\ubb38\ub85c 241-1", "website": "http://place.map.daum.net/11962375", "source": "\uae38\uc74c\ub3d9 - \uae38\uc74c\uc5ed - \ubd88\ub09c\uc9d1"}}
  ,{"type": "Feature", "geometry": {"type": "Point", "coordinates": [127.023464564256, 37.6034023182646]}, "properties": {"name": "\ubd88\ub09c\uc9d1", "address": "\uc11c\uc6b8 \uc131\ubd81\uad6c \ub3d9\uc18c\ubb38\ub85c 241-1", "website": "http://place.map.daum.net/11962375", "source": "\uae38\uc74c\ub3d9 - \uae38\uc74c\uc5ed - \ubd88\ub09c\uc9d1"}}
  ,{"type": "Feature", "geometry": {"type": "Point", "coordinates": [127.034789364658, 37.652449229007]}, "properties": {"name": "\ud638\ud638\ubd84\uc2dd", "address": "\uc11c\uc6b8 \ub3c4\ubd09\uad6c \ub3c4\ubd09\ub85c121\uae38 32", "website": "http://place.map.daum.net/21392443", "source": "\uc30d\ubb38\ub3d9 - \uc30d\ubb38\uc5ed - \ud638\ud638\ubd84\uc2dd"}}
  ,{"type": "Feature", "geometry": {"type": "Point", "coordinates": [127.06085847436401, 37.655949849395064]}, "properties": {"name": "\uc601\uc2a4\ub125", "address": "\uc11c\uc6b8 \ub178\uc6d0\uad6c \uc0c1\uacc4\ub85c 51", "website": "http://place.map.daum.net/17079123", "source": "\uc911\uacc4\ub3d9 - \ub178\uc6d0\uc5ed - \uc601\uc2a4\ub0b5"}}
  ,{"type": "Feature", "geometry": {"type": "Point", "coordinates": [127.06086301882551, 37.65596426270578]}, "properties": {"name": "\ubbf8\ub3c4\ubd84\uc2dd", "address": "\uc11c\uc6b8 \ub178\uc6d0\uad6c \uc0c1\uacc4\ub85c 51", "website": "http://place.map.daum.net/20749023", "source": "\uc911\uacc4\ub3d9 - \ub178\uc6d0\uc5ed - \ubbf8\ub3c4\ubd84\uc2dd"}}
  ,{"type": "Feature", "geometry": {"type": "Point", "coordinates": [127.103395744563, 37.6017123494922]}, "properties": {"name": "\ud64d\uc774\ub124\ub5a1\ubcf6\uc774", "address": "\uc11c\uc6b8 \uc911\ub791\uad6c \ub9dd\uc6b0\ub85c73\uae38 26", "website": "http://place.map.daum.net/16061905", "source": "\ub9dd\uc6b0\ub3d9 - \ub9dd\uc6b0\uc5ed - \ud64d\uc774\ub124\ubd84\uc2dd"}}
  ,{"type": "Feature", "geometry": {"type": "Point", "coordinates": [127.103083750214, 37.6021162659992]}, "properties": {"name": "\uacbd\uc0c1\ub3c4\ub5a1\ubcf6\uc774", "address": "\uc11c\uc6b8 \uc911\ub791\uad6c \ub9dd\uc6b0\ub85c71\uae38 36-17", "website": "http://place.map.daum.net/21396462", "source": "\ub9dd\uc6b0\ub3d9 - \ub9dd\uc6b0\uc5ed - \uacbd\uc0c1\ub3c4\ub5a1\ubcf6\uc774"}}
  ,{"type": "Feature", "geometry": {"type": "Point", "coordinates": [127.103083750214, 37.6021162659992]}, "properties": {"name": "\uacbd\uc0c1\ub3c4\ub5a1\ubcf6\uc774", "address": "\uc11c\uc6b8 \uc911\ub791\uad6c \ub9dd\uc6b0\ub85c71\uae38 36-17", "website": "http://place.map.daum.net/21396462", "source": "\ub9dd\uc6b0\ub3d9 - \ub9dd\uc6b0\uc5ed - \uacbd\uc0c1\ub3c4\ub5a1\ubcf6\uc774"}}
  ,{"type": "Feature", "geometry": {"type": "Point", "coordinates": [127.09049444492, 37.5525611082502]}, "properties": {"name": "\uc2e0\ud1a0\ubd88\uc774\ub5a1\ubcf6\uc774", "address": "\uc11c\uc6b8 \uad11\uc9c4\uad6c \uc790\uc591\ub85c43\uae38 42", "website": "http://place.map.daum.net/13319252", "source": "\uad6c\uc758\ub3d9 - \uc544\ucc28\uc0b0\uc5ed - \uc2e0\ud1a0\ubd88\uc774"}}
  ,{"type": "Feature", "geometry": {"type": "Point", "coordinates": [127.07232485191693, 37.54813531833237]}, "properties": {"name": "\uc740\ud61c\uc989\uc11d\ub5a1\ubcf6\uc774", "address": "\uc11c\uc6b8 \uad11\uc9c4\uad6c \uad11\ub098\ub8e8\ub85c 381-1", "website": "http://place.map.daum.net/11354357", "source": "\ud654\uc591\ub3d9 - \uc5b4\ub9b0\uc774\ub300\uacf5\uc6d0\uc5ed - \uc740\ud61c\uc989\uc11d\ub5a1\ubcf6\uc774"}}
  ,{"type": "Feature", "geometry": {"type": "Point", "coordinates": [127.069146685137, 37.5432303818235]}, "properties": {"name": "\uc544\ucc0c\ub5a1\ubcf6\uc774", "address": "\uc11c\uc6b8 \uad11\uc9c4\uad6c \uc544\ucc28\uc0b0\ub85c29\uae38 53", "website": "http://place.map.daum.net/19238595", "source": "\ud654\uc591\ub3d9 - \uac74\ub300\uc785\uad6c\uc5ed - \uc544\ucc0c\ub5a1\ubcf6\uc774"}}
  ,{"type": "Feature", "geometry": {"type": "Point", "coordinates": [127.069518482116, 37.5439293389752]}, "properties": {"name": "\uaf3d\uc0ac\ub9ac \uac74\ub300\ubcf8\uc810", "address": "\uc11c\uc6b8 \uad11\uc9c4\uad6c \uc544\ucc28\uc0b0\ub85c29\uae38 71", "website": "http://place.map.daum.net/914293828", "source": "\ud654\uc591\ub3d9 - \uac74\ub300\uc785\uad6c\uc5ed - \uaf3d\uc0ac\ub9ac\ub5a1\ubcf6\uc774"}}
  ,{"type": "Feature", "geometry": {"type": "Point", "coordinates": [127.06738786259852, 37.54027612001135]}, "properties": {"name": "\ubc14\ub098\ubc14\ub098 \uac74\ub300\ubcf8\uc810", "address": "\uc11c\uc6b8 \uad11\uc9c4\uad6c \ub3d9\uc77c\ub85c20\uae38 72", "website": "http://place.map.daum.net/19774860", "source": "\uc790\uc591\ub3d9 - \uac74\ub300\uc785\uad6c\uc5ed - \ubc14\ub098\ubc14\ub098"}}
  ,{"type": "Feature", "geometry": {"type": "Point", "coordinates": [127.064904242533, 37.5363960026963]}, "properties": {"name": "\ub178\ub8ec\uc0b0\ubd84\uc2dd\uc810", "address": "\uc11c\uc6b8 \uad11\uc9c4\uad6c \ub69d\uc12c\ub85c 491", "website": "http://place.map.daum.net/27232173", "source": "\uc790\uc591\ub3d9 - \ub69d\uc12c\uc720\uc6d0\uc9c0\uc5ed - \ub178\ub8ec\uc0b0\ubd84\uc2dd"}}
  ,{"type": "Feature", "geometry": {"type": "Point", "coordinates": [127.064904242533, 37.5363960026963]}, "properties": {"name": "\ub178\ub8ec\uc0b0\ubd84\uc2dd\uc810", "address": "\uc11c\uc6b8 \uad11\uc9c4\uad6c \ub69d\uc12c\ub85c 491", "website": "http://place.map.daum.net/27232173", "source": "\uc790\uc591\ub3d9 - \ub69d\uc12c\uc720\uc6d0\uc9c0\uc5ed - \ub178\ub8ec\uc0b0\ubd84\uc2dd"}}
  ,{"type": "Feature", "geometry": {"type": "Point", "coordinates": [127.085398905473, 37.5420520515618]}, "properties": {"name": "\ud06c\ub808\ud30c\uc2a4\ubd84\uc2dd", "address": "\uc11c\uc6b8 \uad11\uc9c4\uad6c \uc790\uc591\ub85c28\uae38 22", "website": "http://place.map.daum.net/16560934", "source": "\uad6c\uc758\ub3d9 - \uad6c\uc758\uc5ed - \ud06c\ub808\ud30c\uc2a4\ubd84\uc2dd"}}
  ,{"type": "Feature", "geometry": {"type": "Point", "coordinates": [127.085525686215, 37.5420952077803]}, "properties": {"name": "\ubaa8\ub450\ub791", "address": "\uc11c\uc6b8 \uad11\uc9c4\uad6c \uc790\uc591\ub85c28\uae38 24", "website": "http://place.map.daum.net/15188115", "source": "\uad6c\uc758\ub3d9 - \uad6c\uc758\uc5ed - \ubaa8\ub450\ub791"}}
  ,{"type": "Feature", "geometry": {"type": "Point", "coordinates": [127.043833846637, 37.5469365876302]}, "properties": {"name": "\ubd84\uc2dd\ube44\uc2a4\ud2b8\ub85c\ub69d\ub5a1", "address": "\uc11c\uc6b8 \uc131\ub3d9\uad6c \uc11c\uc6b8\uc2324\uae38 28", "website": "http://place.map.daum.net/2001235320", "source": "\uc131\uc218\ub3d9 - \ub69d\uc12c\uc5ed - \ub69d\ub5a1"}}
  ,{"type": "Feature", "geometry": {"type": "Point", "coordinates": [127.044879254796, 37.546611835326]}, "properties": {"name": "\uc11c\uc6b8\uc2a4\ub0b5", "address": "\uc11c\uc6b8 \uc131\ub3d9\uad6c \uc655\uc2ed\ub9ac\ub85c 102", "website": "http://place.map.daum.net/27220217", "source": "\uc131\uc218\ub3d9 - \ub69d\uc12c\uc5ed - \uc11c\uc6b8\uc2a4\ub0b5"}}
  ,{"type": "Feature", "geometry": {"type": "Point", "coordinates": [127.041044045933, 37.5606615893525]}, "properties": {"name": "\uc545\uc5b4\ub5a1\ubcf6\uc774", "address": "\uc11c\uc6b8 \uc131\ub3d9\uad6c \ub9c8\uc870\ub85c 33", "website": "http://place.map.daum.net/11101743", "source": "\ud589\ub2f9\ub3d9 - \uc655\uc2ed\ub9ac\uc5ed - \uc545\uc5b4\ub5a1\ubcf6\uc774"}}
  ,{"type": "Feature", "geometry": {"type": "Point", "coordinates": [127.041044045933, 37.5606615893525]}, "properties": {"name": "\uc545\uc5b4\ub5a1\ubcf6\uc774", "address": "\uc11c\uc6b8 \uc131\ub3d9\uad6c \ub9c8\uc870\ub85c 33", "website": "http://place.map.daum.net/11101743", "source": "\ud589\ub2f9\ub3d9 - \uc655\uc2ed\ub9ac\uc5ed - \uc545\uc5b4\ub5a1\ubcf6\uc774"}}
  ,{"type": "Feature", "geometry": {"type": "Point", "coordinates": [127.012372760252, 37.55937063961]}, "properties": {"name": "\uc6d0\uc870\uc9dc\uc7a5\ub5a1\ubcf5\uc774", "address": "\uc11c\uc6b8 \uc911\uad6c \ub3d9\ud638\ub85c12\uae38 96", "website": "http://place.map.daum.net/21325635", "source": "\uc2e0\ub2f9\ub3d9 - \uccad\uad6c\uc5ed - \uc6d0\uc870\uc9dc\uc7a5\ub5a1\ubcf6\uc774"}}
  ,{"type": "Feature", "geometry": {"type": "Point", "coordinates": [127.016873353939, 37.5619649530894]}, "properties": {"name": "\uc6d0\uc870\uc9c4\ubbf8\ub5a1\ubcf6\uc774", "address": "\uc11c\uc6b8 \uc911\uad6c \ub2e4\uc0b0\ub85c36\uae38 36", "website": "http://place.map.daum.net/12506676", "source": "\uc2e0\ub2f9\ub3d9 - \uccad\uad6c\uc5ed - \uc9c4\ubbf8\ub5a1\ubcf6\uc774"}}
  ,{"type": "Feature", "geometry": {"type": "Point", "coordinates": [127.01554883708786, 37.56609620309695]}, "properties": {"name": "\ub3d9\ub300\ubb38\uc5fd\uae30\ub5a1\ubcf6\uc774 \ub3d9\ub300\ubb38\ubcf8\uc810", "address": "\uc11c\uc6b8 \uc911\uad6c \ud1f4\uacc4\ub85c75\uae38 15", "website": "http://place.map.daum.net/1070303617", "source": "\ud765\uc778\ub3d9 - \uc2e0\ub2f9\uc5ed - \ub3d9\ub300\ubb38\uc5fd\uae30\ub5a1\ubcf6\uc774"}}
  ,{"type": "Feature", "geometry": {"type": "Point", "coordinates": [127.015130598493, 37.5632806442408]}, "properties": {"name": "\uc2e0\ub2f9\ub3d9 \ub9c8\ubcf5\ub9bc\ub5a1\ubcf6\uc774\uc9d1", "address": "\uc11c\uc6b8 \uc911\uad6c \ub2e4\uc0b0\ub85c35\uae38 5", "website": "http://place.map.daum.net/25036918", "source": "\uc2e0\ub2f9\ub3d9 - \uc2e0\ub2f9\uc5ed - \ub9c8\ubcf5\ub9bc\ub5a1\ubcf6\uc774"}}
  ,{"type": "Feature", "geometry": {"type": "Point", "coordinates": [127.014913183763, 37.5627833218483]}, "properties": {"name": "\uc6b0\uc815", "address": "\uc11c\uc6b8 \uc911\uad6c \ud1f4\uacc4\ub85c76\uae38 55", "website": "http://place.map.daum.net/27388900", "source": "\uc2e0\ub2f9\ub3d9 - \uc2e0\ub2f9\uc5ed - \uc6b0\uc815"}}
  ,{"type": "Feature", "geometry": {"type": "Point", "coordinates": [127.014827272861, 37.5633347425102]}, "properties": {"name": "\uc544\uc774\ub7ec\ube0c\uc2e0\ub2f9\ub3d9", "address": "\uc11c\uc6b8 \uc911\uad6c \ud1f4\uacc4\ub85c76\uae38 50", "website": "http://place.map.daum.net/7992623", "source": "\uc2e0\ub2f9\ub3d9 - \uc2e0\ub2f9\uc5ed - \uc544\uc774\ub7ec\ube0c\uc2e0\ub2f9"}}
  ,{"type": "Feature", "geometry": {"type": "Point", "coordinates": [127.015039942378, 37.5627436619221]}, "properties": {"name": "\uc2e0\ub2f9\ub3d9 \uc6d0\uc870\uc885\uc810\ub5a1\ubcf6\uc774", "address": "\uc11c\uc6b8 \uc911\uad6c \ub2e4\uc0b0\ub85c 217-1", "website": "http://place.map.daum.net/16268317", "source": "\uc2e0\ub2f9\ub3d9 - \uc2e0\ub2f9\uc5ed - \uc885\uc810\ub5a1\ubcf6\uc774"}}
  ,{"type": "Feature", "geometry": {"type": "Point", "coordinates": [127.01493579619, 37.5626607834625]}, "properties": {"name": "\uc6b0\ub9ac\uc9d1\ub5a1\ubcf6\uc774", "address": "\uc11c\uc6b8 \uc911\uad6c \ub2e4\uc0b0\ub85c 217-1", "website": "http://place.map.daum.net/27234119", "source": "\uc2e0\ub2f9\ub3d9 - \uc2e0\ub2f9\uc5ed - \uc6b0\ub9ac\uc9d1\ub5a1\ubcf6\uc774"}}
  ,{"type": "Feature", "geometry": {"type": "Point", "coordinates": [127.0147547433, 37.562873441406]}, "properties": {"name": "\uc2e0\ub2f9\ub3d9\ub5a1\ubcf6\uc774 \uc0bc\ub300\ud560\uba3c\ub124", "address": "\uc11c\uc6b8 \uc911\uad6c \ud1f4\uacc4\ub85c76\uae38 54", "website": "http://place.map.daum.net/10439711", "source": "\uc2e0\ub2f9\ub3d9 - \uc2e0\ub2f9\uc5ed - \uc0bc\ub300\ud560\uba3c\ub124"}}
  ,{"type": "Feature", "geometry": {"type": "Point", "coordinates": [127.014727508054, 37.5625130461949]}, "properties": {"name": "\ub4e4\uad6d\ud654\ub5a1\ubcf6\uc774", "address": "\uc11c\uc6b8 \uc911\uad6c \ud1f4\uacc4\ub85c76\uae38 61", "website": "http://place.map.daum.net/23493648", "source": "\uc2e0\ub2f9\ub3d9 - \uc2e0\ub2f9\uc5ed - \ub4e4\uad6d\ud654"}}
  ,{"type": "Feature", "geometry": {"type": "Point", "coordinates": [127.014727508054, 37.5625130461949]}, "properties": {"name": "\ub4e4\uad6d\ud654\ub5a1\ubcf6\uc774", "address": "\uc11c\uc6b8 \uc911\uad6c \ud1f4\uacc4\ub85c76\uae38 61", "website": "http://place.map.daum.net/23493648", "source": "\uc2e0\ub2f9\ub3d9 - \uc2e0\ub2f9\uc5ed - \ub4e4\uad6d\ud654"}}
  ,{"type": "Feature", "geometry": {"type": "Point", "coordinates": [127.0005610732118, 37.534972145949745]}, "properties": {"name": "\ubc14\ubc14\ub77c\uc2a4\ud0a4\uce5c", "address": "\uc11c\uc6b8 \uc6a9\uc0b0\uad6c \ub300\uc0ac\uad00\ub85c5\uae38 17", "website": "http://place.map.daum.net/21329787", "source": "\ud55c\ub0a8\ub3d9 - \ud55c\uac15\uc9c4\uc5ed - \ubc14\ubc14\ub77c\uc2a4\ud0a4\uce5c"}}
  ,{"type": "Feature", "geometry": {"type": "Point", "coordinates": [127.008372373532, 37.5334979031489]}, "properties": {"name": "5\ub9c8\uc77c", "address": "\uc11c\uc6b8 \uc6a9\uc0b0\uad6c \ub3c5\uc11c\ub2f9\ub85c 70", "website": "http://place.map.daum.net/14557499", "source": "\ud55c\ub0a8\ub3d9 - \ud55c\ub0a8\uc5ed - 5\ub9c8\uc77c"}}
  ,{"type": "Feature", "geometry": {"type": "Point", "coordinates": [127.008372373532, 37.5334979031489]}, "properties": {"name": "5\ub9c8\uc77c", "address": "\uc11c\uc6b8 \uc6a9\uc0b0\uad6c \ub3c5\uc11c\ub2f9\ub85c 70", "website": "http://place.map.daum.net/14557499", "source": "\ud55c\ub0a8\ub3d9 - \ud55c\ub0a8\uc5ed - 5\ub9c8\uc77c"}}
  ,{"type": "Feature", "geometry": {"type": "Point", "coordinates": [127.01021661736188, 37.53392933746489]}, "properties": {"name": "\ub85c\uc584\ub9e8\uc158", "address": "\uc11c\uc6b8 \uc6a9\uc0b0\uad6c \uc720\uc5d4\ube4c\ub9ac\uc9c0\uae38 11", "website": "http://place.map.daum.net/21853513", "source": "\ud55c\ub0a8\ub3d9 - \ud55c\ub0a8\uc5ed - \ub85c\uc584\ub9e8\uc158"}}
  ,{"type": "Feature", "geometry": {"type": "Point", "coordinates": [126.995216406581, 37.5339125634909]}, "properties": {"name": "\ub290\ub124\uc9d1", "address": "\uc11c\uc6b8 \uc6a9\uc0b0\uad6c \ubcf4\uad11\ub85c60\uae38 20", "website": "http://place.map.daum.net/21393230", "source": "\uc774\ud0dc\uc6d0\ub3d9 - \uc774\ud0dc\uc6d0\uc5ed - \ub290\ub124\uc9d1"}}
  ,{"type": "Feature", "geometry": {"type": "Point", "coordinates": [126.984009279467, 37.5628804884461]}, "properties": {"name": "\ub0a8\uc0b0\uc544\ub798\ube68\uac15\ub5a1", "address": "\uc11c\uc6b8 \uc911\uad6c \uba85\ub3d98\uae38 8-23", "website": "http://place.map.daum.net/15449346", "source": "\uba85\ub3d9 - \uba85\ub3d9\uc5ed - \ub0a8\uc0b0\uc544\ub798\ube68\uac15\ub5a1"}}
  ,{"type": "Feature", "geometry": {"type": "Point", "coordinates": [126.997600529861, 37.5615264480559]}, "properties": {"name": "\ub2e4\uc2dc\uc5f4\ub9b0\ud558\uc580\uc9d1", "address": "\uc11c\uc6b8 \uc911\uad6c \uc11c\uc560\ub85c 12-20", "website": "http://place.map.daum.net/16376515", "source": "\ucda9\ubb34\ub85c5\uac00 - \ucda9\ubb34\ub85c\uc5ed - \ub2e4\uc2dc\uc5f4\ub9b0\ud558\uc580\uc9d1"}}
  ,{"type": "Feature", "geometry": {"type": "Point", "coordinates": [126.997600529861, 37.5615264480559]}, "properties": {"name": "\ub2e4\uc2dc\uc5f4\ub9b0\ud558\uc580\uc9d1", "address": "\uc11c\uc6b8 \uc911\uad6c \uc11c\uc560\ub85c 12-20", "website": "http://place.map.daum.net/16376515", "source": "\ucda9\ubb34\ub85c5\uac00 - \ucda9\ubb34\ub85c\uc5ed - \ub2e4\uc2dc\uc5f4\ub9b0\ud558\uc580\uc9d1"}}
  ,{"type": "Feature", "geometry": {"type": "Point", "coordinates": [127.002671014733, 37.5589063431948]}, "properties": {"name": "\uaf43\uc0ac\uc2b4\ub5a1\ubcf6\uc774 VS\uc5bc\ud070", "address": "\uc11c\uc6b8 \uc911\uad6c \ub3d9\ud638\ub85c25\uae38 3", "website": "http://place.map.daum.net/14823876", "source": "\uc7a5\ucda9\ub3d9 - \ub3d9\ub300\uc785\uad6c\uc5ed - \uaf43\uc0ac\uc2b4\ub5a1\ubcf6\uc774"}}
  ,{"type": "Feature", "geometry": {"type": "Point", "coordinates": [126.974973085016, 37.5208707088076]}, "properties": {"name": "\uc2a4\ub9c8\uc77c\uc774\ucd0c\ub5a1\ubcf6\uc774", "address": "\uc11c\uc6b8 \uc6a9\uc0b0\uad6c \uc774\ucd0c\ub85c65\uac00\uae38 72", "website": "http://place.map.daum.net/8056170", "source": "\uc774\ucd0c\ub3d9 - \ub3d9\ubd80\uc774\ucd0c\ub3d9\uc5ed - \uc2a4\ub9c8\uc77c\ub5a1\ubcf6\uc774 (\uc774\ucd0c\ub5a1\ubcf6\uc774)"}}
  ,{"type": "Feature", "geometry": {"type": "Point", "coordinates": [126.9685980564289, 37.53052792908615]}, "properties": {"name": "\ud604\uc120\uc774\ub124", "address": "\uc11c\uc6b8 \uc6a9\uc0b0\uad6c \ud55c\uac15\ub300\ub85c39\uae38 5", "website": "http://place.map.daum.net/949515069", "source": "\ud55c\uac15\ub85c2\uac00 - \uc2e0\uc6a9\uc0b0\uc5ed - \ud604\uc120\uc774\ub124"}}
  ,{"type": "Feature", "geometry": {"type": "Point", "coordinates": [126.9685980564289, 37.53052792908615]}, "properties": {"name": "\ud604\uc120\uc774\ub124", "address": "\uc11c\uc6b8 \uc6a9\uc0b0\uad6c \ud55c\uac15\ub300\ub85c39\uae38 5", "website": "http://place.map.daum.net/949515069", "source": "\ud55c\uac15\ub85c2\uac00 - \uc2e0\uc6a9\uc0b0\uc5ed - \ud604\uc120\uc774\ub124"}}
  ,{"type": "Feature", "geometry": {"type": "Point", "coordinates": [126.949848831185, 37.5040499758197]}, "properties": {"name": "\uc624\uc2dc\uc624\ub5a1\ubcf6\uc774", "address": "\uc11c\uc6b8 \ub3d9\uc791\uad6c \uc591\ub155\ub85c 278-2", "website": "http://place.map.daum.net/11756002", "source": "\uc0c1\ub3c4\ub3d9 - \uc0c1\ub3c4\uc5ed - \uc624\uc2dc\uc624\ub5a1\ubcf6\uc774"}}
  ,{"type": "Feature", "geometry": {"type": "Point", "coordinates": [126.940475221314, 37.5043483621683]}, "properties": {"name": "\uc601\ub3c4\ubd84\uc2dd", "address": "\uc11c\uc6b8 \ub3d9\uc791\uad6c \uc7a5\uc2b9\ubc30\uae30\ub85c10\uae38 26", "website": "http://place.map.daum.net/14101253", "source": "\uc0c1\ub3c4\ub3d9 - \uc7a5\uc2b9\ubc30\uae30\uc5ed - \uc601\ub3c4\ubd84\uc2dd (\uc7a1\ucc44\ub5a1\ubcf6\uc774)"}}
  ,{"type": "Feature", "geometry": {"type": "Point", "coordinates": [126.944400481981, 37.5123872371327]}, "properties": {"name": "\ube68\ubd09\ubd84\uc2dd \ub178\ub7c9\uc9c4\uc810", "address": "\uc11c\uc6b8 \ub3d9\uc791\uad6c \ub9cc\uc591\ub85c 100", "website": "http://place.map.daum.net/27389946", "source": "\ub178\ub7c9\uc9c4\ub3d9 - \ub178\ub7c9\uc9c4\uc5ed - \ube68\ubd09\ubd84\uc2dd"}}
  ,{"type": "Feature", "geometry": {"type": "Point", "coordinates": [126.945138364609, 37.5118181475205]}, "properties": {"name": "\uc640\uc6b0\uc2e0\ub0b4\ub5a1 \ub178\ub7c9\uc9c4\uc810", "address": "\uc11c\uc6b8 \ub3d9\uc791\uad6c \ub9cc\uc591\ub85c14\uac00\uae38 3", "website": "http://place.map.daum.net/18780677", "source": "\ub178\ub7c9\uc9c4\ub3d9 - \ub178\ub7c9\uc9c4\uc5ed - \uc2e0\uc774 \ub0b4\ub9b0 \ub9e4\uc6b4 \ub5a1\ubcf6\uc774"}}
  ,{"type": "Feature", "geometry": {"type": "Point", "coordinates": [126.965649802539, 37.5451917891433]}, "properties": {"name": "\ub2ec\ubcf6\uc774 \uc219\uba85\uc5ec\ub300\uc810", "address": "\uc11c\uc6b8 \uc6a9\uc0b0\uad6c \uccad\ud30c\ub85c47\uae38 88", "website": "http://place.map.daum.net/8301349", "source": "\uccad\ud30c\ub3d9 - \uc219\ub300\uc785\uad6c\uc5ed - \ub2ec\ubcf6\uc774"}}
  ,{"type": "Feature", "geometry": {"type": "Point", "coordinates": [126.918181545947, 37.4630219884237]}, "properties": {"name": "\uc7a5\uc218\ub9cc\ub450\uae40\ubc25", "address": "\uc11c\uc6b8 \uad00\uc545\uad6c \ub09c\ud5a5\uae38 12", "website": "http://place.map.daum.net/16082879", "source": "\ub09c\ud5a5\ub3d9 - \uc2e0\ub300\ubc29\uc5ed - \uc7a5\uc218\ub9cc\ub450"}}
  ,{"type": "Feature", "geometry": {"type": "Point", "coordinates": [126.931362106684, 37.467081325867]}, "properties": {"name": "\ubbf8\ub9bc\ubd84\uc2dd", "address": "\uc11c\uc6b8 \uad00\uc545\uad6c \ud638\uc554\ub85c 553", "website": "http://place.map.daum.net/17340937", "source": "\uc2e0\ub9bc\ub3d9 - \uc2e0\ub9bc\uc5ed - \ubbf8\ub9bc\ubd84\uc2dd"}}
  ,{"type": "Feature", "geometry": {"type": "Point", "coordinates": [126.931362106684, 37.467081325867]}, "properties": {"name": "\ubbf8\ub9bc\ubd84\uc2dd", "address": "\uc11c\uc6b8 \uad00\uc545\uad6c \ud638\uc554\ub85c 553", "website": "http://place.map.daum.net/17340937", "source": "\uc2e0\ub9bc\ub3d9 - \uc2e0\ub9bc\uc5ed - \ubbf8\ub9bc\ubd84\uc2dd"}}
  ,{"type": "Feature", "geometry": {"type": "Point", "coordinates": [126.882313843059, 37.4974967389733]}, "properties": {"name": "\ud558\ud558\ub124\ub9e4\uc6b4\ub5a1\ubcf6\uc774 \uad6c\ub85c\uc810", "address": "\uc11c\uc6b8 \uad6c\ub85c\uad6c \uad6c\ub85c\ub3d9\ub85c 211", "website": "http://place.map.daum.net/21404160", "source": "\uad6c\ub85c\ub3d9 - \uad6c\ub85c\uc5ed - \ud558\ud558\ub124 \ub9e4\uc6b4\ub5a1\ubcf6\uc774"}}
  ,{"type": "Feature", "geometry": {"type": "Point", "coordinates": [126.88550545462208, 37.488770987089644]}, "properties": {"name": "\uce60\uacf5\uc8fc\ub5a1\ubcf6\uc774", "address": "", "website": "http://place.map.daum.net/832462058", "source": "\uad6c\ub85c\ub3d9 - \ub0a8\uad6c\ub85c\uc5ed - 7\uacf5\uc8fc \ub5a1\ubcf6\uc774"}}
  ,{"type": "Feature", "geometry": {"type": "Point", "coordinates": [126.88550545462208, 37.488770987089644]}, "properties": {"name": "\uce60\uacf5\uc8fc\ub5a1\ubcf6\uc774", "address": "", "website": "http://place.map.daum.net/832462058", "source": "\uad6c\ub85c\ub3d9 - \ub0a8\uad6c\ub85c\uc5ed - 7\uacf5\uc8fc \ub5a1\ubcf6\uc774"}}
  ,{"type": "Feature", "geometry": {"type": "Point", "coordinates": [126.948860505858, 37.5403203143532]}, "properties": {"name": "\ucf54\ub07c\ub9ac\uc989\uc11d\ub5a1\ubcf6\uc774", "address": "\uc11c\uc6b8 \ub9c8\ud3ec\uad6c \ub3c4\ud6542\uae38 3", "website": "http://place.map.daum.net/8105623", "source": "\ub3c4\ud654\ub3d9 - \ub9c8\ud3ec\uc5ed - \ucf54\ub07c\ub9ac\ubd84\uc2dd"}}
  ,{"type": "Feature", "geometry": {"type": "Point", "coordinates": [126.948797131751, 37.5403347028892]}, "properties": {"name": "\ub9c8\ud3ec\uc6d0\uc870\ub5a1\ubcf6\uc774", "address": "\uc11c\uc6b8 \ub9c8\ud3ec\uad6c \ub3c4\ud6542\uae38 3", "website": "http://place.map.daum.net/7865809", "source": "\ub3c4\ud654\ub3d9 - \ub9c8\ud3ec\uc5ed - \ub9c8\ud3ec\uc6d0\uc870\ub5a1\ubcf6\uc774"}}
  ,{"type": "Feature", "geometry": {"type": "Point", "coordinates": [126.94876562964, 37.5400715972598]}, "properties": {"name": "\ub2e4\ub77d", "address": "\uc11c\uc6b8 \ub9c8\ud3ec\uad6c \ub3c4\ud6542\uae38 8", "website": "http://place.map.daum.net/15883282", "source": "\ub3c4\ud654\ub3d9 - \ub9c8\ud3ec\uc5ed - \ub2e4\ub77d"}}
  ,{"type": "Feature", "geometry": {"type": "Point", "coordinates": [126.950692631758, 37.5417050292014]}, "properties": {"name": "\uc774\uc11c\ubc29\ub124", "address": "\uc11c\uc6b8 \ub9c8\ud3ec\uad6c \ub3c4\ud654\uae38 46", "website": "http://place.map.daum.net/19401137", "source": "\ub3c4\ud654\ub3d9 - \ub9c8\ud3ec\uc5ed - \uc774\uc11c\ubc29\ub124 \ubd84\uc2dd"}}
  ,{"type": "Feature", "geometry": {"type": "Point", "coordinates": [126.950692631758, 37.5417050292014]}, "properties": {"name": "\uc774\uc11c\ubc29\ub124", "address": "\uc11c\uc6b8 \ub9c8\ud3ec\uad6c \ub3c4\ud654\uae38 46", "website": "http://place.map.daum.net/19401137", "source": "\ub3c4\ud654\ub3d9 - \ub9c8\ud3ec\uc5ed - \uc774\uc11c\ubc29\ub124 \ubd84\uc2dd"}}
  ,{"type": "Feature", "geometry": {"type": "Point", "coordinates": [127.037988101243, 37.5248785146999]}, "properties": {"name": "\uc11c\uac15\uc1e0\ub5a1\ubcf6\uc774", "address": "\uc11c\uc6b8 \uac15\ub0a8\uad6c \uc120\ub989\ub85c153\uae38 18", "website": "http://place.map.daum.net/13556163", "source": "\uc555\uad6c\uc815\ub3d9 - \uc555\uad6c\uc815\ub85c\ub370\uc624\uc5ed - \uc11c\uac15\uc1e0\ub5a1\ubcf6\uc774"}}
  ,{"type": "Feature", "geometry": {"type": "Point", "coordinates": [127.037635023264, 37.5246371591244]}, "properties": {"name": "\ub8e8\ube44\ub5a1\ubcf6\uc774", "address": "\uc11c\uc6b8 \uac15\ub0a8\uad6c \uc120\ub989\ub85c153\uae38 21", "website": "http://place.map.daum.net/20125427", "source": "\uc555\uad6c\uc815\ub3d9 - \uc555\uad6c\uc815\ub85c\ub370\uc624\uc5ed - \ub8e8\ube44"}}
  ,{"type": "Feature", "geometry": {"type": "Point", "coordinates": [127.03670145820617, 37.514849856696365]}, "properties": {"name": "\uc288\ud37c\uc9d1 \ub17c\ud604\uc810", "address": "\uc11c\uc6b8 \uac15\ub0a8\uad6c \uc5b8\uc8fc\ub85c130\uae38 14", "website": "http://place.map.daum.net/7850629", "source": "\ub17c\ud604\ub3d9 - \uac15\ub0a8\uad6c\uccad\uc5ed - \uc218\ud37c\uc9d1"}}
  ,{"type": "Feature", "geometry": {"type": "Point", "coordinates": [127.037450881828, 37.52062144900292]}, "properties": {"name": "\uc555\uad6c\uc815\ubcc0\uac15\uc1e0\ub5a1\ubcf6\uc774", "address": "\uc11c\uc6b8 \uac15\ub0a8\uad6c \ub3c4\uc0b0\ub300\ub85c46\uae38 21", "website": "http://place.map.daum.net/14711970", "source": "\ub17c\ud604\ub3d9 - \uac15\ub0a8\uad6c\uccad\uc5ed - \ubcc0\uac15\uc1e0\ub5a1\ubcf6\uc774"}}
  ,{"type": "Feature", "geometry": {"type": "Point", "coordinates": [127.04706709265, 37.5059217318685]}, "properties": {"name": "\uacf5\uc218\uac04", "address": "\uc11c\uc6b8 \uac15\ub0a8\uad6c \ud14c\ud5e4\ub780\ub85c55\uae38 22", "website": "http://place.map.daum.net/19532843", "source": "\ub17c\ud604\ub3d9 - \ub17c\ud604\uc5ed - \uacf5\uc218\uac04"}}
  ,{"type": "Feature", "geometry": {"type": "Point", "coordinates": [127.04706709265, 37.5059217318685]}, "properties": {"name": "\uacf5\uc218\uac04", "address": "\uc11c\uc6b8 \uac15\ub0a8\uad6c \ud14c\ud5e4\ub780\ub85c55\uae38 22", "website": "http://place.map.daum.net/19532843", "source": "\ub17c\ud604\ub3d9 - \ub17c\ud604\uc5ed - \uacf5\uc218\uac04"}}
  ,{"type": "Feature", "geometry": {"type": "Point", "coordinates": [127.04706709265, 37.5059217318685]}, "properties": {"name": "\uacf5\uc218\uac04", "address": "\uc11c\uc6b8 \uac15\ub0a8\uad6c \ud14c\ud5e4\ub780\ub85c55\uae38 22", "website": "http://place.map.daum.net/19532843", "source": "\ub17c\ud604\ub3d9 - \ub17c\ud604\uc5ed - \uacf5\uc218\uac04"}}
  ,{"type": "Feature", "geometry": {"type": "Point", "coordinates": [127.04706709265, 37.5059217318685]}, "properties": {"name": "\uacf5\uc218\uac04", "address": "\uc11c\uc6b8 \uac15\ub0a8\uad6c \ud14c\ud5e4\ub780\ub85c55\uae38 22", "website": "http://place.map.daum.net/19532843", "source": "\ub17c\ud604\ub3d9 - \ub17c\ud604\uc5ed - \uacf5\uc218\uac04"}}
  ,{"type": "Feature", "geometry": {"type": "Point", "coordinates": [127.04706709265, 37.5059217318685]}, "properties": {"name": "\uacf5\uc218\uac04", "address": "\uc11c\uc6b8 \uac15\ub0a8\uad6c \ud14c\ud5e4\ub780\ub85c55\uae38 22", "website": "http://place.map.daum.net/19532843", "source": "\ub17c\ud604\ub3d9 - \ub17c\ud604\uc5ed - \uacf5\uc218\uac04"}}
  ,{"type": "Feature", "geometry": {"type": "Point", "coordinates": [127.023207031329, 37.5179770583374]}, "properties": {"name": "\ubc18\uc7a5\uc989\uc11d\ub5a1\ubcf6\uc774 \uc2e0\uc0ac\uac00\ub85c\uc218\uae38\uc810", "address": "\uc11c\uc6b8 \uac15\ub0a8\uad6c \ub3c4\uc0b0\ub300\ub85c 135", "website": "http://place.map.daum.net/14760977", "source": "\uc2e0\uc0ac\ub3d9 - \uc2e0\uc0ac\uc5ed - \ubc18\uc7a5\ub5a1\ubcf6\uc774"}}
  ,{"type": "Feature", "geometry": {"type": "Point", "coordinates": [127.023207031329, 37.5179770583374]}, "properties": {"name": "\ubc18\uc7a5\uc989\uc11d\ub5a1\ubcf6\uc774 \uc2e0\uc0ac\uac00\ub85c\uc218\uae38\uc810", "address": "\uc11c\uc6b8 \uac15\ub0a8\uad6c \ub3c4\uc0b0\ub300\ub85c 135", "website": "http://place.map.daum.net/14760977", "source": "\uc2e0\uc0ac\ub3d9 - \uc2e0\uc0ac\uc5ed - \ubc18\uc7a5\ub5a1\ubcf6\uc774"}}
  ,{"type": "Feature", "geometry": {"type": "Point", "coordinates": [126.990129307015, 37.5017536346826]}, "properties": {"name": "\uc560\ud50c\ud558\uc6b0\uc2a4", "address": "\uc11c\uc6b8 \uc11c\ucd08\uad6c \uc2e0\ubc18\ud3ec\ub85c 50", "website": "http://place.map.daum.net/10587024", "source": "\ubc18\ud3ec\ub3d9 - \uad6c\ubc18\ud3ec\uc5ed - \uc560\ud50c\ud558\uc6b0\uc2a4"}}
  ,{"type": "Feature", "geometry": {"type": "Point", "coordinates": [126.98773111230078, 37.50220111974396]}, "properties": {"name": "\ubbf8\uc18c\uc758\uc9d1", "address": "\uc11c\uc6b8 \uc11c\ucd08\uad6c \uc2e0\ubc18\ud3ec\ub85c 27-6", "website": "http://place.map.daum.net/21236775", "source": "\ubc18\ud3ec\ub3d9 - \uc774\uc218\uc5ed - \ubbf8\uc18c\uc758\uc9d1"}}
  ,{"type": "Feature", "geometry": {"type": "Point", "coordinates": [126.98773111230078, 37.50220111974396]}, "properties": {"name": "\ubbf8\uc18c\uc758\uc9d1", "address": "\uc11c\uc6b8 \uc11c\ucd08\uad6c \uc2e0\ubc18\ud3ec\ub85c 27-6", "website": "http://place.map.daum.net/21236775", "source": "\ubc18\ud3ec\ub3d9 - \uc774\uc218\uc5ed - \ubbf8\uc18c\uc758\uc9d1"}}
  ,{"type": "Feature", "geometry": {"type": "Point", "coordinates": [127.010777073395, 37.5131782986176]}, "properties": {"name": "\uc7a0\uc6d0\ub5a1\ubcf6\uc774", "address": "\uc11c\uc6b8 \uc11c\ucd08\uad6c \uc7a0\uc6d0\ub85c4\uae38 45", "website": "http://place.map.daum.net/26974119", "source": "\uc7a0\uc6d0\ub3d9 - \uc7a0\uc6d0\uc5ed - \uc7a0\uc6d0\ub5a1\ubcf6\uc774"}}
  ,{"type": "Feature", "geometry": {"type": "Point", "coordinates": [127.010777073395, 37.5131782986176]}, "properties": {"name": "\uc7a0\uc6d0\ub5a1\ubcf6\uc774", "address": "\uc11c\uc6b8 \uc11c\ucd08\uad6c \uc7a0\uc6d0\ub85c4\uae38 45", "website": "http://place.map.daum.net/26974119", "source": "\uc7a0\uc6d0\ub3d9 - \uc7a0\uc6d0\uc5ed - \uc7a0\uc6d0\ub5a1\ubcf6\uc774"}}
  ,{"type": "Feature", "geometry": {"type": "Point", "coordinates": [127.010777073395, 37.5131782986176]}, "properties": {"name": "\uc7a0\uc6d0\ub5a1\ubcf6\uc774", "address": "\uc11c\uc6b8 \uc11c\ucd08\uad6c \uc7a0\uc6d0\ub85c4\uae38 45", "website": "http://place.map.daum.net/26974119", "source": "\uc7a0\uc6d0\ub3d9 - \uc7a0\uc6d0\uc5ed - \uc7a0\uc6d0\ub5a1\ubcf6\uc774"}}
  ,{"type": "Feature", "geometry": {"type": "Point", "coordinates": [127.010777073395, 37.5131782986176]}, "properties": {"name": "\uc7a0\uc6d0\ub5a1\ubcf6\uc774", "address": "\uc11c\uc6b8 \uc11c\ucd08\uad6c \uc7a0\uc6d0\ub85c4\uae38 45", "website": "http://place.map.daum.net/26974119", "source": "\uc7a0\uc6d0\ub3d9 - \uc7a0\uc6d0\uc5ed - \uc7a0\uc6d0\ub5a1\ubcf6\uc774"}}
  ,{"type": "Feature", "geometry": {"type": "Point", "coordinates": [127.036602541856, 37.486005981919]}, "properties": {"name": "\uadf8\ub9b0\ub124\uc740\uc7c1\ubc18 \uc591\uc7ac\uc5ed\ubcf8\uc810", "address": "\uc11c\uc6b8 \uac15\ub0a8\uad6c \ub0a8\ubd80\uc21c\ud658\ub85c359\uae38 16", "website": "http://place.map.daum.net/16060644", "source": "\ub3c4\uace1\ub3d9 - \uc591\uc7ac\uc5ed - \uadf8\ub9b0\ub124 \uc740\uc7c1\ubc18"}}
  ,{"type": "Feature", "geometry": {"type": "Point", "coordinates": [127.035540112817, 37.4868820862099]}, "properties": {"name": "\uc791\uc740\uacf5\uac04", "address": "\uc11c\uc6b8 \uac15\ub0a8\uad6c \ub0a8\ubd80\uc21c\ud658\ub85c359\uae38 31", "website": "http://place.map.daum.net/14590990", "source": "\ub3c4\uace1\ub3d9 - \uc591\uc7ac\uc5ed - \uc740\uad11\uc5ec\uace0 \uc791\uc740\uacf5\uac04"}}
  ,{"type": "Feature", "geometry": {"type": "Point", "coordinates": [127.035540112817, 37.4868820862099]}, "properties": {"name": "\uc791\uc740\uacf5\uac04", "address": "\uc11c\uc6b8 \uac15\ub0a8\uad6c \ub0a8\ubd80\uc21c\ud658\ub85c359\uae38 31", "website": "http://place.map.daum.net/14590990", "source": "\ub3c4\uace1\ub3d9 - \uc591\uc7ac\uc5ed - \uc740\uad11\uc5ec\uace0 \uc791\uc740\uacf5\uac04"}}
  ,{"type": "Feature", "geometry": {"type": "Point", "coordinates": [127.085999245625, 37.5090929645248]}, "properties": {"name": "\uc624\ub80c\uc9c0\ubd84\uc2dd", "address": "\uc11c\uc6b8 \uc1a1\ud30c\uad6c \uc11d\ucd0c\ud638\uc218\ub85c12\uae38 3", "website": "http://place.map.daum.net/13498957", "source": "\uc7a0\uc2e4\ub3d9 - \uc2e0\ucc9c\uc5ed - \uc624\ub80c\uc9c0 \ubd84\uc2dd"}}
  ,{"type": "Feature", "geometry": {"type": "Point", "coordinates": [127.08391663287078, 37.508752711400625]}, "properties": {"name": "\ud64d\ucf54\ub108 \uc0c8\ub9c8\uc744\uc2dc\uc7a5\uc810", "address": "\uc11c\uc6b8 \uc1a1\ud30c\uad6c \uc11d\ucd0c\ud638\uc218\ub85c12\uae38 23", "website": "http://place.map.daum.net/26062948", "source": "\uc7a0\uc2e4\ub3d9 - \uc2e0\ucc9c\uc5ed - \ud64d\ucf54\ub108 \ub5a1\ubcf6\uc774"}}
  ,{"type": "Feature", "geometry": {"type": "Point", "coordinates": [127.112325823291, 37.5004716725217]}, "properties": {"name": "\uac00\ub098\uc548", "address": "\uc11c\uc6b8 \uc1a1\ud30c\uad6c \uc1a1\ud30c\ub300\ub85c36\uae38 5-13", "website": "http://place.map.daum.net/8116392", "source": "\uc1a1\ud30c\ub3d9 - \uc1a1\ud30c\uc5ed - \uac00\ub098\uc548"}}
  ,{"type": "Feature", "geometry": {"type": "Point", "coordinates": [127.112325823291, 37.5004716725217]}, "properties": {"name": "\uac00\ub098\uc548", "address": "\uc11c\uc6b8 \uc1a1\ud30c\uad6c \uc1a1\ud30c\ub300\ub85c36\uae38 5-13", "website": "http://place.map.daum.net/8116392", "source": "\uc1a1\ud30c\ub3d9 - \uc1a1\ud30c\uc5ed - \uac00\ub098\uc548"}}
  ,{"type": "Feature", "geometry": {"type": "Point", "coordinates": [127.112334811109, 37.5004320197287]}, "properties": {"name": "\ubaa8\uaf2c\uc9c0\uc5d0", "address": "\uc11c\uc6b8 \uc1a1\ud30c\uad6c \uc1a1\ud30c\ub300\ub85c36\uae38 5-13", "website": "http://place.map.daum.net/7867010", "source": "\uc1a1\ud30c\ub3d9 - \uc1a1\ud30c\uc5ed - \ubaa8\uaf2c\uc9c0\uc5d0"}}
  ,{"type": "Feature", "geometry": {"type": "Point", "coordinates": [127.123489346447, 37.4890285612452]}, "properties": {"name": "\uace8\ubaa9\ub5a1\ubcf6\uc774", "address": "\uc11c\uc6b8 \uc1a1\ud30c\uad6c \ubb38\uc815\ub85c1\uae38 33", "website": "http://place.map.daum.net/11831381", "source": "\ubb38\uc815\ub3d9 - \ubb38\uc815\uc5ed - \uace8\ubaa9\ub5a1\ubcf6\uc774"}}
  ,{"type": "Feature", "geometry": {"type": "Point", "coordinates": [127.133614268334, 37.5235007897484]}, "properties": {"name": "\uad6d\ubbfc\ub5a1\ubcf6\uc774", "address": "\uc11c\uc6b8 \uac15\ub3d9\uad6c \uc591\uc7ac\ub300\ub85c83\uae38 14", "website": "http://place.map.daum.net/11029672", "source": "\uc131\ub0b4\ub3d9 - \ub454\ucd0c\ub3d9\uc5ed - \uad6d\ubbfc\ub5a1\ubcf6\uc774"}}
  ,{"type": "Feature", "geometry": {"type": "Point", "coordinates": [127.133072691386, 37.5268495232955]}, "properties": {"name": "\uc140\ud504\ud558\uc6b0\uc2a4 \ub454\ucd0c\uc810", "address": "\uc11c\uc6b8 \uac15\ub3d9\uad6c \uac15\ub3d9\ub300\ub85c53\uae38 94", "website": "http://place.map.daum.net/16617519", "source": "\uc131\ub0b4\ub3d9 - \uac15\ub3d9\uad6c\uccad\uc5ed - \uc140\ud504\ud558\uc6b0\uc2a4"}}
  ,{"type": "Feature", "geometry": {"type": "Point", "coordinates": [127.121903612645, 37.5318711460347]}, "properties": {"name": "\ud558\uc580\uc9d1", "address": "\uc11c\uc6b8 \uac15\ub3d9\uad6c \ucc9c\ud638\uc61b\uae38 25", "website": "http://place.map.daum.net/21235700", "source": "\uc131\ub0b4\ub3d9 - \uac15\ub3d9\uad6c\uccad\uc5ed - \ud558\uc580\uc9d1"}}
  ,{"type": "Feature", "geometry": {"type": "Point", "coordinates": [127.13598310446386, 37.53658692577748]}, "properties": {"name": "\ubaa8\ubc94\ub5a1\ubcf6\uc774\uc564\uc218\uc81c\ub3c8\uac00\uc2a4 \uae38\ub3d9\uc810", "address": "\uc11c\uc6b8 \uac15\ub3d9\uad6c \uc9c4\ud669\ub3c4\ub85c 85", "website": "http://place.map.daum.net/21855996", "source": "\uae38\ub3d9 - \uac15\ub3d9\uc5ed - \ubaa8\ubc94\ub5a1\ubcf6\uc774"}}
  ,{"type": "Feature", "geometry": {"type": "Point", "coordinates": [127.139340734388, 37.5369226886832]}, "properties": {"name": "\ub4dc\ub7fc\ud1b5\uc989\uc11d\ub5a1\ubcf6\uc774 \uae38\ub3d9\uc9c1\uc601\uc810", "address": "\uc11c\uc6b8 \uac15\ub3d9\uad6c \uc591\uc7ac\ub300\ub85c 1465", "website": "http://place.map.daum.net/26868197", "source": "\uae38\ub3d9 - \uae38\ub3d9\uc5ed - \ub4dc\ub7fc\ud1b5\ud329\ud1a0\ub9ac"}}
  ,{"type": "Feature", "geometry": {"type": "Point", "coordinates": [127.154839883573, 37.5513950438376]}, "properties": {"name": "\uc9c4\uc774\ub124\ub5a1\ubcf6\uc774", "address": "\uc11c\uc6b8 \uac15\ub3d9\uad6c \ub3d9\ub0a8\ub85c71\uae38 23", "website": "http://place.map.daum.net/12152173", "source": "\uba85\uc77c\ub3d9 - \uace0\ub355\uc5ed - \uc9c4\uc774\ub124\ub5a1\ubcf6\uc774"}}
  ,{"type": "Feature", "geometry": {"type": "Point", "coordinates": [127.143421932815, 37.5505336950557]}, "properties": {"name": "\uafb8\ub7ec\uae30\ubd84\uc2dd", "address": "\uc11c\uc6b8 \uac15\ub3d9\uad6c \uad6c\ucc9c\uba74\ub85c 404", "website": "http://place.map.daum.net/14585959", "source": "\uba85\uc77c\ub3d9 - \uba85\uc77c\uc5ed - \uafb8\ub7ec\uae30\ubd84\uc2dd"}}
  ,{"type": "Feature", "geometry": {"type": "Point", "coordinates": [127.152063828325, 37.4995298027308]}, "properties": {"name": "\ubc84\ubc85\uc774\ub124", "address": "\uc11c\uc6b8 \uc1a1\ud30c\uad6c \uc131\ub0b4\ucc9c\ub85c 222", "website": "http://place.map.daum.net/16877319", "source": "\ub9c8\ucc9c\ub3d9 - \ub9c8\ucc9c\uc5ed \u2013 \ubc84\ubc85\uc774\ub124"}}
]}
