{
 "type": "FeatureCollection",
 "features": [
  {
   "type": "Feature",
   "geometry": {
    "type": "Point",
    "coordinates": [
     126.920708985009,
     37.5485687313108
    ]
   },
   "properties": {
    "pid": "11085883",
    "name": "무라",
    "phone": "02-326-2588",
    "source": "상수동 - 상수역 - 무라",
    "address": "서울 마포구 어울마당로 40",
    "website": "http://place.map.daum.net/11085883",
    "category": "라멘"
   }
  },
  {
   "type": "Feature",
   "geometry": {
    "type": "Point",
    "coordinates": [
     126.92379574116,
     37.5488915191848
    ]
   },
   "properties": {
    "pid": "21410206",
    "name": "하카타분코",
    "phone": "02-338-5536",
    "source": "상수동 - 상수역 - 하카타분코",
    "address": "서울 마포구 독막로19길 43",
    "website": "http://place.map.daum.net/21410206",
    "category": "라멘"
   }
  },
  {
   "type": "Feature",
   "geometry": {
    "type": "Point",
    "coordinates": [
     126.922674932904,
     37.5471752892662
    ]
   },
   "properties": {
    "pid": "26503114",
    "name": "라멘트럭",
    "phone": "02-336-8455",
    "source": "상수동 - 상수역 - 라멘트럭",
    "address": "서울 마포구 와우산로7길 6",
    "website": "http://place.map.daum.net/26503114",
    "category": "라멘"
   }
  },
  {
   "type": "Feature",
   "geometry": {
    "type": "Point",
    "coordinates": [
     126.92056460886127,
     37.55238886655884
    ]
   },
   "properties": {
    "pid": "27281113",
    "name": "탄탄면공방 홍대점",
    "phone": "",
    "source": "서교동 - 홍대입구역 - 탄탄면공방",
    "address": "서울 마포구 잔다리로6길 25",
    "website": "http://place.map.daum.net/27281113",
    "category": "라멘"
   }
  },
  {
   "type": "Feature",
   "geometry": {
    "type": "Point",
    "coordinates": [
     126.921418812785,
     37.5536760629849
    ]
   },
   "properties": {
    "pid": "12887413",
    "name": "멘야산다이메 홍대점",
    "phone": "02-332-4129",
    "source": "서교동 - 홍대입구역 - 멘야산다이메",
    "address": "서울 마포구 홍익로5안길 24",
    "website": "http://place.map.daum.net/12887413",
    "category": "라멘"
   }
  },
  {
   "type": "Feature",
   "geometry": {
    "type": "Point",
    "coordinates": [
     126.920342292029,
     37.5528644436512
    ]
   },
   "properties": {
    "pid": "18758380",
    "name": "나고미앤겐로쿠",
    "phone": "02-324-8545",
    "source": "서교동 - 홍대입구역 - 나고미앤겐로쿠",
    "address": "서울 마포구 홍익로5안길 50",
    "website": "http://place.map.daum.net/18758380",
    "category": "라멘"
   }
  },
  {
   "type": "Feature",
   "geometry": {
    "type": "Point",
    "coordinates": [
     126.925171531217,
     37.5536965208231
    ]
   },
   "properties": {
    "pid": "23734945",
    "name": "지로우라멘",
    "phone": "02-323-3225",
    "source": "서교동 - 홍대입구역 - 지로우라멘",
    "address": "서울 마포구 와우산로29가길 79",
    "website": "http://place.map.daum.net/23734945",
    "category": "라멘"
   }
  },
  {
   "type": "Feature",
   "geometry": {
    "type": "Point",
    "coordinates": [
     126.91074661802,
     37.5642831216488
    ]
   },
   "properties": {
    "pid": "161210639",
    "name": "지산",
    "phone": "",
    "source": "서교동 - 홍대입구역 - 지산",
    "address": "서울 마포구 성산로4길 80",
    "website": "http://place.map.daum.net/161210639",
    "category": "라멘"
   }
  },
  {
   "type": "Feature",
   "geometry": {
    "type": "Point",
    "coordinates": [
     126.926730635869,
     37.5564040951311
    ]
   },
   "properties": {
    "pid": "18742750",
    "name": "부탄츄 홍대점",
    "phone": "02-3144-3304",
    "source": "서교동 - 홍대입구역 - 부탄츄",
    "address": "서울 마포구 와우산로35길 75",
    "website": "http://place.map.daum.net/18742750",
    "category": "라멘"
   }
  },
  {
   "type": "Feature",
   "geometry": {
    "type": "Point",
    "coordinates": [
     126.927646335027,
     37.5551144315258
    ]
   },
   "properties": {
    "pid": "25779760",
    "name": "쿠자쿠",
    "phone": "02-326-0082",
    "source": "서교동 - 홍대입구역 - 쿠자쿠",
    "address": "서울 마포구 와우산로29다길 10",
    "website": "http://place.map.daum.net/25779760",
    "category": "라멘"
   }
  },
  {
   "type": "Feature",
   "geometry": {
    "type": "Point",
    "coordinates": [
     126.93853549124078,
     37.55896578818826
    ]
   },
   "properties": {
    "pid": "15814593",
    "name": "멘야요시",
    "phone": "02-362-6238",
    "source": "서교동 - 홍대입구역 - 멘야요시",
    "address": "서울 서대문구 연세로12길 28",
    "website": "http://place.map.daum.net/15814593",
    "category": "라멘"
   }
  },
  {
   "type": "Feature",
   "geometry": {
    "type": "Point",
    "coordinates": [
     126.918816310482,
     37.5616319084292
    ]
   },
   "properties": {
    "pid": "1185180039",
    "name": "무타히로",
    "phone": "070-4064-6958",
    "source": "동교동 - 홍대입구역 - 무타히로",
    "address": "서울 마포구 성미산로 104",
    "website": "http://place.map.daum.net/1185180039",
    "category": "라멘"
   }
  },
  {
   "type": "Feature",
   "geometry": {
    "type": "Point",
    "coordinates": [
     126.925814354687,
     37.5628150162952
    ]
   },
   "properties": {
    "pid": "1221120228",
    "name": "멘야히가시",
    "phone": "02-3144-3758",
    "source": "동교동 - 홍대입구역 - 멘야히가시",
    "address": "서울 마포구 동교로 266-12",
    "website": "http://place.map.daum.net/1221120228",
    "category": "라멘"
   }
  },
  {
   "type": "Feature",
   "geometry": {
    "type": "Point",
    "coordinates": [
     126.923583046606,
     37.5621396478926
    ]
   },
   "properties": {
    "pid": "554372697",
    "name": "사이토",
    "phone": "02-323-0723",
    "source": "연남동 - 홍대입구역 - 사이토",
    "address": "서울 마포구 성미산로26길 43",
    "website": "http://place.map.daum.net/554372697",
    "category": "라멘"
   }
  },
  {
   "type": "Feature",
   "geometry": {
    "type": "Point",
    "coordinates": [
     126.935273313668,
     37.5561207681019
    ]
   },
   "properties": {
    "pid": "8040843",
    "name": "이찌멘 신촌점",
    "phone": "02-333-9565",
    "source": "창천동 - 신촌역 - 이찌멘",
    "address": "서울 서대문구 연세로5길 38",
    "website": "http://place.map.daum.net/8040843",
    "category": "라멘"
   }
  },
  {
   "type": "Feature",
   "geometry": {
    "type": "Point",
    "coordinates": [
     126.940169256066,
     37.5589272538262
    ]
   },
   "properties": {
    "pid": "27224530",
    "name": "다이몬키친",
    "phone": "02-6369-6889",
    "source": "창천동 - 신촌역 - 다이몬키친",
    "address": "서울 서대문구 명물길 72",
    "website": "http://place.map.daum.net/27224530",
    "category": "라멘"
   }
  },
  {
   "type": "Feature",
   "geometry": {
    "type": "Point",
    "coordinates": [
     126.933404416442,
     37.560372434905
    ]
   },
   "properties": {
    "pid": "12342064",
    "name": "가마마루이",
    "phone": "02-3142-3929",
    "source": "창천동 - 신촌역 - 가마마루이",
    "address": "서울 서대문구 성산로22길 4",
    "website": "http://place.map.daum.net/12342064",
    "category": "라멘"
   }
  },
  {
   "type": "Feature",
   "geometry": {
    "type": "Point",
    "coordinates": [
     126.94540770971,
     37.5581765586318
    ]
   },
   "properties": {
    "pid": "21395214",
    "name": "가야가야 이대점",
    "phone": "02-363-7877",
    "source": "대현동 - 이대역 - 가야가야",
    "address": "서울 서대문구 이화여대5길 7-3",
    "website": "http://place.map.daum.net/21395214",
    "category": "라멘"
   }
  },
  {
   "type": "Feature",
   "geometry": {
    "type": "Point",
    "coordinates": [
     126.94542061541,
     37.5591027895666
    ]
   },
   "properties": {
    "pid": "15618872",
    "name": "소오",
    "phone": "02-363-9861",
    "source": "대현동 - 이대역 - 소오",
    "address": "서울 서대문구 이화여대길 55",
    "website": "http://place.map.daum.net/15618872",
    "category": "라멘"
   }
  },
  {
   "type": "Feature",
   "geometry": {
    "type": "Point",
    "coordinates": [
     126.909671618277,
     37.553743344396
    ]
   },
   "properties": {
    "pid": "26818190",
    "name": "라멘베라보",
    "phone": "02-338-3439",
    "source": "망원동 - 망원역 - 베라보",
    "address": "서울 마포구 동교로 67",
    "website": "http://place.map.daum.net/26818190",
    "category": "라멘"
   }
  },
  {
   "type": "Feature",
   "geometry": {
    "type": "Point",
    "coordinates": [
     126.863564230363,
     37.527317810762
    ]
   },
   "properties": {
    "pid": "27332163",
    "name": "신세카이",
    "phone": "02-6407-1542",
    "source": "신정동 - 목동역 - 신세카이",
    "address": "서울 양천구 신정중앙로23길 10-1",
    "website": "http://place.map.daum.net/27332163",
    "category": "라멘"
   }
  },
  {
   "type": "Feature",
   "geometry": {
    "type": "Point",
    "coordinates": [
     127.071690225635,
     37.5430414571614
    ]
   },
   "properties": {
    "pid": "8029124",
    "name": "우마이도 건대점",
    "phone": "02-467-8788",
    "source": "화양동 - 건대입구역 - 우마이도",
    "address": "서울 광진구 능동로 135-2",
    "website": "http://place.map.daum.net/8029124",
    "category": "라멘"
   }
  },
  {
   "type": "Feature",
   "geometry": {
    "type": "Point",
    "coordinates": [
     127.031288947227,
     37.5849950452124
    ]
   },
   "properties": {
    "pid": "16621049",
    "name": "쿠이도라쿠",
    "phone": "",
    "source": "안암동 - 안암역 - 쿠이도라쿠",
    "address": "서울 성북구 안암로 103",
    "website": "http://place.map.daum.net/16621049",
    "category": "라멘"
   }
  },
  {
   "type": "Feature",
   "geometry": {
    "type": "Point",
    "coordinates": [
     127.051065727063,
     37.5847719079397
    ]
   },
   "properties": {
    "pid": "16448965",
    "name": "마카나이 시립대본점",
    "phone": "02-969-2972",
    "source": "전농동 - 청량리역 - 마카나이",
    "address": "서울 동대문구 왕산로 272",
    "website": "http://place.map.daum.net/16448965",
    "category": "라멘"
   }
  },
  {
   "type": "Feature",
   "geometry": {
    "type": "Point",
    "coordinates": [
     127.018909294718,
     37.5924110441654
    ]
   },
   "properties": {
    "pid": "26630480",
    "name": "나카노라멘 성신여대점",
    "phone": "02-953-6256",
    "source": "동선동 - 성신여대입구역 - 나카노라멘",
    "address": "서울 성북구 동소문로24길 27",
    "website": "http://place.map.daum.net/26630480",
    "category": "라멘"
   }
  },
  {
   "type": "Feature",
   "geometry": {
    "type": "Point",
    "coordinates": [
     126.97338655227,
     37.5415933924309
    ]
   },
   "properties": {
    "pid": "10767289",
    "name": "쯔쿠시",
    "phone": "02-790-5602",
    "source": "남영동 - 숙대입구역 - 쯔쿠시",
    "address": "서울 용산구 한강대로76길 5",
    "website": "http://place.map.daum.net/10767289",
    "category": "라멘"
   }
  },
  {
   "type": "Feature",
   "geometry": {
    "type": "Point",
    "coordinates": [
     127.02412943184,
     37.572188193968
    ]
   },
   "properties": {
    "pid": "22874198",
    "name": "리도",
    "phone": "070-4249-2255",
    "source": "신설동 - 신설동역 - 리도",
    "address": "서울 동대문구 난계로26길 11",
    "website": "http://place.map.daum.net/22874198",
    "category": "라멘"
   }
  },
  {
   "type": "Feature",
   "geometry": {
    "type": "Point",
    "coordinates": [
     127.028396503521,
     37.4932343208147
    ]
   },
   "properties": {
    "pid": "16793951",
    "name": "유타로 강남점",
    "phone": "02-582-5999",
    "source": "서초동 - 강남역 - 유타로",
    "address": "서울 서초구 서초대로74길 51",
    "website": "http://place.map.daum.net/16793951",
    "category": "라멘"
   }
  },
  {
   "type": "Feature",
   "geometry": {
    "type": "Point",
    "coordinates": [
     127.001380384504,
     37.5375274669656
    ]
   },
   "properties": {
    "pid": "26929788",
    "name": "라멘81번옥 이태원점",
    "phone": "02-749-6848",
    "source": "한남동 - 한남역 - 라멘81번옥",
    "address": "서울 용산구 이태원로 258",
    "website": "http://place.map.daum.net/26929788",
    "category": "라멘"
   }
  },
  {
   "type": "Feature",
   "geometry": {
    "type": "Point",
    "coordinates": [
     127.020257014033,
     37.5182262780431
    ]
   },
   "properties": {
    "pid": "27440783",
    "name": "이치라쿠",
    "phone": "",
    "source": "신사동 - 신사역 - 이치라쿠",
    "address": "서울 강남구 강남대로156길 13",
    "website": "http://place.map.daum.net/27440783",
    "category": "라멘"
   }
  },
  {
   "type": "Feature",
   "geometry": {
    "type": "Point",
    "coordinates": [
     126.997394462248,
     37.4986437452916
    ]
   },
   "properties": {
    "pid": "19156644",
    "name": "산쪼메 서래점",
    "phone": "02-6012-1259",
    "source": "반포동 - 고속터미널역 - 산쪼메",
    "address": "서울 서초구 서래로7길 15",
    "website": "http://place.map.daum.net/19156644",
    "category": "라멘"
   }
  },
  {
   "type": "Feature",
   "geometry": {
    "type": "Point",
    "coordinates": [
     127.020246002789,
     37.510964188664
    ]
   },
   "properties": {
    "pid": "14557050",
    "name": "라멘모토 본점",
    "phone": "070-4400-2370",
    "source": "잠원동 - 논현역 - 라멘모토",
    "address": "서울 서초구 신반포로 333",
    "website": "http://place.map.daum.net/14557050",
    "category": "라멘"
   }
  },
  {
   "type": "Feature",
   "geometry": {
    "type": "Point",
    "coordinates": [
     127.107722223492,
     37.5109168042197
    ]
   },
   "properties": {
    "pid": "27280302",
    "name": "멘야하나비 서울본점",
    "phone": "070-8959-1108",
    "source": "송파동 - 잠실역 - 멘야하나비",
    "address": "서울 송파구 백제고분로45길 38",
    "website": "http://place.map.daum.net/27280302",
    "category": "라멘"
   }
  },
  {
   "type": "Feature",
   "geometry": {
    "type": "Point",
    "coordinates": [
     127.024334906848,
     37.507838732866
    ]
   },
   "properties": {
    "pid": "12520269",
    "name": "울트라멘",
    "phone": "02-547-4433",
    "source": "논현동 - 논현역 - 울트라멘",
    "address": "서울 강남구 강남대로122길 14",
    "website": "http://place.map.daum.net/12520269",
    "category": "라멘"
   }
  }
 ]
}