{
 "type": "FeatureCollection",
 "features": [
  {
   "type": "Feature",
   "geometry": {
    "type": "Point",
    "coordinates": [
     126.970109253696,
     37.5766053538961
    ]
   },
   "properties": {
    "pid": "8931203",
    "name": "라면점빵",
    "phone": "02-738-7865",
    "source": "필운동 - 경복궁역 - 라면점빵",
    "address": "서울 종로구 자하문로1길 39",
    "website": "http://place.map.daum.net/8931203",
    "category": "라면"
   }
  },
  {
   "type": "Feature",
   "geometry": {
    "type": "Point",
    "coordinates": [
     126.982221584228,
     37.5793143859572
    ]
   },
   "properties": {
    "pid": "10371445",
    "name": "경춘자의 라면땡기는날",
    "phone": "02-733-3330",
    "source": "화동 - 안국역 - 라면땡기는날",
    "address": "서울 종로구 율곡로3길 82",
    "website": "http://place.map.daum.net/10371445",
    "category": "라면"
   }
  },
  {
   "type": "Feature",
   "geometry": {
    "type": "Point",
    "coordinates": [
     126.981623283732,
     37.5815703828318
    ]
   },
   "properties": {
    "pid": "315986559",
    "name": "55번지라면덮밥",
    "phone": "02-722-2997",
    "source": "화동 - 안국역 - 55번지 라면",
    "address": "서울 종로구 북촌로5가길 44-6",
    "website": "http://place.map.daum.net/315986559",
    "category": "라면"
   }
  },
  {
   "type": "Feature",
   "geometry": {
    "type": "Point",
    "coordinates": [
     127.070599504458,
     37.5431358182366
    ]
   },
   "properties": {
    "pid": "27345345",
    "name": "라면도사",
    "phone": "",
    "source": "화양동 - 건대입구역 - 라면도사",
    "address": "서울 광진구 능동로13길 27",
    "website": "http://place.map.daum.net/27345345",
    "category": "라면"
   }
  },
  {
   "type": "Feature",
   "geometry": {
    "type": "Point",
    "coordinates": [
     126.938802123929,
     37.5588472653889
    ]
   },
   "properties": {
    "pid": "18751980",
    "name": "신계치",
    "phone": "02-3147-1021",
    "source": "창천동 - 신촌역 - 신계치",
    "address": "서울 서대문구 명물길 47",
    "website": "http://place.map.daum.net/18751980",
    "category": "라면"
   }
  },
  {
   "type": "Feature",
   "geometry": {
    "type": "Point",
    "coordinates": [
     126.935381755608,
     37.5563586908068
    ]
   },
   "properties": {
    "pid": "1316829788",
    "name": "최루탄해장라면 훼드라",
    "phone": "02-323-3201",
    "source": "창천동 - 신촌역 - 훼드라",
    "address": "서울 서대문구 연세로5길 32",
    "website": "http://place.map.daum.net/1316829788",
    "category": "라면"
   }
  },
  {
   "type": "Feature",
   "geometry": {
    "type": "Point",
    "coordinates": [
     126.96303431322,
     37.5070497791868
    ]
   },
   "properties": {
    "pid": "18751205",
    "name": "수목식당",
    "phone": "02-816-3556",
    "source": "흑석동 - 흑석역 - 수목식당",
    "address": "서울 동작구 서달로14나길 28",
    "website": "http://place.map.daum.net/18751205",
    "category": "라면"
   }
  },
  {
   "type": "Feature",
   "geometry": {
    "type": "Point",
    "coordinates": [
     126.985978663787,
     37.5630285021797
    ]
   },
   "properties": {
    "pid": "10904319",
    "name": "틈새라면 명동본점",
    "phone": "",
    "source": "명동 - 명동역 - 틈새라면",
    "address": "서울 중구 명동10길 19-10",
    "website": "http://place.map.daum.net/10904319",
    "category": "라면"
   }
  },
  {
   "type": "Feature",
   "geometry": {
    "type": "Point",
    "coordinates": [
     126.87516538615014,
     37.52950346024047
    ]
   },
   "properties": {
    "pid": "11584999",
    "name": "라젠",
    "phone": "02-6264-7078",
    "source": "목동 - 오목교역 - 라젠",
    "address": "서울 양천구 목동서로 155",
    "website": "http://place.map.daum.net/11584999",
    "category": "라면"
   }
  },
  {
   "type": "Feature",
   "geometry": {
    "type": "Point",
    "coordinates": [
     126.985646521094,
     37.5715915265698
    ]
   },
   "properties": {
    "pid": "13302525",
    "name": "삼숙이라면",
    "phone": "02-720-9711",
    "source": "인사동 - 종각역 - 삼숙이라면",
    "address": "서울 종로구 종로11길 30",
    "website": "http://place.map.daum.net/13302525",
    "category": "라면"
   }
  },
  {
   "type": "Feature",
   "geometry": {
    "type": "Point",
    "coordinates": [
     127.144490410598,
     37.5506333041405
    ]
   },
   "properties": {
    "pid": "16499843",
    "name": "테마라면 명일점",
    "phone": "02-441-4220",
    "source": "명일동 - 명일역 - 테마라면",
    "address": "서울 강동구 양재대로 1626",
    "website": "http://place.map.daum.net/16499843",
    "category": "라면"
   }
  }
 ]
}