{"type": "FeatureCollection","features": [
  {"type": "Feature", "geometry": {"type": "Point", "coordinates": [126.920708985009, 37.5485687313108]}, "properties": {"name": "\ubb34\ub77c", "address": "\uc11c\uc6b8 \ub9c8\ud3ec\uad6c \uc5b4\uc6b8\ub9c8\ub2f9\ub85c 40", "website": "http://place.map.daum.net/11085883", "phone": "02-326-2588", "source": "\uc0c1\uc218\ub3d9 - \uc0c1\uc218\uc5ed - \ubb34\ub77c", "pid": "11085883"}}
  ,{"type": "Feature", "geometry": {"type": "Point", "coordinates": [126.92379574116, 37.5488915191848]}, "properties": {"name": "\ud558\uce74\ud0c0\ubd84\ucf54", "address": "\uc11c\uc6b8 \ub9c8\ud3ec\uad6c \ub3c5\ub9c9\ub85c19\uae38 43", "website": "http://place.map.daum.net/21410206", "phone": "02-338-5536", "source": "\uc0c1\uc218\ub3d9 - \uc0c1\uc218\uc5ed - \ud558\uce74\ud0c0\ubd84\ucf54", "pid": "21410206"}}
  ,{"type": "Feature", "geometry": {"type": "Point", "coordinates": [126.922674932904, 37.5471752892662]}, "properties": {"name": "\ub77c\uba58\ud2b8\ub7ed", "address": "\uc11c\uc6b8 \ub9c8\ud3ec\uad6c \uc640\uc6b0\uc0b0\ub85c7\uae38 6", "website": "http://place.map.daum.net/26503114", "phone": "02-336-8455", "source": "\uc0c1\uc218\ub3d9 - \uc0c1\uc218\uc5ed - \ub77c\uba58\ud2b8\ub7ed", "pid": "26503114"}}
  ,{"type": "Feature", "geometry": {"type": "Point", "coordinates": [126.92056460886127, 37.55238886655884]}, "properties": {"name": "\ud0c4\ud0c4\uba74\uacf5\ubc29 \ud64d\ub300\uc810", "address": "\uc11c\uc6b8 \ub9c8\ud3ec\uad6c \uc794\ub2e4\ub9ac\ub85c6\uae38 25", "website": "http://place.map.daum.net/27281113", "phone": "", "source": "\uc11c\uad50\ub3d9 - \ud64d\ub300\uc785\uad6c\uc5ed - \ud0c4\ud0c4\uba74\uacf5\ubc29", "pid": "27281113"}}
  ,{"type": "Feature", "geometry": {"type": "Point", "coordinates": [126.921418812785, 37.5536760629849]}, "properties": {"name": "\uba58\uc57c\uc0b0\ub2e4\uc774\uba54 \ud64d\ub300\uc810", "address": "\uc11c\uc6b8 \ub9c8\ud3ec\uad6c \ud64d\uc775\ub85c5\uc548\uae38 24", "website": "http://place.map.daum.net/12887413", "phone": "02-332-4129", "source": "\uc11c\uad50\ub3d9 - \ud64d\ub300\uc785\uad6c\uc5ed - \uba58\uc57c\uc0b0\ub2e4\uc774\uba54", "pid": "12887413"}}
  ,{"type": "Feature", "geometry": {"type": "Point", "coordinates": [126.920342292029, 37.5528644436512]}, "properties": {"name": "\ub098\uace0\ubbf8\uc564\uac90\ub85c\ucfe0", "address": "\uc11c\uc6b8 \ub9c8\ud3ec\uad6c \ud64d\uc775\ub85c5\uc548\uae38 50", "website": "http://place.map.daum.net/18758380", "phone": "02-324-8545", "source": "\uc11c\uad50\ub3d9 - \ud64d\ub300\uc785\uad6c\uc5ed - \ub098\uace0\ubbf8\uc564\uac90\ub85c\ucfe0", "pid": "18758380"}}
  ,{"type": "Feature", "geometry": {"type": "Point", "coordinates": [126.925171531217, 37.5536965208231]}, "properties": {"name": "\uc9c0\ub85c\uc6b0\ub77c\uba58", "address": "\uc11c\uc6b8 \ub9c8\ud3ec\uad6c \uc640\uc6b0\uc0b0\ub85c29\uac00\uae38 79", "website": "http://place.map.daum.net/23734945", "phone": "02-323-3225", "source": "\uc11c\uad50\ub3d9 - \ud64d\ub300\uc785\uad6c\uc5ed - \uc9c0\ub85c\uc6b0\ub77c\uba58", "pid": "23734945"}}
  ,{"type": "Feature", "geometry": {"type": "Point", "coordinates": [126.91074661802, 37.5642831216488]}, "properties": {"name": "\uc9c0\uc0b0", "address": "\uc11c\uc6b8 \ub9c8\ud3ec\uad6c \uc131\uc0b0\ub85c4\uae38 80", "website": "http://place.map.daum.net/161210639", "phone": "", "source": "\uc11c\uad50\ub3d9 - \ud64d\ub300\uc785\uad6c\uc5ed - \uc9c0\uc0b0", "pid": "161210639"}}
  ,{"type": "Feature", "geometry": {"type": "Point", "coordinates": [126.926730635869, 37.5564040951311]}, "properties": {"name": "\ubd80\ud0c4\uce04 \ud64d\ub300\uc810", "address": "\uc11c\uc6b8 \ub9c8\ud3ec\uad6c \uc640\uc6b0\uc0b0\ub85c35\uae38 75", "website": "http://place.map.daum.net/18742750", "phone": "02-3144-3304", "source": "\uc11c\uad50\ub3d9 - \ud64d\ub300\uc785\uad6c\uc5ed - \ubd80\ud0c4\uce04", "pid": "18742750"}}
  ,{"type": "Feature", "geometry": {"type": "Point", "coordinates": [126.927646335027, 37.5551144315258]}, "properties": {"name": "\ucfe0\uc790\ucfe0", "address": "\uc11c\uc6b8 \ub9c8\ud3ec\uad6c \uc640\uc6b0\uc0b0\ub85c29\ub2e4\uae38 10", "website": "http://place.map.daum.net/25779760", "phone": "02-326-0082", "source": "\uc11c\uad50\ub3d9 - \ud64d\ub300\uc785\uad6c\uc5ed - \ucfe0\uc790\ucfe0", "pid": "25779760"}}
  ,{"type": "Feature", "geometry": {"type": "Point", "coordinates": [126.93853549124078, 37.55896578818826]}, "properties": {"name": "\uba58\uc57c\uc694\uc2dc", "address": "\uc11c\uc6b8 \uc11c\ub300\ubb38\uad6c \uc5f0\uc138\ub85c12\uae38 28", "website": "http://place.map.daum.net/15814593", "phone": "02-362-6238", "source": "\uc11c\uad50\ub3d9 - \ud64d\ub300\uc785\uad6c\uc5ed - \uba58\uc57c\uc694\uc2dc", "pid": "15814593"}}
  ,{"type": "Feature", "geometry": {"type": "Point", "coordinates": [126.918816310482, 37.5616319084292]}, "properties": {"name": "\ubb34\ud0c0\ud788\ub85c", "address": "\uc11c\uc6b8 \ub9c8\ud3ec\uad6c \uc131\ubbf8\uc0b0\ub85c 104", "website": "http://place.map.daum.net/1185180039", "phone": "070-4064-6958", "source": "\ub3d9\uad50\ub3d9 - \ud64d\ub300\uc785\uad6c\uc5ed - \ubb34\ud0c0\ud788\ub85c", "pid": "1185180039"}}
  ,{"type": "Feature", "geometry": {"type": "Point", "coordinates": [126.925814354687, 37.5628150162952]}, "properties": {"name": "\uba58\uc57c\ud788\uac00\uc2dc", "address": "\uc11c\uc6b8 \ub9c8\ud3ec\uad6c \ub3d9\uad50\ub85c 266-12", "website": "http://place.map.daum.net/1221120228", "phone": "02-3144-3758", "source": "\ub3d9\uad50\ub3d9 - \ud64d\ub300\uc785\uad6c\uc5ed - \uba58\uc57c\ud788\uac00\uc2dc", "pid": "1221120228"}}
  ,{"type": "Feature", "geometry": {"type": "Point", "coordinates": [126.923583046606, 37.5621396478926]}, "properties": {"name": "\uc0ac\uc774\ud1a0", "address": "\uc11c\uc6b8 \ub9c8\ud3ec\uad6c \uc131\ubbf8\uc0b0\ub85c26\uae38 43", "website": "http://place.map.daum.net/554372697", "phone": "02-323-0723", "source": "\uc5f0\ub0a8\ub3d9 - \ud64d\ub300\uc785\uad6c\uc5ed - \uc0ac\uc774\ud1a0", "pid": "554372697"}}
  ,{"type": "Feature", "geometry": {"type": "Point", "coordinates": [126.935273313668, 37.5561207681019]}, "properties": {"name": "\uc774\ucc0c\uba58 \uc2e0\ucd0c\uc810", "address": "\uc11c\uc6b8 \uc11c\ub300\ubb38\uad6c \uc5f0\uc138\ub85c5\uae38 38", "website": "http://place.map.daum.net/8040843", "phone": "02-333-9565", "source": "\ucc3d\ucc9c\ub3d9 - \uc2e0\ucd0c\uc5ed - \uc774\ucc0c\uba58", "pid": "8040843"}}
  ,{"type": "Feature", "geometry": {"type": "Point", "coordinates": [126.940169256066, 37.5589272538262]}, "properties": {"name": "\ub2e4\uc774\ubaac\ud0a4\uce5c", "address": "\uc11c\uc6b8 \uc11c\ub300\ubb38\uad6c \uba85\ubb3c\uae38 72", "website": "http://place.map.daum.net/27224530", "phone": "02-6369-6889", "source": "\ucc3d\ucc9c\ub3d9 - \uc2e0\ucd0c\uc5ed - \ub2e4\uc774\ubaac\ud0a4\uce5c", "pid": "27224530"}}
  ,{"type": "Feature", "geometry": {"type": "Point", "coordinates": [126.933404416442, 37.560372434905]}, "properties": {"name": "\uac00\ub9c8\ub9c8\ub8e8\uc774", "address": "\uc11c\uc6b8 \uc11c\ub300\ubb38\uad6c \uc131\uc0b0\ub85c22\uae38 4", "website": "http://place.map.daum.net/12342064", "phone": "02-3142-3929", "source": "\ucc3d\ucc9c\ub3d9 - \uc2e0\ucd0c\uc5ed - \uac00\ub9c8\ub9c8\ub8e8\uc774", "pid": "12342064"}}
  ,{"type": "Feature", "geometry": {"type": "Point", "coordinates": [126.94540770971, 37.5581765586318]}, "properties": {"name": "\uac00\uc57c\uac00\uc57c \uc774\ub300\uc810", "address": "\uc11c\uc6b8 \uc11c\ub300\ubb38\uad6c \uc774\ud654\uc5ec\ub3005\uae38 7-3", "website": "http://place.map.daum.net/21395214", "phone": "02-363-7877", "source": "\ub300\ud604\ub3d9 - \uc774\ub300\uc5ed - \uac00\uc57c\uac00\uc57c", "pid": "21395214"}}
  ,{"type": "Feature", "geometry": {"type": "Point", "coordinates": [126.94542061541, 37.5591027895666]}, "properties": {"name": "\uc18c\uc624", "address": "\uc11c\uc6b8 \uc11c\ub300\ubb38\uad6c \uc774\ud654\uc5ec\ub300\uae38 55", "website": "http://place.map.daum.net/15618872", "phone": "02-363-9861", "source": "\ub300\ud604\ub3d9 - \uc774\ub300\uc5ed - \uc18c\uc624", "pid": "15618872"}}
  ,{"type": "Feature", "geometry": {"type": "Point", "coordinates": [126.909671618277, 37.553743344396]}, "properties": {"name": "\ub77c\uba58\ubca0\ub77c\ubcf4", "address": "\uc11c\uc6b8 \ub9c8\ud3ec\uad6c \ub3d9\uad50\ub85c 67", "website": "http://place.map.daum.net/26818190", "phone": "02-338-3439", "source": "\ub9dd\uc6d0\ub3d9 - \ub9dd\uc6d0\uc5ed - \ubca0\ub77c\ubcf4", "pid": "26818190"}}
  ,{"type": "Feature", "geometry": {"type": "Point", "coordinates": [126.863564230363, 37.527317810762]}, "properties": {"name": "\uc2e0\uc138\uce74\uc774", "address": "\uc11c\uc6b8 \uc591\ucc9c\uad6c \uc2e0\uc815\uc911\uc559\ub85c23\uae38 10-1", "website": "http://place.map.daum.net/27332163", "phone": "02-6407-1542", "source": "\uc2e0\uc815\ub3d9 - \ubaa9\ub3d9\uc5ed - \uc2e0\uc138\uce74\uc774", "pid": "27332163"}}
  ,{"type": "Feature", "geometry": {"type": "Point", "coordinates": [127.071690225635, 37.5430414571614]}, "properties": {"name": "\uc6b0\ub9c8\uc774\ub3c4 \uac74\ub300\uc810", "address": "\uc11c\uc6b8 \uad11\uc9c4\uad6c \ub2a5\ub3d9\ub85c 135-2", "website": "http://place.map.daum.net/8029124", "phone": "02-467-8788", "source": "\ud654\uc591\ub3d9 - \uac74\ub300\uc785\uad6c\uc5ed - \uc6b0\ub9c8\uc774\ub3c4", "pid": "8029124"}}
  ,{"type": "Feature", "geometry": {"type": "Point", "coordinates": [127.031288947227, 37.5849950452124]}, "properties": {"name": "\ucfe0\uc774\ub3c4\ub77c\ucfe0", "address": "\uc11c\uc6b8 \uc131\ubd81\uad6c \uc548\uc554\ub85c 103", "website": "http://place.map.daum.net/16621049", "phone": "", "source": "\uc548\uc554\ub3d9 - \uc548\uc554\uc5ed - \ucfe0\uc774\ub3c4\ub77c\ucfe0", "pid": "16621049"}}
  ,{"type": "Feature", "geometry": {"type": "Point", "coordinates": [127.051065727063, 37.5847719079397]}, "properties": {"name": "\ub9c8\uce74\ub098\uc774 \uc2dc\ub9bd\ub300\ubcf8\uc810", "address": "\uc11c\uc6b8 \ub3d9\ub300\ubb38\uad6c \uc655\uc0b0\ub85c 272", "website": "http://place.map.daum.net/16448965", "phone": "02-969-2972", "source": "\uc804\ub18d\ub3d9 - \uccad\ub7c9\ub9ac\uc5ed - \ub9c8\uce74\ub098\uc774", "pid": "16448965"}}
  ,{"type": "Feature", "geometry": {"type": "Point", "coordinates": [127.018909294718, 37.5924110441654]}, "properties": {"name": "\ub098\uce74\ub178\ub77c\uba58 \uc131\uc2e0\uc5ec\ub300\uc810", "address": "\uc11c\uc6b8 \uc131\ubd81\uad6c \ub3d9\uc18c\ubb38\ub85c24\uae38 27", "website": "http://place.map.daum.net/26630480", "phone": "02-953-6256", "source": "\ub3d9\uc120\ub3d9 - \uc131\uc2e0\uc5ec\ub300\uc785\uad6c\uc5ed - \ub098\uce74\ub178\ub77c\uba58", "pid": "26630480"}}
  ,{"type": "Feature", "geometry": {"type": "Point", "coordinates": [126.97338655227, 37.5415933924309]}, "properties": {"name": "\ucbd4\ucfe0\uc2dc", "address": "\uc11c\uc6b8 \uc6a9\uc0b0\uad6c \ud55c\uac15\ub300\ub85c76\uae38 5", "website": "http://place.map.daum.net/10767289", "phone": "02-790-5602", "source": "\ub0a8\uc601\ub3d9 - \uc219\ub300\uc785\uad6c\uc5ed - \ucbd4\ucfe0\uc2dc", "pid": "10767289"}}
  ,{"type": "Feature", "geometry": {"type": "Point", "coordinates": [127.02412943184, 37.572188193968]}, "properties": {"name": "\ub9ac\ub3c4", "address": "\uc11c\uc6b8 \ub3d9\ub300\ubb38\uad6c \ub09c\uacc4\ub85c26\uae38 11", "website": "http://place.map.daum.net/22874198", "phone": "070-4249-2255", "source": "\uc2e0\uc124\ub3d9 - \uc2e0\uc124\ub3d9\uc5ed - \ub9ac\ub3c4", "pid": "22874198"}}
  ,{"type": "Feature", "geometry": {"type": "Point", "coordinates": [127.028396503521, 37.4932343208147]}, "properties": {"name": "\uc720\ud0c0\ub85c \uac15\ub0a8\uc810", "address": "\uc11c\uc6b8 \uc11c\ucd08\uad6c \uc11c\ucd08\ub300\ub85c74\uae38 51", "website": "http://place.map.daum.net/16793951", "phone": "02-582-5999", "source": "\uc11c\ucd08\ub3d9 - \uac15\ub0a8\uc5ed - \uc720\ud0c0\ub85c", "pid": "16793951"}}
  ,{"type": "Feature", "geometry": {"type": "Point", "coordinates": [127.001380384504, 37.5375274669656]}, "properties": {"name": "\ub77c\uba5881\ubc88\uc625 \uc774\ud0dc\uc6d0\uc810", "address": "\uc11c\uc6b8 \uc6a9\uc0b0\uad6c \uc774\ud0dc\uc6d0\ub85c 258", "website": "http://place.map.daum.net/26929788", "phone": "02-749-6848", "source": "\ud55c\ub0a8\ub3d9 - \ud55c\ub0a8\uc5ed - \ub77c\uba5881\ubc88\uc625", "pid": "26929788"}}
  ,{"type": "Feature", "geometry": {"type": "Point", "coordinates": [127.020257014033, 37.5182262780431]}, "properties": {"name": "\uc774\uce58\ub77c\ucfe0", "address": "\uc11c\uc6b8 \uac15\ub0a8\uad6c \uac15\ub0a8\ub300\ub85c156\uae38 13", "website": "http://place.map.daum.net/27440783", "phone": "", "source": "\uc2e0\uc0ac\ub3d9 - \uc2e0\uc0ac\uc5ed - \uc774\uce58\ub77c\ucfe0", "pid": "27440783"}}
  ,{"type": "Feature", "geometry": {"type": "Point", "coordinates": [126.997394462248, 37.4986437452916]}, "properties": {"name": "\uc0b0\ucabc\uba54 \uc11c\ub798\uc810", "address": "\uc11c\uc6b8 \uc11c\ucd08\uad6c \uc11c\ub798\ub85c7\uae38 15", "website": "http://place.map.daum.net/19156644", "phone": "02-6012-1259", "source": "\ubc18\ud3ec\ub3d9 - \uace0\uc18d\ud130\ubbf8\ub110\uc5ed - \uc0b0\ucabc\uba54", "pid": "19156644"}}
  ,{"type": "Feature", "geometry": {"type": "Point", "coordinates": [127.020246002789, 37.510964188664]}, "properties": {"name": "\ub77c\uba58\ubaa8\ud1a0 \ubcf8\uc810", "address": "\uc11c\uc6b8 \uc11c\ucd08\uad6c \uc2e0\ubc18\ud3ec\ub85c 333", "website": "http://place.map.daum.net/14557050", "phone": "070-4400-2370", "source": "\uc7a0\uc6d0\ub3d9 - \ub17c\ud604\uc5ed - \ub77c\uba58\ubaa8\ud1a0", "pid": "14557050"}}
  ,{"type": "Feature", "geometry": {"type": "Point", "coordinates": [127.107722223492, 37.5109168042197]}, "properties": {"name": "\uba58\uc57c\ud558\ub098\ube44 \uc11c\uc6b8\ubcf8\uc810", "address": "\uc11c\uc6b8 \uc1a1\ud30c\uad6c \ubc31\uc81c\uace0\ubd84\ub85c45\uae38 38", "website": "http://place.map.daum.net/27280302", "phone": "070-8959-1108", "source": "\uc1a1\ud30c\ub3d9 - \uc7a0\uc2e4\uc5ed - \uba58\uc57c\ud558\ub098\ube44", "pid": "27280302"}}
  ,{"type": "Feature", "geometry": {"type": "Point", "coordinates": [127.024334906848, 37.507838732866]}, "properties": {"name": "\uc6b8\ud2b8\ub77c\uba58", "address": "\uc11c\uc6b8 \uac15\ub0a8\uad6c \uac15\ub0a8\ub300\ub85c122\uae38 14", "website": "http://place.map.daum.net/12520269", "phone": "02-547-4433", "source": "\ub17c\ud604\ub3d9 - \ub17c\ud604\uc5ed - \uc6b8\ud2b8\ub77c\uba58", "pid": "12520269"}}
]}
