{"type": "FeatureCollection","features": [
  {"type": "Feature", "geometry": {"type": "Point", "coordinates": [126.970109253696, 37.5766053538961]}, "properties": {"name": "\ub77c\uba74\uc810\ube75", "address": "\uc11c\uc6b8 \uc885\ub85c\uad6c \uc790\ud558\ubb38\ub85c1\uae38 39", "website": "http://place.map.daum.net/8931203", "phone": "02-738-7865", "source": "\ud544\uc6b4\ub3d9 - \uacbd\ubcf5\uad81\uc5ed - \ub77c\uba74\uc810\ube75", "pid": "8931203"}}
  ,{"type": "Feature", "geometry": {"type": "Point", "coordinates": [126.982221584228, 37.5793143859572]}, "properties": {"name": "\uacbd\ucd98\uc790\uc758 \ub77c\uba74\ub561\uae30\ub294\ub0a0", "address": "\uc11c\uc6b8 \uc885\ub85c\uad6c \uc728\uace1\ub85c3\uae38 82", "website": "http://place.map.daum.net/10371445", "phone": "02-733-3330", "source": "\ud654\ub3d9 - \uc548\uad6d\uc5ed - \ub77c\uba74\ub561\uae30\ub294\ub0a0", "pid": "10371445"}}
  ,{"type": "Feature", "geometry": {"type": "Point", "coordinates": [126.981623283732, 37.5815703828318]}, "properties": {"name": "55\ubc88\uc9c0\ub77c\uba74\ub36e\ubc25", "address": "\uc11c\uc6b8 \uc885\ub85c\uad6c \ubd81\ucd0c\ub85c5\uac00\uae38 44-6", "website": "http://place.map.daum.net/315986559", "phone": "02-722-2997", "source": "\ud654\ub3d9 - \uc548\uad6d\uc5ed - 55\ubc88\uc9c0 \ub77c\uba74", "pid": "315986559"}}
  ,{"type": "Feature", "geometry": {"type": "Point", "coordinates": [127.070599504458, 37.5431358182366]}, "properties": {"name": "\ub77c\uba74\ub3c4\uc0ac", "address": "\uc11c\uc6b8 \uad11\uc9c4\uad6c \ub2a5\ub3d9\ub85c13\uae38 27", "website": "http://place.map.daum.net/27345345", "phone": "", "source": "\ud654\uc591\ub3d9 - \uac74\ub300\uc785\uad6c\uc5ed - \ub77c\uba74\ub3c4\uc0ac", "pid": "27345345"}}
  ,{"type": "Feature", "geometry": {"type": "Point", "coordinates": [126.938802123929, 37.5588472653889]}, "properties": {"name": "\uc2e0\uacc4\uce58", "address": "\uc11c\uc6b8 \uc11c\ub300\ubb38\uad6c \uba85\ubb3c\uae38 47", "website": "http://place.map.daum.net/18751980", "phone": "02-3147-1021", "source": "\ucc3d\ucc9c\ub3d9 - \uc2e0\ucd0c\uc5ed - \uc2e0\uacc4\uce58", "pid": "18751980"}}
  ,{"type": "Feature", "geometry": {"type": "Point", "coordinates": [126.935381755608, 37.5563586908068]}, "properties": {"name": "\ucd5c\ub8e8\ud0c4\ud574\uc7a5\ub77c\uba74 \ud6fc\ub4dc\ub77c", "address": "\uc11c\uc6b8 \uc11c\ub300\ubb38\uad6c \uc5f0\uc138\ub85c5\uae38 32", "website": "http://place.map.daum.net/1316829788", "phone": "02-323-3201", "source": "\ucc3d\ucc9c\ub3d9 - \uc2e0\ucd0c\uc5ed - \ud6fc\ub4dc\ub77c", "pid": "1316829788"}}
  ,{"type": "Feature", "geometry": {"type": "Point", "coordinates": [126.96303431322, 37.5070497791868]}, "properties": {"name": "\uc218\ubaa9\uc2dd\ub2f9", "address": "\uc11c\uc6b8 \ub3d9\uc791\uad6c \uc11c\ub2ec\ub85c14\ub098\uae38 28", "website": "http://place.map.daum.net/18751205", "phone": "02-816-3556", "source": "\ud751\uc11d\ub3d9 - \ud751\uc11d\uc5ed - \uc218\ubaa9\uc2dd\ub2f9", "pid": "18751205"}}
  ,{"type": "Feature", "geometry": {"type": "Point", "coordinates": [126.985978663787, 37.5630285021797]}, "properties": {"name": "\ud2c8\uc0c8\ub77c\uba74 \uba85\ub3d9\ubcf8\uc810", "address": "\uc11c\uc6b8 \uc911\uad6c \uba85\ub3d910\uae38 19-10", "website": "http://place.map.daum.net/10904319", "phone": "", "source": "\uba85\ub3d9 - \uba85\ub3d9\uc5ed - \ud2c8\uc0c8\ub77c\uba74", "pid": "10904319"}}
  ,{"type": "Feature", "geometry": {"type": "Point", "coordinates": [126.87516538615014, 37.52950346024047]}, "properties": {"name": "\ub77c\uc820", "address": "\uc11c\uc6b8 \uc591\ucc9c\uad6c \ubaa9\ub3d9\uc11c\ub85c 155", "website": "http://place.map.daum.net/11584999", "phone": "02-6264-7078", "source": "\ubaa9\ub3d9 - \uc624\ubaa9\uad50\uc5ed - \ub77c\uc820", "pid": "11584999"}}
  ,{"type": "Feature", "geometry": {"type": "Point", "coordinates": [126.985646521094, 37.5715915265698]}, "properties": {"name": "\uc0bc\uc219\uc774\ub77c\uba74", "address": "\uc11c\uc6b8 \uc885\ub85c\uad6c \uc885\ub85c11\uae38 30", "website": "http://place.map.daum.net/13302525", "phone": "02-720-9711", "source": "\uc778\uc0ac\ub3d9 - \uc885\uac01\uc5ed - \uc0bc\uc219\uc774\ub77c\uba74", "pid": "13302525"}}
  ,{"type": "Feature", "geometry": {"type": "Point", "coordinates": [127.144490410598, 37.5506333041405]}, "properties": {"name": "\ud14c\ub9c8\ub77c\uba74 \uba85\uc77c\uc810", "address": "\uc11c\uc6b8 \uac15\ub3d9\uad6c \uc591\uc7ac\ub300\ub85c 1626", "website": "http://place.map.daum.net/16499843", "phone": "02-441-4220", "source": "\uba85\uc77c\ub3d9 - \uba85\uc77c\uc5ed - \ud14c\ub9c8\ub77c\uba74", "pid": "16499843"}}
]}
