{"type": "FeatureCollection","features": [
  {"type": "Feature", "geometry": {"type": "Point", "coordinates": [126.9799279715089, 37.57083746078675]}, "properties": {"name": "\uad11\ud654\ubb38\ubbf8\uc9c4 \ubcf8\uc810", "address": "\uc11c\uc6b8 \uc885\ub85c\uad6c \uc885\ub85c 19", "website": "http://place.map.daum.net/21326655", "phone": "02-732-1954", "source": "\uc885\ub85c 1\uac00 - \uad11\ud654\ubb38\uc5ed - \ubbf8\uc9c4", "pid": "21326655"}}
  ,{"type": "Feature", "geometry": {"type": "Point", "coordinates": [126.977372533762, 37.561560344017]}, "properties": {"name": "\uc1a1\uc625", "address": "\uc11c\uc6b8 \uc911\uad6c \ub0a8\ub300\ubb38\ub85c1\uae38 11", "website": "http://place.map.daum.net/10553650", "phone": "02-752-3297", "source": "\ub0a8\ub300\ubb38\ub85c 4\uac00 - \uc2dc\uccad\uc5ed, \ud68c\ud604\uc5ed - \uc1a1\uc625 (\uac00\ub85c\uc218\uae38\uc5d0 \ubd84\uc810)", "pid": "10553650"}}
  ,{"type": "Feature", "geometry": {"type": "Point", "coordinates": [127.116018147064, 37.5157707627353]}, "properties": {"name": "\ud55c\uc544\ub78c", "address": "\uc11c\uc6b8 \uc1a1\ud30c\uad6c \uc704\ub840\uc131\ub300\ub85c 34", "website": "http://place.map.daum.net/275788090", "phone": "02-415-7277", "source": "\ubc29\uc774\ub3d9 - \uc7a0\uc2e4\uc5ed - \ud55c\uc544\ub78c \uc815\uc721\uc2dd\ub2f9", "pid": "275788090"}}
  ,{"type": "Feature", "geometry": {"type": "Point", "coordinates": [126.979697411357, 37.5695075521838]}, "properties": {"name": "\uc720\ub9bc\ub099\uc9c0", "address": "\uc11c\uc6b8 \uc885\ub85c\uad6c \uc885\ub85c 24-8", "website": "http://place.map.daum.net/7885256", "phone": "02-723-1741", "source": "\uc11c\uc18c\ubb38\ub3d9 - \uc2dc\uccad\uc5ed - \uc720\ub9bc", "pid": "7885256"}}
  ,{"type": "Feature", "geometry": {"type": "Point", "coordinates": [126.979860616143, 37.5182695463181]}, "properties": {"name": "\uc18c\ubc14\uc57c\uccad\ub2f4", "address": "\uc11c\uc6b8 \uc6a9\uc0b0\uad6c \uc774\ucd0c\ub85c 303", "website": "http://place.map.daum.net/11571720", "phone": "02-749-7745", "source": "\uc774\ucd0c\ub3d9 - \ub3d9\ubd80\uc774\ucd0c\ub3d9\uc5ed - \uc18c\ubc14\uc57c \uccad\ub2f4", "pid": "11571720"}}
  ,{"type": "Feature", "geometry": {"type": "Point", "coordinates": [126.933980205131, 37.5183645366391]}, "properties": {"name": "\uccad\uc218", "address": "\uc11c\uc6b8 \uc601\ub4f1\ud3ec\uad6c \uad6d\uc81c\uae08\uc735\ub85c 112", "website": "http://place.map.daum.net/20746105", "phone": "02-784-1559", "source": "\uc5ec\uc758\ub3c4\ub3d9 - \uc0db\uac15\uc5ed - \uccad\uc218", "pid": "20746105"}}
  ,{"type": "Feature", "geometry": {"type": "Point", "coordinates": [127.033576859931, 37.4961810566319]}, "properties": {"name": "\uc624\ubb34\ub77c\uc548", "address": "\uc11c\uc6b8 \uac15\ub0a8\uad6c \ub17c\ud604\ub85c79\uae38 66", "website": "http://place.map.daum.net/8015540", "phone": "02-569-8610", "source": "\uc5ed\uc0bc\ub3d9 - \uac15\ub0a8\uc5ed - \uc624\ubb34\ub77c\uc548", "pid": "8015540"}}
  ,{"type": "Feature", "geometry": {"type": "Point", "coordinates": [127.022792775272, 37.5097203384445]}, "properties": {"name": "\ubbf8\ub098\ubbf8 \uac15\ub0a8\uc810", "address": "\uc11c\uc6b8 \uac15\ub0a8\uad6c \uac15\ub0a8\ub300\ub85c128\uae38 6", "website": "http://place.map.daum.net/7875272", "phone": "", "source": "\uc11c\ucd08\ub3d9 - \uad50\ub300\uc5ed - \ubbf8\ub098\ubbf8", "pid": "7875272"}}
  ,{"type": "Feature", "geometry": {"type": "Point", "coordinates": [127.035357676143, 37.4740481677891]}, "properties": {"name": "\ubbf8\uc6b0\uc57c", "address": "\uc11c\uc6b8 \uc11c\ucd08\uad6c \uac15\ub0a8\ub300\ub85c23\uae38 90", "website": "http://place.map.daum.net/17462492", "phone": "02-577-6348", "source": "\uc591\uc7ac\ub3d9 - \uc591\uc7ac\uc5ed, \uc591\uc7ac \uc2dc\ubbfc\uc758 \uc232\uc5ed - \ubbf8\uc6b0\uc57c", "pid": "17462492"}}
  ,{"type": "Feature", "geometry": {"type": "Point", "coordinates": [127.021103644644, 37.5200533642622]}, "properties": {"name": "\ubbf8\ubbf8\uba74\uac00 \uc2e0\uc0ac\uc810", "address": "\uc11c\uc6b8 \uac15\ub0a8\uad6c \uac15\ub0a8\ub300\ub85c160\uae38 29", "website": "http://place.map.daum.net/18324313", "phone": "070-4211-5466", "source": "\uc2e0\uc0ac\ub3d9 - \uc2e0\uc0ac\uc5ed - \ubbf8\ubbf8\uba74\uac00", "pid": "18324313"}}
  ,{"type": "Feature", "geometry": {"type": "Point", "coordinates": [127.021977278884, 37.5212425288287]}, "properties": {"name": "\uc720\ub178\ucd94\ubcf4", "address": "\uc11c\uc6b8 \uac15\ub0a8\uad6c \uc555\uad6c\uc815\ub85c10\uae38 36", "website": "http://place.map.daum.net/8468838", "phone": "02-545-2811", "source": "\uc2e0\uc0ac\ub3d9 - \uc2e0\uc0ac\uc5ed - \uc720\ub178\ucd94\ubcf4", "pid": "8468838"}}
  ,{"type": "Feature", "geometry": {"type": "Point", "coordinates": [127.044118677191, 37.523323055632]}, "properties": {"name": "\ud638\ubb34\ub791", "address": "\uc11c\uc6b8 \uac15\ub0a8\uad6c \ub3c4\uc0b0\ub300\ub85c 442", "website": "http://place.map.daum.net/18742645", "phone": "02-6947-1279", "source": "\uccad\ub2f4\ub3d9 - \uccad\ub2f4\uc5ed - \ud638\ubb34\ub791", "pid": "18742645"}}
  ,{"type": "Feature", "geometry": {"type": "Point", "coordinates": [127.02352045891, 37.5074640797902]}, "properties": {"name": "\ud788\uae4c\ub9ac", "address": "\uc11c\uc6b8 \uac15\ub0a8\uad6c \uac15\ub0a8\ub300\ub85c 506", "website": "http://place.map.daum.net/24484094", "phone": "070-4400-8788", "source": "\ub17c\ud604\ub3d9 - \ub17c\ud604\uc5ed - \ud788\uae4c\ub9ac", "pid": "24484094"}}
  ,{"type": "Feature", "geometry": {"type": "Point", "coordinates": [126.98004286172093, 37.564489965120416]}, "properties": {"name": "\uc2a4\uc2dc\uc870", "address": "\uc11c\uc6b8 \uc911\uad6c \uc18c\uacf5\ub85c 106", "website": "http://place.map.daum.net/21306205", "phone": "02-317-0373", "source": "\uc18c\uacf5\ub3d9 - \uc744\uc9c0\ub85c \uc785\uad6c\uc5ed, \uc2dc\uccad\uc5ed - \uc2a4\uc2dc\uc870", "pid": "21306205"}}
  ,{"type": "Feature", "geometry": {"type": "Point", "coordinates": [126.924368498615, 37.5554619644241]}, "properties": {"name": "\uc624\ube44\uc57c", "address": "\uc11c\uc6b8 \ub9c8\ud3ec\uad6c \ud64d\uc775\ub85c2\uae38 27-20", "website": "http://place.map.daum.net/12391555", "phone": "02-6408-5252", "source": "\uc11c\uad50\ub3d9 - \ud64d\ub300\uc785\uad6c\uc5ed - \uc624\ube44\uc57c", "pid": "12391555"}}
  ,{"type": "Feature", "geometry": {"type": "Point", "coordinates": [126.976132031743, 37.5190292984527]}, "properties": {"name": "\ubbf8\ud0c0\ub2c8\uc57c \ub3d9\ubd80\uc774\ucd0c\uc810", "address": "\uc11c\uc6b8 \uc6a9\uc0b0\uad6c \uc774\ucd0c\ub85c 264", "website": "http://place.map.daum.net/2072270827", "phone": "02-797-4060", "source": "\uc774\ucd0c\ub3d9 - \ub3d9\ubd80\uc774\ucd0c\ub3d9\uc5ed - \ubbf8\ud0c0\ub2c8\uc57c (\ub3c4\uace1\ub3d9, \uc11c\ucd08\ub3d9, \ud604\ub300\ubc31\ud654\uc810 \uc555\uad6c\uc815, \uc2e0\uc138\uacc4 \uac15\ub0a8\uc810, \ud604\ub300\ubc31\ud654\uc810 \ud310\uad50\uc810\ub4f1\uc5d0 \ubd84\uc810)", "pid": "2072270827"}}
  ,{"type": "Feature", "geometry": {"type": "Point", "coordinates": [126.976417728161, 37.560114958298]}, "properties": {"name": "\uc6b0\ubaa8\ucd0c", "address": "\uc11c\uc6b8 \uc911\uad6c \ub0a8\ub300\ubb38\uc2dc\uc7a5\uae38 7", "website": "http://place.map.daum.net/15463889", "phone": "02-755-3512", "source": "\ud68c\ud604\ub3d9 - \ud68c\ud604\uc5ed, \ub0a8\ub300\ubb38\uc2dc\uc7a5 - \uc6b0\ubaa8\ucd0c", "pid": "15463889"}}
  ,{"type": "Feature", "geometry": {"type": "Point", "coordinates": [126.786070883982, 37.446011364177]}, "properties": {"name": "\ubd09\ud3c9\ub9c9\uad6d\uc218\uac08\ube44\ucc1c", "address": "\uacbd\uae30 \uc2dc\ud765\uc2dc \ud638\ud604\ub85c 65", "website": "http://place.map.daum.net/18871349", "phone": "031-311-9559", "source": "\uc2e0\ucc9c\ub3d9 - \uc7a0\uc2e4\ub098\ub8e8\uc5ed - \ubd09\ud3c9\uc18c\ubc14", "pid": "18871349"}}
  ,{"type": "Feature", "geometry": {"type": "Point", "coordinates": [126.920301399217, 37.5487558645913]}, "properties": {"name": "\uac90\ub85c\ucfe0\uc6b0\ub3d9 \ud64d\ub300\ubcf8\uc810", "address": "\uc11c\uc6b8 \ub9c8\ud3ec\uad6c \uc5b4\uc6b8\ub9c8\ub2f9\ub85c 39", "website": "http://place.map.daum.net/12437276", "phone": "02-325-8555", "source": "\uc0c1\uc218\ub3d9 - \ud64d\ub300\uc785\uad6c\uc5ed - \uac90\ub85c\ucfe0 \uc6b0\ub3d9", "pid": "12437276"}}
  ,{"type": "Feature", "geometry": {"type": "Point", "coordinates": [127.107722223492, 37.5109168042197]}, "properties": {"name": "\uba58\uc57c\ud558\ub098\ube44 \uc11c\uc6b8\ubcf8\uc810", "address": "\uc11c\uc6b8 \uc1a1\ud30c\uad6c \ubc31\uc81c\uace0\ubd84\ub85c45\uae38 38", "website": "http://place.map.daum.net/27280302", "phone": "070-8959-1108", "source": "\uc1a1\ud30c\ub3d9 - \uc7a0\uc2e4\uc5ed - \uba58\uc57c \ud558\ub098\ube44", "pid": "27280302"}}
  ,{"type": "Feature", "geometry": {"type": "Point", "coordinates": [126.993061714898, 37.4903362860425]}, "properties": {"name": "\ubb18\uc624\ub610", "address": "\uc11c\uc6b8 \uc11c\ucd08\uad6c \ubc29\ubc30\ub85c28\uae38 16", "website": "http://place.map.daum.net/23122567", "phone": "02-536-5980", "source": "\ubc29\ubc30\ub3d9 - \ub0b4\ubc29\uc5ed - \ubb18\uc624\ub610", "pid": "23122567"}}
  ,{"type": "Feature", "geometry": {"type": "Point", "coordinates": [126.916809209385, 37.5548405980745]}, "properties": {"name": "\uac00\uce20\uc2dc", "address": "\uc11c\uc6b8 \ub9c8\ud3ec\uad6c \ub3d9\uad50\ub85c18\uae38 5", "website": "http://place.map.daum.net/21883668", "phone": "02-332-3407", "source": "\uc11c\uad50\ub3d9 - \ud569\uc815\uc5ed - \uac00\uce20\uc2dc", "pid": "21883668"}}
  ,{"type": "Feature", "geometry": {"type": "Point", "coordinates": [127.042538061209, 37.5128972253997]}, "properties": {"name": "\ud558\ub8e8\uc5d4\uc18c\ucfe0 \ub17c\ud604\uc2f8\uc774\ub354\uc2a4HQ\uc810", "address": "\uc11c\uc6b8 \uac15\ub0a8\uad6c \uc120\ub989\ub85c 629", "website": "http://place.map.daum.net/22675380", "phone": "02-546-2259", "source": "\ub17c\ud604\ub3d9 - \uac15\ub0a8\uad6c\uccad\uc5ed - \ud558\ub8e8\uc5d4\uc18c\ucfe0", "pid": "22675380"}}
  ,{"type": "Feature", "geometry": {"type": "Point", "coordinates": [126.967078006001, 37.5808572393412]}, "properties": {"name": "\ub178\ubd80", "address": "\uc11c\uc6b8 \uc885\ub85c\uad6c \uc625\uc778\uae38 23-6", "website": "http://place.map.daum.net/1975018228", "phone": "02-3210-4107", "source": "\ub204\ud558\ub3d9 - \uacbd\ubcf5\uad81\uc6d0 - \ub178\ubd80", "pid": "1975018228"}}
  ,{"type": "Feature", "geometry": {"type": "Point", "coordinates": [127.053038919278, 37.4998428197984]}, "properties": {"name": "\ub9c8\ucd08\uc57c", "address": "\uc11c\uc6b8 \uac15\ub0a8\uad6c \uc5ed\uc0bc\ub85c64\uae38 18", "website": "http://place.map.daum.net/27444612", "phone": "02-6012-9057", "source": "\ub300\uce58\ub3d9 - \uc120\ub989\uc5ed, \ud55c\ud2f0\uc5ed - \ub9c8\ucd08\uc57c", "pid": "27444612"}}
  ,{"type": "Feature", "geometry": {"type": "Point", "coordinates": [127.030329437322, 37.4970360892476]}, "properties": {"name": "\uc6b0\ub3d9\uba85\uac00 \uae30\ub9ac\uc57c\ub9c8\ubcf8\uc9c4", "address": "\uc11c\uc6b8 \uac15\ub0a8\uad6c \uac15\ub0a8\ub300\ub85c84\uae38 23", "website": "http://place.map.daum.net/19637934", "phone": "", "source": "\uc5ed\uc0bc\ub3d9 - \uac15\ub0a8\uc5ed - \uae30\ub9ac\uc57c\ub9c8 \ubcf8\uc9c4", "pid": "19637934"}}
  ,{"type": "Feature", "geometry": {"type": "Point", "coordinates": [127.000679297821, 37.5838242949776]}, "properties": {"name": "\uc7a5\uc218\ubd84\uc2dd", "address": "\uc11c\uc6b8 \uc885\ub85c\uad6c \ucc3d\uacbd\uad81\ub85c34\uae38 24-9", "website": "http://place.map.daum.net/14556210", "phone": "02-762-7418", "source": "\uba85\ub3d9 - \uc744\uc9c0\ub85c\uc785\uad6c\uc5ed - \uc7a5\uc218\ubd84\uc2dd", "pid": "14556210"}}
]}
