{
 "type": "FeatureCollection",
 "features": [
  {
   "type": "Feature",
   "geometry": {
    "type": "Point",
    "coordinates": [
     126.903082246885,
     37.5349540922451
    ]
   },
   "properties": {
    "pid": "23493474",
    "name": "이조보쌈",
    "phone": "02-2671-3257",
    "source": "당산동 - 당산역 - 이조보쌈",
    "address": "서울 영등포구 당산로 244",
    "website": "http://place.map.daum.net/23493474",
    "category": "보쌈"
   }
  },
  {
   "type": "Feature",
   "geometry": {
    "type": "Point",
    "coordinates": [
     127.02938175256,
     37.5258108036069
    ]
   },
   "properties": {
    "pid": "7943815",
    "name": "설매네",
    "phone": "02-548-0090",
    "source": "신사동 - 압구정역 - 설매네",
    "address": "서울 강남구 압구정로30길 23",
    "website": "http://place.map.daum.net/7943815",
    "category": "보쌈"
   }
  },
  {
   "type": "Feature",
   "geometry": {
    "type": "Point",
    "coordinates": [
     127.022315699546,
     37.5484490848938
    ]
   },
   "properties": {
    "pid": "10666203",
    "name": "은성보쌈",
    "phone": "02-2297-9922",
    "source": "금호동 - 금호역 - 은성보쌈",
    "address": "서울 성동구 독서당로 297-6",
    "website": "http://place.map.daum.net/10666203",
    "category": "보쌈"
   }
  },
  {
   "type": "Feature",
   "geometry": {
    "type": "Point",
    "coordinates": [
     126.984190374694,
     37.4770978135296
    ]
   },
   "properties": {
    "pid": "16472871",
    "name": "시골보쌈&감자옹심이 사당본점",
    "phone": "02-3473-7355",
    "source": "사당동 - 사당역 - 시골보쌈",
    "address": "서울 서초구 방배천로2길 25",
    "website": "http://place.map.daum.net/16472871",
    "category": "보쌈"
   }
  },
  {
   "type": "Feature",
   "geometry": {
    "type": "Point",
    "coordinates": [
     126.985936449722,
     37.5708347254742
    ]
   },
   "properties": {
    "pid": "13327664",
    "name": "삼해집 인사동점",
    "phone": "02-733-1460",
    "source": "인사동 - 종각역 - 삼해집",
    "address": "서울 종로구 종로11길 10",
    "website": "http://place.map.daum.net/13327664",
    "category": "보쌈"
   }
  },
  {
   "type": "Feature",
   "geometry": {
    "type": "Point",
    "coordinates": [
     126.991003253839,
     37.5698152935785
    ]
   },
   "properties": {
    "pid": "8510319",
    "name": "전주집",
    "phone": "02-2278-3311",
    "source": "관수동 - 종로5가역 - 전주집",
    "address": "서울 종로구 수표로20길 16-15",
    "website": "http://place.map.daum.net/8510319",
    "category": "보쌈"
   }
  },
  {
   "type": "Feature",
   "geometry": {
    "type": "Point",
    "coordinates": [
     126.990835715385,
     37.5698945682906
    ]
   },
   "properties": {
    "pid": "10967463",
    "name": "흥부가",
    "phone": "02-2269-8110",
    "source": "관수동 - 종로 5가역 - 흥부가",
    "address": "서울 종로구 수표로20길 22",
    "website": "http://place.map.daum.net/10967463",
    "category": "보쌈"
   }
  },
  {
   "type": "Feature",
   "geometry": {
    "type": "Point",
    "coordinates": [
     127.083788638711,
     37.5106082406089
    ]
   },
   "properties": {
    "pid": "8063400",
    "name": "장원보쌈왕족발",
    "phone": "02-417-8562",
    "source": "잠실동 - 신천역 - 장원보쌈",
    "address": "서울 송파구 백제고분로7길 46",
    "website": "http://place.map.daum.net/8063400",
    "category": "보쌈"
   }
  },
  {
   "type": "Feature",
   "geometry": {
    "type": "Point",
    "coordinates": [
     126.973561223457,
     37.5724471859394
    ]
   },
   "properties": {
    "pid": "8122006",
    "name": "평안도만두집",
    "phone": "02-723-6592",
    "source": "내수동 - 광화문역 - 평안도만두집",
    "address": "서울 종로구 새문안로3길 30",
    "website": "http://place.map.daum.net/8122006",
    "category": "보쌈"
   }
  },
  {
   "type": "Feature",
   "geometry": {
    "type": "Point",
    "coordinates": [
     126.969861576471,
     37.5394733936423
    ]
   },
   "properties": {
    "pid": "12439290",
    "name": "원보쌈",
    "phone": "02-714-5353",
    "source": "원효로 1가 - 남영역 - 원보쌈",
    "address": "서울 용산구 백범로90라길 51",
    "website": "http://place.map.daum.net/12439290",
    "category": "보쌈"
   }
  },
  {
   "type": "Feature",
   "geometry": {
    "type": "Point",
    "coordinates": [
     126.895681617259,
     37.5357586871157
    ]
   },
   "properties": {
    "pid": "8049653",
    "name": "이필당보쌈왕족발",
    "phone": "02-2638-0280",
    "source": "양평동 - 선유도역 - 이필당",
    "address": "서울 영등포구 양평로17길 12-2",
    "website": "http://place.map.daum.net/8049653",
    "category": "보쌈"
   }
  },
  {
   "type": "Feature",
   "geometry": {
    "type": "Point",
    "coordinates": [
     126.924167189747,
     37.5620246969879
    ]
   },
   "properties": {
    "pid": "15757802",
    "name": "송가네감자탕 본점",
    "phone": "02-3141-6557",
    "source": "연남동 - 홍대입구역 - 송가네",
    "address": "서울 마포구 동교로 247",
    "website": "http://place.map.daum.net/15757802",
    "category": "보쌈"
   }
  },
  {
   "type": "Feature",
   "geometry": {
    "type": "Point",
    "coordinates": [
     126.913449674268,
     37.5475112672559
    ]
   },
   "properties": {
    "pid": "17781427",
    "name": "각시보쌈",
    "phone": "02-333-8786",
    "source": "합정동 - 합정역 - 각시보쌈",
    "address": "서울 마포구 성지길 25",
    "website": "http://place.map.daum.net/17781427",
    "category": "보쌈"
   }
  },
  {
   "type": "Feature",
   "geometry": {
    "type": "Point",
    "coordinates": [
     127.03721931212,
     37.5167264852802
    ]
   },
   "properties": {
    "pid": "8188651",
    "name": "고향집",
    "phone": "02-543-6363",
    "source": "논현동 - 강남구청역 - 고향집",
    "address": "서울 강남구 언주로134길 20",
    "website": "http://place.map.daum.net/8188651",
    "category": "보쌈"
   }
  },
  {
   "type": "Feature",
   "geometry": {
    "type": "Point",
    "coordinates": [
     126.990717992363,
     37.5698945590935
    ]
   },
   "properties": {
    "pid": "10731091",
    "name": "장군보쌈",
    "phone": "02-2274-9548",
    "source": "다동 - 을지로 입구역 - 장군보쌈",
    "address": "서울 종로구 수표로20길 22",
    "website": "http://place.map.daum.net/10731091",
    "category": "보쌈"
   }
  },
  {
   "type": "Feature",
   "geometry": {
    "type": "Point",
    "coordinates": [
     126.974374820294,
     37.550203558256
    ]
   },
   "properties": {
    "pid": "9963594",
    "name": "충무칼국수",
    "phone": "02-754-1123",
    "source": "동자동 - 서울역 - 충무칼국수",
    "address": "서울 용산구 한강대로104길 38",
    "website": "http://place.map.daum.net/9963594",
    "category": "보쌈"
   }
  },
  {
   "type": "Feature",
   "geometry": {
    "type": "Point",
    "coordinates": [
     126.900056292235,
     37.4827545824355
    ]
   },
   "properties": {
    "pid": "26857271",
    "name": "황제해물보쌈 구로본점",
    "phone": "02-838-3777",
    "source": "구로동 - 구로디지털단지역 - 황제해물보쌈",
    "address": "서울 구로구 디지털로32길 92",
    "website": "http://place.map.daum.net/26857271",
    "category": "보쌈"
   }
  },
  {
   "type": "Feature",
   "geometry": {
    "type": "Point",
    "coordinates": [
     127.031098664335,
     37.4976341575722
    ]
   },
   "properties": {
    "pid": "27504286",
    "name": "서진식당",
    "phone": "02-553-9576",
    "source": "역삼동 - 강남역 - 서진식당",
    "address": "서울 강남구 강남대로84길 33",
    "website": "http://place.map.daum.net/27504286",
    "category": "보쌈"
   }
  },
  {
   "type": "Feature",
   "geometry": {
    "type": "Point",
    "coordinates": [
     126.869106947608,
     37.5328922694221
    ]
   },
   "properties": {
    "pid": "11327980",
    "name": "개성집",
    "phone": "02-2642-5695",
    "source": "목동 - 목동역 - 개성집",
    "address": "서울 양천구 목동중앙서로 48",
    "website": "http://place.map.daum.net/11327980",
    "category": "보쌈"
   }
  },
  {
   "type": "Feature",
   "geometry": {
    "type": "Point",
    "coordinates": [
     126.990876097683,
     37.5729111033521
    ]
   },
   "properties": {
    "pid": "7824584",
    "name": "대박집",
    "phone": "02-763-5367",
    "source": "돈의동 - 종로3가역 - 진주대박집",
    "address": "서울 종로구 돈화문로11다길 14-2",
    "website": "http://place.map.daum.net/7824584",
    "category": "보쌈"
   }
  },
  {
   "type": "Feature",
   "geometry": {
    "type": "Point",
    "coordinates": [
     126.929242046502,
     37.4856624965488
    ]
   },
   "properties": {
    "pid": "8148101",
    "name": "할매보쌈",
    "phone": "02-885-4724",
    "source": "신림동 - 신림역 - 할매보쌈",
    "address": "서울 관악구 신림로 351",
    "website": "http://place.map.daum.net/8148101",
    "category": "보쌈"
   }
  },
  {
   "type": "Feature",
   "geometry": {
    "type": "Point",
    "coordinates": [
     126.988186373024,
     37.5735307493384
    ]
   },
   "properties": {
    "pid": "8054793",
    "name": "장군족발보쌈 본점",
    "phone": "02-743-3557",
    "source": "낙원동 - 종로3가역 - 장군족발보쌈",
    "address": "서울 종로구 삼일대로 434-1",
    "website": "http://place.map.daum.net/8054793",
    "category": "보쌈"
   }
  },
  {
   "type": "Feature",
   "geometry": {
    "type": "Point",
    "coordinates": [
     127.036368296806,
     37.6648426584946
    ]
   },
   "properties": {
    "pid": "12443342",
    "name": "흥부족발보쌈",
    "phone": "",
    "source": "방학동 - 쌍문역 - 흥부족발보쌈",
    "address": "서울 도봉구 도당로 80",
    "website": "http://place.map.daum.net/12443342",
    "category": "보쌈"
   }
  },
  {
   "type": "Feature",
   "geometry": {
    "type": "Point",
    "coordinates": [
     126.98603546656,
     37.5740278636496
    ]
   },
   "properties": {
    "pid": "11818660",
    "name": "오수 별채",
    "phone": "02-730-3609",
    "source": "관훈동 - 안국역 - 오수",
    "address": "서울 종로구 인사동8길 12-1",
    "website": "http://place.map.daum.net/11818660",
    "category": "보쌈"
   }
  },
  {
   "type": "Feature",
   "geometry": {
    "type": "Point",
    "coordinates": [
     126.889702348695,
     37.4778546951962
    ]
   },
   "properties": {
    "pid": "8117410",
    "name": "춘천옥",
    "phone": "02-868-9937",
    "source": "가산동 - 가산디지텅단지역 - 춘천옥",
    "address": "서울 금천구 디지털로12길 19",
    "website": "http://place.map.daum.net/8117410",
    "category": "보쌈"
   }
  }
 ]
}