{"type": "FeatureCollection","features": [
  {"type": "Feature", "geometry": {"type": "Point", "coordinates": [126.903082246885, 37.5349540922451]}, "properties": {"name": "\uc774\uc870\ubcf4\uc308", "address": "\uc11c\uc6b8 \uc601\ub4f1\ud3ec\uad6c \ub2f9\uc0b0\ub85c 244", "website": "http://place.map.daum.net/23493474", "source": "\ub2f9\uc0b0\ub3d9 - \ub2f9\uc0b0\uc5ed - \uc774\uc870\ubcf4\uc308"}}
  ,{"type": "Feature", "geometry": {"type": "Point", "coordinates": [127.02938175256, 37.5258108036069]}, "properties": {"name": "\uc124\ub9e4\ub124", "address": "\uc11c\uc6b8 \uac15\ub0a8\uad6c \uc555\uad6c\uc815\ub85c30\uae38 23", "website": "http://place.map.daum.net/7943815", "source": "\uc2e0\uc0ac\ub3d9 - \uc555\uad6c\uc815\uc5ed - \uc124\ub9e4\ub124"}}
  ,{"type": "Feature", "geometry": {"type": "Point", "coordinates": [127.022315699546, 37.5484490848938]}, "properties": {"name": "\uc740\uc131\ubcf4\uc308", "address": "\uc11c\uc6b8 \uc131\ub3d9\uad6c \ub3c5\uc11c\ub2f9\ub85c 297-6", "website": "http://place.map.daum.net/10666203", "source": "\uae08\ud638\ub3d9 - \uae08\ud638\uc5ed - \uc740\uc131\ubcf4\uc308"}}
  ,{"type": "Feature", "geometry": {"type": "Point", "coordinates": [126.984190374694, 37.4770978135296]}, "properties": {"name": "\uc2dc\uace8\ubcf4\uc308&\uac10\uc790\uc639\uc2ec\uc774 \uc0ac\ub2f9\ubcf8\uc810", "address": "\uc11c\uc6b8 \uc11c\ucd08\uad6c \ubc29\ubc30\ucc9c\ub85c2\uae38 25", "website": "http://place.map.daum.net/16472871", "source": "\uc0ac\ub2f9\ub3d9 - \uc0ac\ub2f9\uc5ed - \uc2dc\uace8\ubcf4\uc308"}}
  ,{"type": "Feature", "geometry": {"type": "Point", "coordinates": [126.985936449722, 37.5708347254742]}, "properties": {"name": "\uc0bc\ud574\uc9d1 \uc778\uc0ac\ub3d9\uc810", "address": "\uc11c\uc6b8 \uc885\ub85c\uad6c \uc885\ub85c11\uae38 10", "website": "http://place.map.daum.net/13327664", "source": "\uc778\uc0ac\ub3d9 - \uc885\uac01\uc5ed - \uc0bc\ud574\uc9d1"}}
  ,{"type": "Feature", "geometry": {"type": "Point", "coordinates": [126.991003253839, 37.5698152935785]}, "properties": {"name": "\uc804\uc8fc\uc9d1", "address": "\uc11c\uc6b8 \uc885\ub85c\uad6c \uc218\ud45c\ub85c20\uae38 16-15", "website": "http://place.map.daum.net/8510319", "source": "\uad00\uc218\ub3d9 - \uc885\ub85c5\uac00\uc5ed - \uc804\uc8fc\uc9d1"}}
  ,{"type": "Feature", "geometry": {"type": "Point", "coordinates": [126.990835715385, 37.5698945682906]}, "properties": {"name": "\ud765\ubd80\uac00", "address": "\uc11c\uc6b8 \uc885\ub85c\uad6c \uc218\ud45c\ub85c20\uae38 22", "website": "http://place.map.daum.net/10967463", "source": "\uad00\uc218\ub3d9 - \uc885\ub85c 5\uac00\uc5ed - \ud765\ubd80\uac00"}}
  ,{"type": "Feature", "geometry": {"type": "Point", "coordinates": [127.083788638711, 37.5106082406089]}, "properties": {"name": "\uc7a5\uc6d0\ubcf4\uc308\uc655\uc871\ubc1c", "address": "\uc11c\uc6b8 \uc1a1\ud30c\uad6c \ubc31\uc81c\uace0\ubd84\ub85c7\uae38 46", "website": "http://place.map.daum.net/8063400", "source": "\uc7a0\uc2e4\ub3d9 - \uc2e0\ucc9c\uc5ed - \uc7a5\uc6d0\ubcf4\uc308"}}
  ,{"type": "Feature", "geometry": {"type": "Point", "coordinates": [126.973561223457, 37.5724471859394]}, "properties": {"name": "\ud3c9\uc548\ub3c4\ub9cc\ub450\uc9d1", "address": "\uc11c\uc6b8 \uc885\ub85c\uad6c \uc0c8\ubb38\uc548\ub85c3\uae38 30", "website": "http://place.map.daum.net/8122006", "source": "\ub0b4\uc218\ub3d9 - \uad11\ud654\ubb38\uc5ed - \ud3c9\uc548\ub3c4\ub9cc\ub450\uc9d1"}}
  ,{"type": "Feature", "geometry": {"type": "Point", "coordinates": [126.969861576471, 37.5394733936423]}, "properties": {"name": "\uc6d0\ubcf4\uc308", "address": "\uc11c\uc6b8 \uc6a9\uc0b0\uad6c \ubc31\ubc94\ub85c90\ub77c\uae38 51", "website": "http://place.map.daum.net/12439290", "source": "\uc6d0\ud6a8\ub85c 1\uac00 - \ub0a8\uc601\uc5ed - \uc6d0\ubcf4\uc308"}}
  ,{"type": "Feature", "geometry": {"type": "Point", "coordinates": [126.895681617259, 37.5357586871157]}, "properties": {"name": "\uc774\ud544\ub2f9\ubcf4\uc308\uc655\uc871\ubc1c", "address": "\uc11c\uc6b8 \uc601\ub4f1\ud3ec\uad6c \uc591\ud3c9\ub85c17\uae38 12-2", "website": "http://place.map.daum.net/8049653", "source": "\uc591\ud3c9\ub3d9 - \uc120\uc720\ub3c4\uc5ed - \uc774\ud544\ub2f9"}}
  ,{"type": "Feature", "geometry": {"type": "Point", "coordinates": [126.924167189747, 37.5620246969879]}, "properties": {"name": "\uc1a1\uac00\ub124\uac10\uc790\ud0d5 \ubcf8\uc810", "address": "\uc11c\uc6b8 \ub9c8\ud3ec\uad6c \ub3d9\uad50\ub85c 247", "website": "http://place.map.daum.net/15757802", "source": "\uc5f0\ub0a8\ub3d9 - \ud64d\ub300\uc785\uad6c\uc5ed - \uc1a1\uac00\ub124"}}
  ,{"type": "Feature", "geometry": {"type": "Point", "coordinates": [126.913449674268, 37.5475112672559]}, "properties": {"name": "\uac01\uc2dc\ubcf4\uc308", "address": "\uc11c\uc6b8 \ub9c8\ud3ec\uad6c \uc131\uc9c0\uae38 25", "website": "http://place.map.daum.net/17781427", "source": "\ud569\uc815\ub3d9 - \ud569\uc815\uc5ed - \uac01\uc2dc\ubcf4\uc308"}}
  ,{"type": "Feature", "geometry": {"type": "Point", "coordinates": [127.03721931212, 37.5167264852802]}, "properties": {"name": "\uace0\ud5a5\uc9d1", "address": "\uc11c\uc6b8 \uac15\ub0a8\uad6c \uc5b8\uc8fc\ub85c134\uae38 20", "website": "http://place.map.daum.net/8188651", "source": "\ub17c\ud604\ub3d9 - \uac15\ub0a8\uad6c\uccad\uc5ed - \uace0\ud5a5\uc9d1"}}
  ,{"type": "Feature", "geometry": {"type": "Point", "coordinates": [126.990717992363, 37.5698945590935]}, "properties": {"name": "\uc7a5\uad70\ubcf4\uc308", "address": "\uc11c\uc6b8 \uc885\ub85c\uad6c \uc218\ud45c\ub85c20\uae38 22", "website": "http://place.map.daum.net/10731091", "source": "\ub2e4\ub3d9 - \uc744\uc9c0\ub85c \uc785\uad6c\uc5ed - \uc7a5\uad70\ubcf4\uc308"}}
  ,{"type": "Feature", "geometry": {"type": "Point", "coordinates": [126.974374820294, 37.550203558256]}, "properties": {"name": "\ucda9\ubb34\uce7c\uad6d\uc218", "address": "\uc11c\uc6b8 \uc6a9\uc0b0\uad6c \ud55c\uac15\ub300\ub85c104\uae38 38", "website": "http://place.map.daum.net/9963594", "source": "\ub3d9\uc790\ub3d9 - \uc11c\uc6b8\uc5ed - \ucda9\ubb34\uce7c\uad6d\uc218"}}
  ,{"type": "Feature", "geometry": {"type": "Point", "coordinates": [126.900056292235, 37.4827545824355]}, "properties": {"name": "\ud669\uc81c\ud574\ubb3c\ubcf4\uc308 \uad6c\ub85c\ubcf8\uc810", "address": "\uc11c\uc6b8 \uad6c\ub85c\uad6c \ub514\uc9c0\ud138\ub85c32\uae38 92", "website": "http://place.map.daum.net/26857271", "source": "\uad6c\ub85c\ub3d9 - \uad6c\ub85c\ub514\uc9c0\ud138\ub2e8\uc9c0\uc5ed - \ud669\uc81c\ud574\ubb3c\ubcf4\uc308"}}
  ,{"type": "Feature", "geometry": {"type": "Point", "coordinates": [127.031098664335, 37.4976341575722]}, "properties": {"name": "\uc11c\uc9c4\uc2dd\ub2f9", "address": "\uc11c\uc6b8 \uac15\ub0a8\uad6c \uac15\ub0a8\ub300\ub85c84\uae38 33", "website": "http://place.map.daum.net/27504286", "source": "\uc5ed\uc0bc\ub3d9 - \uac15\ub0a8\uc5ed - \uc11c\uc9c4\uc2dd\ub2f9"}}
  ,{"type": "Feature", "geometry": {"type": "Point", "coordinates": [126.869106947608, 37.5328922694221]}, "properties": {"name": "\uac1c\uc131\uc9d1", "address": "\uc11c\uc6b8 \uc591\ucc9c\uad6c \ubaa9\ub3d9\uc911\uc559\uc11c\ub85c 48", "website": "http://place.map.daum.net/11327980", "source": "\ubaa9\ub3d9 - \ubaa9\ub3d9\uc5ed - \uac1c\uc131\uc9d1"}}
  ,{"type": "Feature", "geometry": {"type": "Point", "coordinates": [126.990876097683, 37.5729111033521]}, "properties": {"name": "\ub300\ubc15\uc9d1", "address": "\uc11c\uc6b8 \uc885\ub85c\uad6c \ub3c8\ud654\ubb38\ub85c11\ub2e4\uae38 14-2", "website": "http://place.map.daum.net/7824584", "source": "\ub3c8\uc758\ub3d9 - \uc885\ub85c3\uac00\uc5ed - \uc9c4\uc8fc\ub300\ubc15\uc9d1"}}
  ,{"type": "Feature", "geometry": {"type": "Point", "coordinates": [126.929242046502, 37.4856624965488]}, "properties": {"name": "\ud560\ub9e4\ubcf4\uc308", "address": "\uc11c\uc6b8 \uad00\uc545\uad6c \uc2e0\ub9bc\ub85c 351", "website": "http://place.map.daum.net/8148101", "source": "\uc2e0\ub9bc\ub3d9 - \uc2e0\ub9bc\uc5ed - \ud560\ub9e4\ubcf4\uc308"}}
  ,{"type": "Feature", "geometry": {"type": "Point", "coordinates": [126.988186373024, 37.5735307493384]}, "properties": {"name": "\uc7a5\uad70\uc871\ubc1c\ubcf4\uc308 \ubcf8\uc810", "address": "\uc11c\uc6b8 \uc885\ub85c\uad6c \uc0bc\uc77c\ub300\ub85c 434-1", "website": "http://place.map.daum.net/8054793", "source": "\ub099\uc6d0\ub3d9 - \uc885\ub85c3\uac00\uc5ed - \uc7a5\uad70\uc871\ubc1c\ubcf4\uc308"}}
  ,{"type": "Feature", "geometry": {"type": "Point", "coordinates": [127.036368296806, 37.6648426584946]}, "properties": {"name": "\ud765\ubd80\uc871\ubc1c\ubcf4\uc308", "address": "\uc11c\uc6b8 \ub3c4\ubd09\uad6c \ub3c4\ub2f9\ub85c 80", "website": "http://place.map.daum.net/12443342", "source": "\ubc29\ud559\ub3d9 - \uc30d\ubb38\uc5ed - \ud765\ubd80\uc871\ubc1c\ubcf4\uc308"}}
  ,{"type": "Feature", "geometry": {"type": "Point", "coordinates": [126.98603546656, 37.5740278636496]}, "properties": {"name": "\uc624\uc218 \ubcc4\ucc44", "address": "\uc11c\uc6b8 \uc885\ub85c\uad6c \uc778\uc0ac\ub3d98\uae38 12-1", "website": "http://place.map.daum.net/11818660", "source": "\uad00\ud6c8\ub3d9 - \uc548\uad6d\uc5ed - \uc624\uc218"}}
]}
