{
 "type": "FeatureCollection",
 "features": [
  {
   "type": "Feature",
   "geometry": {
    "type": "Point",
    "coordinates": [
     126.848135759336,
     37.5305173547355
    ]
   },
   "properties": {
    "pid": "27263853",
    "name": "재이슨의부대찌개",
    "phone": "02-2690-0055",
    "source": "화곡동 - 까치산역 - 재이슨의 부대찌개",
    "address": "서울 강서구 곰달래로 138",
    "website": "http://place.map.daum.net/27263853",
    "category": "부대찌개"
   }
  },
  {
   "type": "Feature",
   "geometry": {
    "type": "Point",
    "coordinates": [
     126.89221286325,
     37.5245939704632
    ]
   },
   "properties": {
    "pid": "18461096",
    "name": "반카부대찌개",
    "phone": "02-2069-2923",
    "source": "당산동 - 영등포구청역 - 반카부대찌개",
    "address": "서울 영등포구 선유동1로 28-1",
    "website": "http://place.map.daum.net/18461096",
    "category": "부대찌개"
   }
  },
  {
   "type": "Feature",
   "geometry": {
    "type": "Point",
    "coordinates": [
     126.913685416543,
     37.5550437832412
    ]
   },
   "properties": {
    "pid": "20691983",
    "name": "의정부부대찌개",
    "phone": "02-333-6820",
    "source": "서교동 - 홍대입구역 - 의정부 부대찌개",
    "address": "서울 마포구 월드컵로10길 36",
    "website": "http://place.map.daum.net/20691983",
    "category": "부대찌개"
   }
  },
  {
   "type": "Feature",
   "geometry": {
    "type": "Point",
    "coordinates": [
     126.92114346643751,
     37.552926249284866
    ]
   },
   "properties": {
    "pid": "473069861",
    "name": "심슨탕 홍대본점",
    "phone": "02-323-8310",
    "source": "서교동 - 홍대입구역 - 심슨탕",
    "address": "서울 마포구 양화로16길 30",
    "website": "http://place.map.daum.net/473069861",
    "category": "부대찌개"
   }
  },
  {
   "type": "Feature",
   "geometry": {
    "type": "Point",
    "coordinates": [
     126.927030524085,
     37.5552690241272
    ]
   },
   "properties": {
    "pid": "22479736",
    "name": "이대포 사골부대찌개",
    "phone": "02-322-6502",
    "source": "서교동 - 홍대입구역 - 이대포 사골 부대찌개",
    "address": "서울 마포구 와우산로29라길 12",
    "website": "http://place.map.daum.net/22479736",
    "category": "부대찌개"
   }
  },
  {
   "type": "Feature",
   "geometry": {
    "type": "Point",
    "coordinates": [
     126.926500573594,
     37.5555750345612
    ]
   },
   "properties": {
    "pid": "18764979",
    "name": "흥부네부대찌개",
    "phone": "02-336-1009",
    "source": "서교동 - 홍대입구역 - 흥부네부대찌개",
    "address": "서울 마포구 와우산로29마길 12",
    "website": "http://place.map.daum.net/18764979",
    "category": "부대찌개"
   }
  },
  {
   "type": "Feature",
   "geometry": {
    "type": "Point",
    "coordinates": [
     126.930905207061,
     37.5262339360571
    ]
   },
   "properties": {
    "pid": "16622191",
    "name": "희정식당",
    "phone": "02-784-9213",
    "source": "여의도동 - 여의나루역 - 희정식당",
    "address": "서울 영등포구 여의나루로 117",
    "website": "http://place.map.daum.net/16622191",
    "category": "부대찌개"
   }
  },
  {
   "type": "Feature",
   "geometry": {
    "type": "Point",
    "coordinates": [
     127.029410789391,
     37.5882030626521
    ]
   },
   "properties": {
    "pid": "15546985",
    "name": "비야 고대본점",
    "phone": "02-923-6070",
    "source": "안암동 - 안암역 - 비야",
    "address": "서울 성북구 개운사길 42-4",
    "website": "http://place.map.daum.net/15546985",
    "category": "부대찌개"
   }
  },
  {
   "type": "Feature",
   "geometry": {
    "type": "Point",
    "coordinates": [
     127.061558694859,
     37.6561467408587
    ]
   },
   "properties": {
    "pid": "26838989",
    "name": "화덕피자주는부대찌개 노원점",
    "phone": "02-939-5315",
    "source": "상계동 - 노원역 - 화덕피자주는 부대찌개",
    "address": "서울 노원구 상계로 59",
    "website": "http://place.map.daum.net/26838989",
    "category": "부대찌개"
   }
  },
  {
   "type": "Feature",
   "geometry": {
    "type": "Point",
    "coordinates": [
     127.077124333334,
     37.6509695559362
    ]
   },
   "properties": {
    "pid": "9336180",
    "name": "의정부부대찌개",
    "phone": "02-936-8618",
    "source": "중계동 - 중계역 - 의정부부대찌개",
    "address": "서울 노원구 한글비석로 264",
    "website": "http://place.map.daum.net/9336180",
    "category": "부대찌개"
   }
  },
  {
   "type": "Feature",
   "geometry": {
    "type": "Point",
    "coordinates": [
     127.042005390948,
     37.603753967793
    ]
   },
   "properties": {
    "pid": "23484561",
    "name": "아라부대찌개 본점",
    "phone": "02-943-0088",
    "source": "하월곡동 - 월곡역 - 아라부대찌개",
    "address": "서울 성북구 화랑로11길 31",
    "website": "http://place.map.daum.net/23484561",
    "category": "부대찌개"
   }
  },
  {
   "type": "Feature",
   "geometry": {
    "type": "Point",
    "coordinates": [
     127.072193895405,
     37.6287580013793
    ]
   },
   "properties": {
    "pid": "22810384",
    "name": "아이엠부대찌개",
    "phone": "02-978-0316",
    "source": "공릉동 - 공릉역 - 아이엠부대찌개",
    "address": "서울 노원구 동일로198길 10",
    "website": "http://place.map.daum.net/22810384",
    "category": "부대찌개"
   }
  },
  {
   "type": "Feature",
   "geometry": {
    "type": "Point",
    "coordinates": [
     126.974212836277,
     37.5736474553181
    ]
   },
   "properties": {
    "pid": "15449028",
    "name": "송백부대찌개",
    "phone": "02-738-1386",
    "source": "당주동 - 광화문역 - 송백부대찌개",
    "address": "서울 종로구 새문안로5길 37",
    "website": "http://place.map.daum.net/15449028",
    "category": "부대찌개"
   }
  },
  {
   "type": "Feature",
   "geometry": {
    "type": "Point",
    "coordinates": [
     126.983293533512,
     37.5647580657384
    ]
   },
   "properties": {
    "pid": "8708698",
    "name": "금강섞어찌개",
    "phone": "02-779-3610",
    "source": "명동 - 을지로입구역 - 금강섞어찌개",
    "address": "서울 중구 명동7가길 20-8",
    "website": "http://place.map.daum.net/8708698",
    "category": "부대찌개"
   }
  },
  {
   "type": "Feature",
   "geometry": {
    "type": "Point",
    "coordinates": [
     126.98098530980161,
     37.56379613345062
    ]
   },
   "properties": {
    "pid": "27508668",
    "name": "명동부대찌개",
    "phone": "02-756-6750",
    "source": "명동 - 명동역 - 명동부대찌개",
    "address": "서울 중구 남대문로7길 15",
    "website": "http://place.map.daum.net/27508668",
    "category": "부대찌개"
   }
  },
  {
   "type": "Feature",
   "geometry": {
    "type": "Point",
    "coordinates": [
     126.991143611488,
     37.5698513440089
    ]
   },
   "properties": {
    "pid": "21326606",
    "name": "전주식당",
    "phone": "02-2267-5385",
    "source": "초동 - 을지로3가역 - 전주식당",
    "address": "서울 종로구 수표로20길 16-17",
    "website": "http://place.map.daum.net/21326606",
    "category": "부대찌개"
   }
  },
  {
   "type": "Feature",
   "geometry": {
    "type": "Point",
    "coordinates": [
     127.005183656333,
     37.5600162879578
    ]
   },
   "properties": {
    "pid": "13292564",
    "name": "소나무식당",
    "phone": "02-2275-3119",
    "source": "장충동 - 동대입구역 - 소나무식당",
    "address": "서울 중구 동호로24길 19",
    "website": "http://place.map.daum.net/13292564",
    "category": "부대찌개"
   }
  },
  {
   "type": "Feature",
   "geometry": {
    "type": "Point",
    "coordinates": [
     126.999515736035,
     37.537206717894
    ]
   },
   "properties": {
    "pid": "7881602",
    "name": "바다식당",
    "phone": "02-795-1317",
    "source": "한남동 - 이태원역 - 바다식당",
    "address": "서울 용산구 이태원로49길 18",
    "website": "http://place.map.daum.net/7881602",
    "category": "부대찌개"
   }
  },
  {
   "type": "Feature",
   "geometry": {
    "type": "Point",
    "coordinates": [
     126.9942346089981,
     37.54202975806573
    ]
   },
   "properties": {
    "pid": "13133842",
    "name": "남산누나네",
    "phone": "02-797-8489",
    "source": "이태원동 - 이태원역 - 남산누나네",
    "address": "서울 용산구 회나무로41길 43",
    "website": "http://place.map.daum.net/13133842",
    "category": "부대찌개"
   }
  },
  {
   "type": "Feature",
   "geometry": {
    "type": "Point",
    "coordinates": [
     126.994985528145,
     37.5349757349249
    ]
   },
   "properties": {
    "pid": "8702673",
    "name": "고암식당",
    "phone": "02-796-1813",
    "source": "이태원동 - 이태원역 - 고암식당",
    "address": "서울 용산구 이태원로27가길 5",
    "website": "http://place.map.daum.net/8702673",
    "category": "부대찌개"
   }
  },
  {
   "type": "Feature",
   "geometry": {
    "type": "Point",
    "coordinates": [
     126.9732361991,
     37.5443684369927
    ]
   },
   "properties": {
    "pid": "8044702",
    "name": "은성스테이크전문점",
    "phone": "02-797-2855",
    "source": "남영동 - 숙대입구역 - 은성집",
    "address": "서울 용산구 한강대로84길 11-16",
    "website": "http://place.map.daum.net/8044702",
    "category": "부대찌개"
   }
  },
  {
   "type": "Feature",
   "geometry": {
    "type": "Point",
    "coordinates": [
     126.972923768281,
     37.5446963295083
    ]
   },
   "properties": {
    "pid": "16473342",
    "name": "황해집",
    "phone": "02-797-1717",
    "source": "남영동 - 숙대입구역 - 황해집",
    "address": "서울 용산구 한강대로88길 11-5",
    "website": "http://place.map.daum.net/16473342",
    "category": "부대찌개"
   }
  },
  {
   "type": "Feature",
   "geometry": {
    "type": "Point",
    "coordinates": [
     126.972987176565,
     37.5445846201207
    ]
   },
   "properties": {
    "pid": "8567349",
    "name": "털보집",
    "phone": "02-793-0606",
    "source": "남영동 - 숙대입구역 - 털보집",
    "address": "서울 용산구 한강대로88길 11-3",
    "website": "http://place.map.daum.net/8567349",
    "category": "부대찌개"
   }
  },
  {
   "type": "Feature",
   "geometry": {
    "type": "Point",
    "coordinates": [
     126.973141320815,
     37.5438854797981
    ]
   },
   "properties": {
    "pid": "12180619",
    "name": "서지스테이크",
    "phone": "02-797-8491",
    "source": "남영동 - 숙대입구역 - 서지스테이크",
    "address": "서울 용산구 한강대로84길 11-5",
    "website": "http://place.map.daum.net/12180619",
    "category": "부대찌개"
   }
  },
  {
   "type": "Feature",
   "geometry": {
    "type": "Point",
    "coordinates": [
     126.973422049719,
     37.5435972235053
    ]
   },
   "properties": {
    "pid": "16684021",
    "name": "다사랑스테이크",
    "phone": "02-797-3217",
    "source": "남영동 - 숙대입구역 - 다사랑스테이크",
    "address": "서울 용산구 한강대로84길 14",
    "website": "http://place.map.daum.net/16684021",
    "category": "부대찌개"
   }
  },
  {
   "type": "Feature",
   "geometry": {
    "type": "Point",
    "coordinates": [
     126.94629633132,
     37.5121718733123
    ]
   },
   "properties": {
    "pid": "26783424",
    "name": "마마부찌",
    "phone": "02-817-1123",
    "source": "노량진동 - 노량진역 - 마마부찌",
    "address": "서울 동작구 만양로14길 40",
    "website": "http://place.map.daum.net/26783424",
    "category": "부대찌개"
   }
  },
  {
   "type": "Feature",
   "geometry": {
    "type": "Point",
    "coordinates": [
     126.994645147891,
     37.4849807768006
    ]
   },
   "properties": {
    "pid": "21251540",
    "name": "LA부대찌개",
    "phone": "02-588-0017",
    "source": "방배동 - 내방역 - LA부대찌개",
    "address": "서울 서초구 효령로31길 90",
    "website": "http://place.map.daum.net/21251540",
    "category": "부대찌개"
   }
  },
  {
   "type": "Feature",
   "geometry": {
    "type": "Point",
    "coordinates": [
     127.056267157418,
     37.5097740084613
    ]
   },
   "properties": {
    "pid": "27583451",
    "name": "JVL 부대찌개 삼성본점",
    "phone": "02-568-8288",
    "source": "삼성동 - 삼성역 - 쟌슨빌 부대찌개",
    "address": "서울 강남구 테헤란로81길 46",
    "website": "http://place.map.daum.net/27583451",
    "category": "부대찌개"
   }
  },
  {
   "type": "Feature",
   "geometry": {
    "type": "Point",
    "coordinates": [
     127.037727185361,
     37.5279347972424
    ]
   },
   "properties": {
    "pid": "10215748",
    "name": "금성스테이크 부대찌개",
    "phone": "02-547-4872",
    "source": "신사동 - 압구정로데오역 - 금성스테이크 부대찌개",
    "address": "서울 강남구 압구정로46길 5-12",
    "website": "http://place.map.daum.net/10215748",
    "category": "부대찌개"
   }
  },
  {
   "type": "Feature",
   "geometry": {
    "type": "Point",
    "coordinates": [
     127.038065650886,
     37.5171983413801
    ]
   },
   "properties": {
    "pid": "16056569",
    "name": "이모가있는집 본점",
    "phone": "02-545-7605",
    "source": "논현동 - 강남구청역 - 이모가있는집",
    "address": "서울 강남구 언주로134길 31",
    "website": "http://place.map.daum.net/16056569",
    "category": "부대찌개"
   }
  },
  {
   "type": "Feature",
   "geometry": {
    "type": "Point",
    "coordinates": [
     127.037701359606,
     37.521577333337
    ]
   },
   "properties": {
    "pid": "16382895",
    "name": "송탄부대찌개",
    "phone": "02-541-5316",
    "source": "논현동 - 신사역 - 송탄부대찌개",
    "address": "서울 강남구 도산대로50길 13",
    "website": "http://place.map.daum.net/16382895",
    "category": "부대찌개"
   }
  },
  {
   "type": "Feature",
   "geometry": {
    "type": "Point",
    "coordinates": [
     127.03522190118551,
     37.50270386227143
    ]
   },
   "properties": {
    "pid": "7819490",
    "name": "대우부대찌개",
    "phone": "02-552-1663",
    "source": "역삼동 - 역삼역 - 대우식당",
    "address": "서울 강남구 테헤란로25길 34",
    "website": "http://place.map.daum.net/7819490",
    "category": "부대찌개"
   }
  },
  {
   "type": "Feature",
   "geometry": {
    "type": "Point",
    "coordinates": [
     127.057006492333,
     37.5092907155275
    ]
   },
   "properties": {
    "pid": "825577402",
    "name": "아우네부대찌개&삼겹살 삼성본점",
    "phone": "02-568-1314",
    "source": "삼성동 - 삼성역 - 아우네 부대찌개",
    "address": "서울 강남구 테헤란로83길 29",
    "website": "http://place.map.daum.net/825577402",
    "category": "부대찌개"
   }
  },
  {
   "type": "Feature",
   "geometry": {
    "type": "Point",
    "coordinates": [
     127.04466872981,
     37.5047910005665
    ]
   },
   "properties": {
    "pid": "8374032",
    "name": "석기정 역삼점",
    "phone": "02-556-7967",
    "source": "역삼동 - 선릉역 - 석기정",
    "address": "서울 강남구 언주로98길 35",
    "website": "http://place.map.daum.net/8374032",
    "category": "부대찌개"
   }
  },
  {
   "type": "Feature",
   "geometry": {
    "type": "Point",
    "coordinates": [
     127.039092520943,
     37.4820695791013
    ]
   },
   "properties": {
    "pid": "24583148",
    "name": "남와집 양재점",
    "phone": "02-576-1008",
    "source": "양재동 - 양재역 - 남와집",
    "address": "서울 서초구 강남대로30길 34",
    "website": "http://place.map.daum.net/24583148",
    "category": "부대찌개"
   }
  },
  {
   "type": "Feature",
   "geometry": {
    "type": "Point",
    "coordinates": [
     127.044760566629,
     37.484330901447
    ]
   },
   "properties": {
    "pid": "19376265",
    "name": "동오부대찌개 도곡점",
    "phone": "02-3461-1010",
    "source": "도곡동 - 매봉역 - 동오부대찌개",
    "address": "서울 강남구 논현로30길 36-4",
    "website": "http://place.map.daum.net/19376265",
    "category": "부대찌개"
   }
  },
  {
   "type": "Feature",
   "geometry": {
    "type": "Point",
    "coordinates": [
     127.019406926684,
     37.4854081842668
    ]
   },
   "properties": {
    "pid": "8388894",
    "name": "삼보부대고기",
    "phone": "02-521-2666",
    "source": "서초동 - 남부터미널역 - 삼보부대고기",
    "address": "서울 서초구 효령로68길 102",
    "website": "http://place.map.daum.net/8388894",
    "category": "부대찌개"
   }
  },
  {
   "type": "Feature",
   "geometry": {
    "type": "Point",
    "coordinates": [
     127.053892255823,
     37.4975899180435
    ]
   },
   "properties": {
    "pid": "8266275",
    "name": "대왕부대찌개 대치본점",
    "phone": "02-553-0135",
    "source": "대치동 - 한티역 - 대왕부대찌개",
    "address": "서울 강남구 선릉로62길 17",
    "website": "http://place.map.daum.net/8266275",
    "category": "부대찌개"
   }
  },
  {
   "type": "Feature",
   "geometry": {
    "type": "Point",
    "coordinates": [
     127.08953389272409,
     37.50567267132988
    ]
   },
   "properties": {
    "pid": "24198082",
    "name": "의정부부대찌개",
    "phone": "",
    "source": "삼전동 - 신천역 - 의정부부대찌개 (장수식당)",
    "address": "서울 송파구 삼전로 82",
    "website": "http://place.map.daum.net/24198082",
    "category": "부대찌개"
   }
  },
  {
   "type": "Feature",
   "geometry": {
    "type": "Point",
    "coordinates": [
     127.124017398705,
     37.5102268686069
    ]
   },
   "properties": {
    "pid": "26941113",
    "name": "신의주부대찌개 방이역점",
    "phone": "02-422-8283",
    "source": "방이동 - 잠실역 - 신의주부대찌개",
    "address": "서울 송파구 위례성대로18길 28-20",
    "website": "http://place.map.daum.net/26941113",
    "category": "부대찌개"
   }
  },
  {
   "type": "Feature",
   "geometry": {
    "type": "Point",
    "coordinates": [
     127.1288450965,
     37.5499089904455
    ]
   },
   "properties": {
    "pid": "10839462",
    "name": "초롱이고모부대찌개",
    "phone": "02-442-3546",
    "source": "암사동 - 암사역 - 초롱이 고모네 부대찌개",
    "address": "서울 강동구 상암로11길 4",
    "website": "http://place.map.daum.net/10839462",
    "category": "부대찌개"
   }
  },
  {
   "type": "Feature",
   "geometry": {
    "type": "Point",
    "coordinates": [
     127.144594237753,
     37.5340800252189
    ]
   },
   "properties": {
    "pid": "16876828",
    "name": "정가네 부대찌개생삼겹살쭈꾸미 둔촌본점",
    "phone": "02-474-8887",
    "source": "둔촌동 - 길동역 - 정가네부대찌개",
    "address": "서울 강동구 명일로 171",
    "website": "http://place.map.daum.net/16876828",
    "category": "부대찌개"
   }
  },
  {
   "type": "Feature",
   "geometry": {
    "type": "Point",
    "coordinates": [
     127.123318561252,
     37.5364359468351
    ]
   },
   "properties": {
    "pid": "21329909",
    "name": "강동KD부대찌개나눔터",
    "phone": "02-473-3867",
    "source": "천호동 - 천호역 - 강동 KD 부대찌개",
    "address": "서울 강동구 올림픽로62길 7",
    "website": "http://place.map.daum.net/21329909",
    "category": "부대찌개"
   }
  },
  {
   "type": "Feature",
   "geometry": {
    "type": "Point",
    "coordinates": [
     127.104115412559,
     37.5134608693679
    ]
   },
   "properties": {
    "pid": "26239732",
    "name": "오뎅식당 잠실롯데몰점",
    "phone": "02-3213-4623",
    "source": "신천동 - 잠실역 - 오뎅식당",
    "address": "서울 송파구 올림픽로 300",
    "website": "http://place.map.daum.net/26239732",
    "category": "부대찌개"
   }
  }
 ]
}