{"type": "FeatureCollection","features": [
  {"type": "Feature", "geometry": {"type": "Point", "coordinates": [126.972908086346, 37.5630118104688]}, "properties": {"name": "\uace0\ub824\uc0bc\uacc4\ud0d5 \uc2dc\uccad\ubcf8\uc810", "address": "\uc11c\uc6b8 \uc911\uad6c \uc11c\uc18c\ubb38\ub85c11\uae38 1", "website": "http://place.map.daum.net/8178288", "phone": "02-752-9376", "source": "\uc11c\uc18c\ubb38\ub3d9 - \uc2dc\uccad\uc5ed - \uace0\ub824\uc0bc\uacc4\ud0d5", "pid": "8178288"}}
  ,{"type": "Feature", "geometry": {"type": "Point", "coordinates": [127.023484326469, 37.5076551000286]}, "properties": {"name": "24\uc2dc\uc61b\ub0a0\uc804\ud1b5\uc721\uac1c\uc7a5vs\uc778\uc0bc\uc0bc\uacc4\ud0d5", "address": "\uc11c\uc6b8 \uac15\ub0a8\uad6c \uac15\ub0a8\ub300\ub85c 508", "website": "http://place.map.daum.net/1478589744", "phone": "02-3442-2659", "source": "\ub17c\ud604\ub3d9 - \ud559\ub3d9\uc5ed - \ub17c\ud604\uc0bc\uacc4\ud0d5", "pid": "1478589744"}}
  ,{"type": "Feature", "geometry": {"type": "Point", "coordinates": [126.971494461387, 37.5777229294346]}, "properties": {"name": "\ud1a0\uc18d\ucd0c\uc0bc\uacc4\ud0d5", "address": "\uc11c\uc6b8 \uc885\ub85c\uad6c \uc790\ud558\ubb38\ub85c5\uae38 5", "website": "http://place.map.daum.net/26545925", "phone": "02-737-7444", "source": "\uccb4\ubd80\ub3d9 - \uacbd\ubcf5\uad81\uc5ed - \ud1a0\uc18d\ucd0c", "pid": "26545925"}}
  ,{"type": "Feature", "geometry": {"type": "Point", "coordinates": [126.904372348091, 37.5028253801963]}, "properties": {"name": "\uc6d0\uc870\ud638\uc218\uc0bc\uacc4\ud0d5 \ubcf8\uc810", "address": "\uc11c\uc6b8 \uc601\ub4f1\ud3ec\uad6c \ub3c4\ub9bc\ub85c 278-4", "website": "http://place.map.daum.net/8510748", "phone": "02-831-4111", "source": "\uc2e0\uae38\ub3d9 - \uc2e0\ud48d\uc5ed - \ud638\uc218 \uc0bc\uacc4\ud0d5", "pid": "8510748"}}
  ,{"type": "Feature", "geometry": {"type": "Point", "coordinates": [126.967828988028, 37.5404711653735]}, "properties": {"name": "\uac15\uc6d0\uc815", "address": "\uc11c\uc6b8 \uc6a9\uc0b0\uad6c \uc6d0\ud6a8\ub85c89\uae38 13-10", "website": "http://place.map.daum.net/10126614", "phone": "02-719-9978", "source": "\uc6d0\ud6a8\ub85c - \uc219\ub300\uc785\uad6c\uc5ed - \uac15\uc6d0\uc815", "pid": "10126614"}}
  ,{"type": "Feature", "geometry": {"type": "Point", "coordinates": [126.931219155561, 37.5687071978768]}, "properties": {"name": "\uc5f0\ud76c\ub179\ub450\uc0bc\uacc4\ud0d5", "address": "\uc11c\uc6b8 \uc11c\ub300\ubb38\uad6c \uc5f0\ud76c\ub9db\ub85c 43-1", "website": "http://place.map.daum.net/16735266", "phone": "02-323-3208", "source": "\uc5f0\ud76c\ub3d9 - \ud64d\ub300\uc785\uad6c\uc5ed - \uc5f0\ud76c\ub179\ub450\uc0bc\uacc4\ud0d5", "pid": "16735266"}}
  ,{"type": "Feature", "geometry": {"type": "Point", "coordinates": [126.888871445967, 37.5167341317029]}, "properties": {"name": "\ub2a5\uc774\ubc84\uc12f\ubc31\uc219", "address": "\uc11c\uc6b8 \uc601\ub4f1\ud3ec\uad6c \uc120\uc720\ub85c 32", "website": "http://place.map.daum.net/11279164", "phone": "02-2677-7373", "source": "\ubb38\ub798\ub3d9 - \ubb38\ub798\uc5ed - \ub2a5\uc774\ubc84\uc12f\ubc31\uc219", "pid": "11279164"}}
  ,{"type": "Feature", "geometry": {"type": "Point", "coordinates": [126.977503186199, 37.5636867207938]}, "properties": {"name": "\uc7a5\uc548\uc0bc\uacc4\ud0d5", "address": "\uc11c\uc6b8 \uc911\uad6c \uc138\uc885\ub300\ub85c18\uae38 8", "website": "http://place.map.daum.net/10735673", "phone": "02-753-5834", "source": "\ud0dc\ud3c9\ub85c2\uac00 - \uc2dc\uccad\uc5ed - \uc7a5\uc548 \uc0bc\uacc4\ud0d5", "pid": "10735673"}}
  ,{"type": "Feature", "geometry": {"type": "Point", "coordinates": [126.983167584991, 37.5611072100711]}, "properties": {"name": "\uc601\uc591\uc13c\ud0c0 \ubcf8\uc810", "address": "\uc11c\uc6b8 \uc911\uad6c \uba85\ub3d92\uae38 52", "website": "http://place.map.daum.net/11185781", "phone": "02-776-2015", "source": "\ucda9\ubb34\ub85c1\uac00 - \uba85\ub3d9\uc5ed - \uba85\ub3d9\uc601\uc591\uc13c\ud130", "pid": "11185781"}}
  ,{"type": "Feature", "geometry": {"type": "Point", "coordinates": [127.05813988075, 37.4977392730229]}, "properties": {"name": "\uc601\uc591\uc13c\ud130 \ub300\uce58\ub3d9\uc810", "address": "\uc11c\uc6b8 \uac15\ub0a8\uad6c \ub3c4\uace1\ub85c 436", "website": "http://place.map.daum.net/10650662", "phone": "02-565-5253", "source": "\ub300\uce58\ub3d9 - \ud55c\ud2f0\uc5ed - \ub300\uce58\uc601\uc591\uc13c\ud130", "pid": "10650662"}}
  ,{"type": "Feature", "geometry": {"type": "Point", "coordinates": [127.051075332288, 37.5192405115356]}, "properties": {"name": "\uccad\ub2f4\uc601\uc591\uc13c\ud130", "address": "\uc11c\uc6b8 \uac15\ub0a8\uad6c \ud559\ub3d9\ub85c87\uae38 7", "website": "http://place.map.daum.net/8088448", "phone": "02-515-9291", "source": "\uc0bc\uc131\ub3d9 - \uccad\ub2f4\uc5ed - \uccad\ub2f4\uc601\uc591\uc13c\ud130", "pid": "8088448"}}
  ,{"type": "Feature", "geometry": {"type": "Point", "coordinates": [127.039849452704, 37.5277755239083]}, "properties": {"name": "\uc601\uc591\uc13c\ud0c0", "address": "\uc11c\uc6b8 \uac15\ub0a8\uad6c \uc555\uad6c\uc815\ub85c 344", "website": "http://place.map.daum.net/8501640", "phone": "02-516-4747", "source": "\uc2e0\uc0ac\ub3d9 - \uc555\uad6c\uc815\ub85c\ub370\uc624\uc5ed - \uc555\uad6c\uc815\uc601\uc591\uc13c\ud130", "pid": "8501640"}}
  ,{"type": "Feature", "geometry": {"type": "Point", "coordinates": [126.948466722465, 37.5403489751606]}, "properties": {"name": "\ub9c8\ud3ec\uc6d0\uc870\uc63b\ub2ed\uc0bc\uacc4\ud0d5", "address": "\uc11c\uc6b8 \ub9c8\ud3ec\uad6c \ub3c4\ud654\uae38 22", "website": "http://place.map.daum.net/9014911", "phone": "02-719-4301", "source": "\ub3c4\ud654\ub3d9 - \ub9c8\ud3ec\uc5ed - \uc63b\ub2ed\uc0bc\uacc4\ud0d5", "pid": "9014911"}}
  ,{"type": "Feature", "geometry": {"type": "Point", "coordinates": [127.017364085879, 37.5891352738534]}, "properties": {"name": "\uc6d0\uc870\ud55c\ubc29\uc0bc\uacc4\ud0d5", "address": "\uc11c\uc6b8 \uc131\ubd81\uad6c \uc778\ucd0c\ub85c1\uae38 92", "website": "http://place.map.daum.net/10698185", "phone": "02-926-5138", "source": "\uc0bc\uc120\ub3d9 - \ud55c\uc131\ub300\uc785\uad6c\uc5ed - \uc6d0\uc870\ud55c\ubc29\uc0bc\uacc4\ud0d5", "pid": "10698185"}}
  ,{"type": "Feature", "geometry": {"type": "Point", "coordinates": [126.923338505945, 37.4914504907513]}, "properties": {"name": "\uad81\uc911 \uc0bc\uacc4\ud0d5", "address": "\uc11c\uc6b8 \ub3d9\uc791\uad6c \ubcf4\ub77c\ub9e4\ub85c5\uae38 43", "website": "http://place.map.daum.net/8823723", "phone": "02-834-8922", "source": "\uc2e0\ub300\ubc29\ub3d9 - \ubcf4\ub77c\ub9e4\uc5ed - \uad81\uc911\uc0bc\uacc4\ud0d5", "pid": "8823723"}}
  ,{"type": "Feature", "geometry": {"type": "Point", "coordinates": [126.918433670023, 37.617734625189]}, "properties": {"name": "\uc6c5\ucd94\uc0bc\uacc4\ud0d5", "address": "\uc11c\uc6b8 \uc740\ud3c9\uad6c \uc5f0\uc11c\ub85c27\uae38 9", "website": "http://place.map.daum.net/10689637", "phone": "02-355-0044", "source": "\uac08\ud604\ub3d9 - \uc5f0\uc2e0\ub0b4\uc5ed - \uc6c5\ucd94\uc0bc\uacc4\ud0d5", "pid": "10689637"}}
  ,{"type": "Feature", "geometry": {"type": "Point", "coordinates": [126.984095194797, 37.5633742461121]}, "properties": {"name": "\ubc31\uc81c\uc0bc\uacc4\ud0d5", "address": "\uc11c\uc6b8 \uc911\uad6c \uba85\ub3d98\uae38 8-10", "website": "http://place.map.daum.net/7885138", "phone": "02-776-3267", "source": "\uba85\ub3d9 - \uc744\uc9c0\ub85c\uc785\uad6c\uc5ed - \ubc31\uc81c \uc0bc\uacc4\ud0d5", "pid": "7885138"}}
  ,{"type": "Feature", "geometry": {"type": "Point", "coordinates": [126.972012753487, 37.5600959763574]}, "properties": {"name": "\uc608 \uc2e0\ub77c\uc0bc\uacc4\ud0d5 \ubcf8\uc810", "address": "\uc11c\uc6b8 \uc911\uad6c \uce60\ud328\ub85c 27", "website": "http://place.map.daum.net/9191219", "phone": "02-756-0701", "source": "\uc21c\ud654\ub3d9 - \uc2dc\uccad\uc5ed - \uc608 \uc2e0\ub77c\uc0bc\uacc4\ud0d5", "pid": "9191219"}}
  ,{"type": "Feature", "geometry": {"type": "Point", "coordinates": [126.972629299784, 37.5577859643726]}, "properties": {"name": "\uace0\uad6c\ub824\uc804\ud1b5\uc0bc\uacc4\ud0d5", "address": "\uc11c\uc6b8 \uc911\uad6c \uc138\uc885\ub300\ub85c 5-1", "website": "http://place.map.daum.net/1291244874", "phone": "02-755-6565", "source": "\ub0a8\ub300\ubb38\ub85c - \uc11c\uc6b8\uc5ed - \uace0\uad6c\ub824\uc0bc\uacc4\ud0d5", "pid": "1291244874"}}
  ,{"type": "Feature", "geometry": {"type": "Point", "coordinates": [126.929300373452, 37.5197421647558]}, "properties": {"name": "\ud30c\ub099\uc2a4", "address": "\uc11c\uc6b8 \uc601\ub4f1\ud3ec\uad6c \uc5ec\uc758\ub300\ubc29\ub85c65\uae38 17", "website": "http://place.map.daum.net/8117894", "phone": "02-780-9037", "source": "\uc5ec\uc758\ub3c4\ub3d9 - \uc5ec\uc758\ub3c4\uc5ed - \ud30c\ub099\uc2a4", "pid": "8117894"}}
  ,{"type": "Feature", "geometry": {"type": "Point", "coordinates": [127.113160827346, 37.5112252685717]}, "properties": {"name": "\ubc29\uc774\ud55c\ubc29\uc0bc\uacc4\ud0d5", "address": "\uc11c\uc6b8 \uc1a1\ud30c\uad6c \ubc31\uc81c\uace0\ubd84\ub85c 456", "website": "http://place.map.daum.net/20745899", "phone": "02-415-9909", "source": "\ubc29\uc774\ub3d9 - \uc7a0\uc2e4\uc5ed - \ud55c\ubc29\uc0bc\uacc4\ud0d5", "pid": "20745899"}}
  ,{"type": "Feature", "geometry": {"type": "Point", "coordinates": [127.058104946387, 37.511030920901]}, "properties": {"name": "\ubbf8\uc778\uc0bc\uacc4\ud0d5 \ucf54\uc5d1\uc2a4\uc810", "address": "\uc11c\uc6b8 \uac15\ub0a8\uad6c \uc601\ub3d9\ub300\ub85c 513", "website": "http://place.map.daum.net/1493594709", "phone": "02-3466-8458", "source": "\uc0bc\uc131\ub3d9 - \ubd09\uc740\uc0ac\uc5ed - \ubbf8\uc778\uc0bc\uacc4\ud0d5", "pid": "1493594709"}}
  ,{"type": "Feature", "geometry": {"type": "Point", "coordinates": [127.064644918258, 37.5138494675248]}, "properties": {"name": "\ud55c\ubc29\uc815\ud1b5\uc0bc\uacc4\ud0d5", "address": "\uc11c\uc6b8 \uac15\ub0a8\uad6c \ubd09\uc740\uc0ac\ub85c112\uae38 16-4", "website": "http://place.map.daum.net/9394820", "phone": "02-539-8713", "source": "\uc0bc\uc131\ub3d9 - \uc0bc\uc131\uc5ed - \ud55c\ubc29\uc815\ud1b5\uc0bc\uacc4\ud0d5", "pid": "9394820"}}
  ,{"type": "Feature", "geometry": {"type": "Point", "coordinates": [126.929202735456, 37.5129341242181]}, "properties": {"name": "\uc57d\ucd08\ub9c8\uc744", "address": "\uc11c\uc6b8 \ub3d9\uc791\uad6c \ub178\ub7c9\uc9c4\ub85c 26", "website": "http://place.map.daum.net/7995433", "phone": "02-824-5215", "source": "\uc2e0\uae38\ub3d9 - \ub300\ub9bc\uc5ed - \uc57d\ucd08\ub9c8\uc744", "pid": "7995433"}}
  ,{"type": "Feature", "geometry": {"type": "Point", "coordinates": [126.97250417817, 37.5779682393559]}, "properties": {"name": "\ud669\ud6c4\uba85\uac00", "address": "\uc11c\uc6b8 \uc885\ub85c\uad6c \uc790\ud558\ubb38\ub85c6\uae38 6", "website": "http://place.map.daum.net/1023353805", "phone": "02-739-0147", "source": "\ud1b5\uc758\ub3d9 - \uacbd\ubcf5\uad81\uc5ed - \ud669\ud6c4\uba85\uac00", "pid": "1023353805"}}
  ,{"type": "Feature", "geometry": {"type": "Point", "coordinates": [127.076474946964, 37.5568669769717]}, "properties": {"name": "\uae30\uc640\uc9d1\ud55c\ubc29\ub2a5\uc774\ubc31\uc219", "address": "\uc11c\uc6b8 \uad11\uc9c4\uad6c \uba74\ubaa9\ub85c 32", "website": "http://place.map.daum.net/23347049", "phone": "02-2242-4145", "source": "\uad70\uc790\ub3d9 - \uad70\uc790\uc5ed - \ub2a5\uc774\ubc31\uc219", "pid": "23347049"}}
  ,{"type": "Feature", "geometry": {"type": "Point", "coordinates": [126.949021311389, 37.5035486625681]}, "properties": {"name": "\ud55c\ubc29\uace0\ud5a5\uc0bc\uacc4\ud0d5", "address": "\uc11c\uc6b8 \ub3d9\uc791\uad6c \uc591\ub155\ub85c 268-1", "website": "http://place.map.daum.net/20534943", "phone": "02-814-1007", "source": "\uc0c1\ub3c4\ub3d9 - \uc0c1\ub3c4\uc5ed - \ud55c\ubc29\uace0\ud5a5\uc0bc\uacc4\ud0d5", "pid": "20534943"}}
  ,{"type": "Feature", "geometry": {"type": "Point", "coordinates": [126.837825348799, 37.5562830170175]}, "properties": {"name": "\ubc1c\uc0b0\uc0bc\uacc4\ud0d5", "address": "\uc11c\uc6b8 \uac15\uc11c\uad6c \uac15\uc11c\ub85c 344", "website": "http://place.map.daum.net/8382068", "phone": "02-3662-3930", "source": "\ub0b4\ubc1c\uc0b0\ub3d9 - \ubc1c\uc0b0\uc5ed - \ubc1c\uc0b0\uc0bc\uacc4\ud0d5", "pid": "8382068"}}
  ,{"type": "Feature", "geometry": {"type": "Point", "coordinates": [126.93279392188497, 37.62257270050824]}, "properties": {"name": "\uc131\ub108\uba38\uc9d1", "address": "\uc11c\uc6b8 \uc740\ud3c9\uad6c \ubd88\uad11\ub85c18\uae38 13-1", "website": "http://place.map.daum.net/8414493", "phone": "02-764-8571", "source": "\ubd88\uad11\ub3d9 - \ub3c5\ubc14\uc704\uc5ed - \uc131\ub108\uba38\uc9d1", "pid": "8414493"}}
  ,{"type": "Feature", "geometry": {"type": "Point", "coordinates": [126.942846266734, 37.5925536919528]}, "properties": {"name": "\uc0b0\ucc9c\ub9c8\ub8e8", "address": "\uc11c\uc6b8 \uc11c\ub300\ubb38\uad6c \uc138\uac80\uc815\ub85c1\uae38 21", "website": "http://place.map.daum.net/24940071", "phone": "02-394-3919", "source": "\ud64d\uc740\ub3d9 - \ud64d\uc740\ub3d9\uc5ed - \uc0b0\ucc9c\ub9c8\ub8e8", "pid": "24940071"}}
  ,{"type": "Feature", "geometry": {"type": "Point", "coordinates": [127.041587747846, 37.4799135137132]}, "properties": {"name": "\uc591\uc7ac\ud55c\ubc29\uc0bc\uacc4\ud0d5", "address": "\uc11c\uc6b8 \uc11c\ucd08\uad6c \ubc14\uc6b0\ubafc\ub85c 202", "website": "http://place.map.daum.net/9574208", "phone": "02-579-9200", "source": "\ub300\uce58\ub3d9 - \uc120\ub989\uc5ed - \ud55c\ubc29 \uc804\ud1b5 \uc0bc\uacc4\ud0d5", "pid": "9574208"}}
  ,{"type": "Feature", "geometry": {"type": "Point", "coordinates": [127.031274167763, 37.4954500711957]}, "properties": {"name": "\ud55c\ubc29\ub300\uac00\uc0bc\uacc4\ud0d5", "address": "\uc11c\uc6b8 \uac15\ub0a8\uad6c \uac15\ub0a8\ub300\ub85c78\uae38 25", "website": "http://place.map.daum.net/12519094", "phone": "02-562-7892", "source": "\uc5ed\uc0bc\ub3d9 - \uac15\ub0a8\uc5ed - \ud55c\ubc29\ub300\uac00\uc0bc\uacc4\ud0d5", "pid": "12519094"}}
  ,{"type": "Feature", "geometry": {"type": "Point", "coordinates": [126.920232623863, 37.5538266352008]}, "properties": {"name": "\ubc31\ub144\ud1a0\uc885\uc0bc\uacc4\ud0d5 \ubcf8\uc810", "address": "\uc11c\uc6b8 \ub9c8\ud3ec\uad6c \uc591\ud654\ub85c 118", "website": "http://place.map.daum.net/8312102", "phone": "02-325-3399", "source": "\uc11c\uad50\ub3d9 - \ud64d\ub300\uc785\uad6c\uc5ed - \ubc31\ub144\ud1a0\uc885\uc0bc\uacc4\ud0d5", "pid": "8312102"}}
  ,{"type": "Feature", "geometry": {"type": "Point", "coordinates": [126.9678114499633, 37.56020662932637]}, "properties": {"name": "\ub2ed\uce7c\uc6d0\uc870\uc9d1", "address": "\uc11c\uc6b8 \uc911\uad6c \uccad\ud30c\ub85c 457-1", "website": "http://place.map.daum.net/10253905", "phone": "02-392-1134", "source": "\uc911\ub9bc\ub3d9 - \uc11c\uc6b8\uc5ed - \ub2ed\uce7c\uc6d0\uc870\uc9d1", "pid": "10253905"}}
  ,{"type": "Feature", "geometry": {"type": "Point", "coordinates": [127.005696017003, 37.5703380763098]}, "properties": {"name": "\uc9c4\uc625\ud654 \ud560\ub9e4\uc6d0\uc870\ub2ed\ud55c\ub9c8\ub9ac \ubcf8\uc810", "address": "\uc11c\uc6b8 \uc885\ub85c\uad6c \uc885\ub85c40\uac00\uae38 18", "website": "http://place.map.daum.net/10785496", "phone": "02-2275-9666", "source": "\uc885\ub85c5\uac00 - \ub3d9\ub300\ubb38\uc5ed - \uc9c4\uc625\ud654 \ud560\ub9e4 \uc6d0\uc870 \ub2ed\ud55c\ub9c8\ub9ac", "pid": "10785496"}}
  ,{"type": "Feature", "geometry": {"type": "Point", "coordinates": [127.005931471876, 37.570431768232]}, "properties": {"name": "\uc9c4\uc6d0\uc870\ub2ed\ud55c\ub9c8\ub9ac \uc885\ub85c\ubcf8\uc810", "address": "\uc11c\uc6b8 \uc885\ub85c\uad6c \uc885\ub85c 252-11", "website": "http://place.map.daum.net/8085187", "phone": "02-2272-2722", "source": "\uc885\ub85c5\uac00 - \ub3d9\ub300\ubb38\uc5ed - \uc9c4\uc6d0\uc870\ub2ed\ud55c\ub9c8\ub9ac", "pid": "8085187"}}
  ,{"type": "Feature", "geometry": {"type": "Point", "coordinates": [127.00612163559819, 37.57036328287737]}, "properties": {"name": "\uba85\ub3d9\ub2ed\ud55c\ub9c8\ub9ac \uc2dc\uc870\uc810", "address": "\uc11c\uc6b8 \uc885\ub85c\uad6c \uc885\ub85c40\uac00\uae38 10", "website": "http://place.map.daum.net/26559811", "phone": "02-2275-3125", "source": "\uc885\ub85c5\uac00 - \ub3d9\ub300\ubb38\uc5ed - \uba85\ub3d9\ub2ed\ud55c\ub9c8\ub9ac", "pid": "26559811"}}
  ,{"type": "Feature", "geometry": {"type": "Point", "coordinates": [127.005297564166, 37.5702912431028]}, "properties": {"name": "\uc6d0\uc870\uc6d0\ud560\ub9e4\uc18c\ubb38\ub09c\ub2ed\ud55c\ub9c8\ub9ac", "address": "", "website": "http://place.map.daum.net/8449040", "phone": "02-2279-2078", "source": "\uc885\ub85c5\uac00 - \ub3d9\ub300\ubb38\uc5ed - \uc6d0\uc870\uc18c\ubb38\ub09c \ub2ed\ud55c\ub9c8\ub9ac", "pid": "8449040"}}
  ,{"type": "Feature", "geometry": {"type": "Point", "coordinates": [127.084440601422, 37.5110294463163]}, "properties": {"name": "\ud070\uc190\ub2ed\ud55c\ub9c8\ub9ac", "address": "\uc11c\uc6b8 \uc1a1\ud30c\uad6c \uc62c\ub9bc\ud53d\ub85c12\uae38 5-28", "website": "http://place.map.daum.net/16818897", "phone": "02-419-1848", "source": "\uc7a0\uc2e4\ubcf8\ub3d9 - \uc2e0\ucc9c\uc5ed - \ud070\uc190\ub2ed\ud55c\ub9c8\ub9ac", "pid": "16818897"}}
  ,{"type": "Feature", "geometry": {"type": "Point", "coordinates": [127.07475423271379, 37.621189541749445]}, "properties": {"name": "\uacf5\ub989\ubcf8\uc810\ub2ed\ud55c\ub9c8\ub9ac \ubcf8\uc810", "address": "\uc11c\uc6b8 \ub178\uc6d0\uad6c \ub3d9\uc77c\ub85c 1020", "website": "http://place.map.daum.net/20553565", "phone": "02-972-7459", "source": "\uacf5\ub989\ub3d9 - \ud0dc\ub989\uc785\uad6c\uc5ed - \uacf5\ub989\ubcf8\uc810\ub2ed\ud55c\ub9c8\ub9ac", "pid": "20553565"}}
  ,{"type": "Feature", "geometry": {"type": "Point", "coordinates": [127.049624924557, 37.4744647098884]}, "properties": {"name": "\uc6d0\uc870\ub2ed\ud55c\ub9c8\ub9ac", "address": "\uc11c\uc6b8 \uac15\ub0a8\uad6c \ub17c\ud604\ub85c10\uae38 13", "website": "http://place.map.daum.net/9956715", "phone": "02-3461-4422", "source": "\uac1c\ud3ec\ub3d9 - \uc591\uc7ac\uc2dc\ubbfc\uc758\uc232\uc5ed - \uc6d0\uc870\ub2ed\ud55c\ub9c8\ub9ac", "pid": "9956715"}}
  ,{"type": "Feature", "geometry": {"type": "Point", "coordinates": [127.0694164055, 37.541233608696]}, "properties": {"name": "\uc6d0\uc870\ubb34\ub4f1\uc0b0\ub2ed\ud55c\ub9c8\ub9ac", "address": "\uc11c\uc6b8 \uad11\uc9c4\uad6c \uc544\ucc28\uc0b0\ub85c31\uae38 6", "website": "http://place.map.daum.net/25045246", "phone": "02-498-3027", "source": "\ud654\uc591\ub3d9 - \uac74\ub300\uc785\uad6c\uc5ed - \ubb34\ub4f1\uc0b0 \ub2ed\ud55c\ub9c8\ub9ac", "pid": "25045246"}}
  ,{"type": "Feature", "geometry": {"type": "Point", "coordinates": [127.083104098934, 37.5583040924645]}, "properties": {"name": "\uc7a5\uc6d0\ub2ed\ud55c\ub9c8\ub9ac", "address": "\uc11c\uc6b8 \uad11\uc9c4\uad6c \ucc9c\ud638\ub300\ub85c111\uae38 46", "website": "http://place.map.daum.net/17662659", "phone": "02-457-7270", "source": "\ub2f5\uc2ed\ub9ac\ub3d9 - \ub2f5\uc2ed\ub9ac\uc5ed - \uc7a5\uc6d0\ub2ed\ud55c\ub9c8\ub9ac", "pid": "17662659"}}
  ,{"type": "Feature", "geometry": {"type": "Point", "coordinates": [127.114953661722, 37.509075543633]}, "properties": {"name": "\ubc29\uc774\ub2ed\ud55c\ub9c8\ub9ac", "address": "\uc11c\uc6b8 \uc1a1\ud30c\uad6c \uc624\uae08\ub85c 185", "website": "http://place.map.daum.net/8306852", "phone": "02-424-0446", "source": "\ubc29\uc774\ub3d9 - \ubc29\uc774\uc5ed - \ubc29\uc774 \ub2ed\ud55c\ub9c8\ub9ac \uce7c\uad6d\uc218", "pid": "8306852"}}
  ,{"type": "Feature", "geometry": {"type": "Point", "coordinates": [127.062090578934, 37.6579700495823]}, "properties": {"name": "\ubd80\ubd80\uce7c\uad6d\uc218", "address": "\uc11c\uc6b8 \ub178\uc6d0\uad6c \uc0c1\uacc4\ub85c1\uae38 38-11", "website": "http://place.map.daum.net/24067910", "phone": "02-984-3346", "source": "\uc0c1\uacc4\ub3d9 - \ub178\uc6d0\uc5ed - \ubd80\ubd80\uce7c\uad6d\uc218", "pid": "24067910"}}
  ,{"type": "Feature", "geometry": {"type": "Point", "coordinates": [126.90962450242, 37.5177717697491]}, "properties": {"name": "\uc815\uc194\ub2ed\ud55c\ub9c8\ub9ac \uc601\ub4f1\ud3ec\ubcf8\uc810", "address": "\uc11c\uc6b8 \uc601\ub4f1\ud3ec\uad6c \uc601\uc911\ub85c4\uae38 30", "website": "http://place.map.daum.net/8001661", "phone": "02-2637-8153", "source": "\uc601\ub4f1\ud3ec\ub3d9 - \uc601\ub4f1\ud3ec\uc5ed - \uc815\uc194\ub2ed\ud55c\ub9c8\ub9ac", "pid": "8001661"}}
  ,{"type": "Feature", "geometry": {"type": "Point", "coordinates": [127.089856388928, 37.5527417950966]}, "properties": {"name": "\uc7a5\uc778\uc11d\ub2ed\ud55c\ub9c8\ub9ac", "address": "\uc11c\uc6b8 \uad11\uc9c4\uad6c \uc790\uc591\ub85c43\uae38 49-6", "website": "http://place.map.daum.net/17434210", "phone": "02-456-9912", "source": "\uc911\uace1\ub3d9 - \uc544\ucc28\uc0b0\uc5ed - \uc7a5\uc778\uc11d\ub2ed\ud55c\ub9c8\ub9ac", "pid": "17434210"}}
  ,{"type": "Feature", "geometry": {"type": "Point", "coordinates": [127.145629736009, 37.540612802344]}, "properties": {"name": "\ucd5c\uc7a5\uc6d0\ub2ed\ud55c\ub9c8\ub9ac", "address": "\uc11c\uc6b8 \uac15\ub3d9\uad6c \ucc9c\uc911\ub85c 228", "website": "http://place.map.daum.net/13574109", "phone": "02-471-8280", "source": "\uae38\ub3d9 - \uae38\ub3d9\uc5ed - \ucd5c\uc7a5\uc6d0\ub2ed\ud55c\ub9c8\ub9ac", "pid": "13574109"}}
  ,{"type": "Feature", "geometry": {"type": "Point", "coordinates": [127.066196034661, 37.5437150083881]}, "properties": {"name": "\uc120\uae30\ud615 \ub2ed\ud55c\ub9c8\ub9ac", "address": "\uc11c\uc6b8 \uad11\uc9c4\uad6c \ub3d9\uc77c\ub85c24\uae38 18-1", "website": "http://place.map.daum.net/26831018", "phone": "02-469-4690", "source": "\ud654\uc591\ub3d9 - \uac74\ub300\uc785\uad6c\uc5ed - \uc120\uae30\ud615\ub2ed\ud55c\ub9c8\ub9ac", "pid": "26831018"}}
  ,{"type": "Feature", "geometry": {"type": "Point", "coordinates": [127.030833977229, 37.6128393895617]}, "properties": {"name": "\uc624\ubcf5\ub2ed\ud55c\ub9c8\ub9ac \ubbf8\uc544\ub9ac1\ud638\uc810", "address": "\uc11c\uc6b8 \uac15\ubd81\uad6c \ub3c4\ubd09\ub85c8\uae38 9", "website": "http://place.map.daum.net/10637539", "phone": "02-982-9996", "source": "\uc1a1\uc911\ub3d9 - \ubbf8\uc544\uc0bc\uac70\ub9ac\uc5ed - \uc624\ubcf5\ub2ed\ud55c\ub9c8\ub9ac", "pid": "10637539"}}
  ,{"type": "Feature", "geometry": {"type": "Point", "coordinates": [127.0, 37.5682659240123]}, "properties": {"name": "\ub300\ubcf5\ub2ed\ud55c\ub9c8\ub9ac", "address": "\uc11c\uc6b8 \uc911\uad6c \uc744\uc9c0\ub85c27\uae38 32-30", "website": "http://place.map.daum.net/27597222", "phone": "02-2266-2129", "source": "\uc8fc\uad50\ub3d9 - \uc744\uc9c0\ub85c 4\uac00\uc5ed - \ub300\ubcf5\ub2ed\ud55c\ub9c8\ub9ac", "pid": "27597222"}}
  ,{"type": "Feature", "geometry": {"type": "Point", "coordinates": [126.990479404449, 37.5945709512711]}, "properties": {"name": "\uc131\ubd81\ub3d9 \uba54\ubc00\uc218\uc81c\ube44\ub204\ub8fd\uc9c0\ubc31\uc219", "address": "\uc11c\uc6b8 \uc131\ubd81\uad6c \uc131\ubd81\ub85c31\uae38 9", "website": "http://place.map.daum.net/8218085", "phone": "02-764-0707", "source": "\uc131\ubd81\ub3d9 - \ud55c\uc131\ub300\uc785\uad6c\uc5ed - \ub204\ub8fd\uc9c0\ubc31\uc219", "pid": "8218085"}}
  ,{"type": "Feature", "geometry": {"type": "Point", "coordinates": [126.86441027712, 37.5274124892426]}, "properties": {"name": "\uac00\ub791\uc0bc\uacc4\ud0d5", "address": "\uc11c\uc6b8 \uc591\ucc9c\uad6c \ubaa9\ub3d9\ub85c 210", "website": "http://place.map.daum.net/26318865", "phone": "02-2647-1373", "source": "\ubaa9\ub3d9 - \ubaa9\ub3d9\uc5ed - \uac00\ub791", "pid": "26318865"}}
  ,{"type": "Feature", "geometry": {"type": "Point", "coordinates": [127.122537305338, 37.5125782313303]}, "properties": {"name": "\uc815\ubaa9\ub204\ub8fd\uc9c0\ubc31\uc219", "address": "\uc11c\uc6b8 \uc1a1\ud30c\uad6c \uc704\ub840\uc131\ub300\ub85c12\uae38 11", "website": "http://place.map.daum.net/8509696", "phone": "02-2202-9265", "source": "\ubc29\uc774\ub3d9 - \ubc29\uc774\uc5ed - \uc815\ubaa9\ub204\ub8fd\uc9c0\ubc31\uc219", "pid": "8509696"}}
  ,{"type": "Feature", "geometry": {"type": "Point", "coordinates": [127.006519737338, 37.6701458502064]}, "properties": {"name": "\uc2dc\uace8\uae38", "address": "\uc11c\uc6b8 \uac15\ubd81\uad6c \uc0bc\uc591\ub85c179\uae38 172", "website": "http://place.map.daum.net/8441636", "phone": "02-994-8989", "source": "\uc6b0\uc774\ub3d9 - \uc218\uc720\uc5ed - \uc2dc\uace8\uae38", "pid": "8441636"}}
  ,{"type": "Feature", "geometry": {"type": "Point", "coordinates": [126.912226953009, 37.5943044413316]}, "properties": {"name": "\uba85\uac00\ub204\ub8fd\uc9c0\ubc31\uc219", "address": "\uc11c\uc6b8 \uc740\ud3c9\uad6c \uac00\uc88c\ub85c 290", "website": "http://place.map.daum.net/644547164", "phone": "", "source": "\uc2e0\uc0ac\ub3d9 - \uc0c8\uc808\uc5ed - \uba85\uac00\ub204\ub8fd\uc9c0\ubc31\uc219", "pid": "644547164"}}
]}
