{
 "type": "FeatureCollection",
 "features": [
  {
   "type": "Feature",
   "geometry": {
    "type": "Point",
    "coordinates": [
     127.017934083654,
     37.5108420256989
    ]
   },
   "properties": {
    "pid": "7828448",
    "name": "생선구이대풍",
    "phone": "02-3444-3003",
    "source": "잠원동 - 신사역 - 대풍생선구이",
    "address": "서울 서초구 신반포로45길 9-26",
    "website": "http://place.map.daum.net/7828448",
    "category": "생선구이 &조림"
   }
  },
  {
   "type": "Feature",
   "geometry": {
    "type": "Point",
    "coordinates": [
     127.035185906997,
     37.5223962199706
    ]
   },
   "properties": {
    "pid": "14841339",
    "name": "바랗",
    "phone": "02-542-8892",
    "source": "신사동 - 압구정로데오역 - 바랗",
    "address": "서울 강남구 도산대로 309",
    "website": "http://place.map.daum.net/14841339",
    "category": "생선구이 &조림"
   }
  },
  {
   "type": "Feature",
   "geometry": {
    "type": "Point",
    "coordinates": [
     126.967145310631,
     37.5616588526281
    ]
   },
   "properties": {
    "pid": "27298492",
    "name": "비진도해물뚝배기 충정로본점",
    "phone": "02-312-2867",
    "source": "합동 - 충정로역 - 비진도해물뚝배기",
    "address": "서울 서대문구 서소문로 53",
    "website": "http://place.map.daum.net/27298492",
    "category": "생선구이 &조림"
   }
  },
  {
   "type": "Feature",
   "geometry": {
    "type": "Point",
    "coordinates": [
     126.934728159431,
     37.5583189012137
    ]
   },
   "properties": {
    "pid": "17505297",
    "name": "고삼이 신촌점",
    "phone": "02-324-1403",
    "source": "창천동 - 신촌역 - 고삼이",
    "address": "서울 서대문구 연세로7안길 38",
    "website": "http://place.map.daum.net/17505297",
    "category": "생선구이 &조림"
   }
  },
  {
   "type": "Feature",
   "geometry": {
    "type": "Point",
    "coordinates": [
     126.93990629230946,
     37.54813677050913
    ]
   },
   "properties": {
    "pid": "2019896158",
    "name": "도꼭지",
    "phone": "02-711-0431",
    "source": "서교동 - 홍대입구역 - 도꼭지",
    "address": "서울 마포구 백범로10길 30",
    "website": "http://place.map.daum.net/2019896158",
    "category": "생선구이 &조림"
   }
  },
  {
   "type": "Feature",
   "geometry": {
    "type": "Point",
    "coordinates": [
     126.927214075105,
     37.5201301307501
    ]
   },
   "properties": {
    "pid": "8217961",
    "name": "다미",
    "phone": "02-783-5167",
    "source": "여의도동 - 여의도역 - 다미",
    "address": "서울 영등포구 국제금융로8길 34",
    "website": "http://place.map.daum.net/8217961",
    "category": "생선구이 &조림"
   }
  },
  {
   "type": "Feature",
   "geometry": {
    "type": "Point",
    "coordinates": [
     126.921044734146,
     37.530653475366
    ]
   },
   "properties": {
    "pid": "8309073",
    "name": "대방골",
    "phone": "02-783-4999",
    "source": "여의도동 - 국회의사당역 - 대방골",
    "address": "서울 영등포구 국회대로 800",
    "website": "http://place.map.daum.net/8309073",
    "category": "생선구이 &조림"
   }
  },
  {
   "type": "Feature",
   "geometry": {
    "type": "Point",
    "coordinates": [
     126.94453705388831,
     37.53756533223396
    ]
   },
   "properties": {
    "pid": "26985793",
    "name": "원조마포구이구이",
    "phone": "02-703-9292",
    "source": "마포동 - 마포역 - 구이구이",
    "address": "서울 마포구 마포대로4가길 45",
    "website": "http://place.map.daum.net/26985793",
    "category": "생선구이 &조림"
   }
  },
  {
   "type": "Feature",
   "geometry": {
    "type": "Point",
    "coordinates": [
     126.991003253839,
     37.5698152935785
    ]
   },
   "properties": {
    "pid": "8510319",
    "name": "전주집",
    "phone": "02-2278-3311",
    "source": "관수동 - 종로3가역 - 전주집",
    "address": "서울 종로구 수표로20길 16-15",
    "website": "http://place.map.daum.net/8510319",
    "category": "생선구이 &조림"
   }
  },
  {
   "type": "Feature",
   "geometry": {
    "type": "Point",
    "coordinates": [
     126.99115267051,
     37.5698225128341
    ]
   },
   "properties": {
    "pid": "8136764",
    "name": "한일식당",
    "phone": "02-2279-7343",
    "source": "관수동 - 종로3가역 - 한일식당",
    "address": "서울 종로구 수표로20길 16-17",
    "website": "http://place.map.daum.net/8136764",
    "category": "생선구이 &조림"
   }
  },
  {
   "type": "Feature",
   "geometry": {
    "type": "Point",
    "coordinates": [
     127.00648498818617,
     37.57029028285237
    ]
   },
   "properties": {
    "pid": "9934552",
    "name": "전주집",
    "phone": "02-2267-6897",
    "source": "종로 5가 - 동대문역 - 전주집",
    "address": "서울 종로구 종로40가길 3",
    "website": "http://place.map.daum.net/9934552",
    "category": "생선구이 &조림"
   }
  },
  {
   "type": "Feature",
   "geometry": {
    "type": "Point",
    "coordinates": [
     127.00637971339,
     37.5702587537502
    ]
   },
   "properties": {
    "pid": "10974940",
    "name": "호남집",
    "phone": "02-2279-0996",
    "source": "종로 5가 - 동대문역 - 호남집",
    "address": "서울 종로구 종로40가길 5",
    "website": "http://place.map.daum.net/10974940",
    "category": "생선구이 &조림"
   }
  },
  {
   "type": "Feature",
   "geometry": {
    "type": "Point",
    "coordinates": [
     127.005800147995,
     37.5702191398502
    ]
   },
   "properties": {
    "pid": "20536944",
    "name": "오부자식당",
    "phone": "02-2273-6466",
    "source": "종로 5가 - 동대문역 - 오부자식당",
    "address": "서울 종로구 종로40가길 17",
    "website": "http://place.map.daum.net/20536944",
    "category": "생선구이 &조림"
   }
  },
  {
   "type": "Feature",
   "geometry": {
    "type": "Point",
    "coordinates": [
     127.005899761353,
     37.5702335508403
    ]
   },
   "properties": {
    "pid": "15758579",
    "name": "송정식당",
    "phone": "",
    "source": "종로 5가 - 동대문역 - 송정식당",
    "address": "서울 종로구 종로40가길 13",
    "website": "http://place.map.daum.net/15758579",
    "category": "생선구이 &조림"
   }
  },
  {
   "type": "Feature",
   "geometry": {
    "type": "Point",
    "coordinates": [
     126.997903869,
     37.5611732631081
    ]
   },
   "properties": {
    "pid": "20743585",
    "name": "다오리",
    "phone": "",
    "source": "충무로3가 - 충무로역 - 다오리",
    "address": "서울 중구 서애로 14-1",
    "website": "http://place.map.daum.net/20743585",
    "category": "생선구이 &조림"
   }
  },
  {
   "type": "Feature",
   "geometry": {
    "type": "Point",
    "coordinates": [
     127.063766068781,
     37.655893293316
    ]
   },
   "properties": {
    "pid": "26086942",
    "name": "털보고된이 본점",
    "phone": "02-932-8616",
    "source": "상계동 - 노원역 - 털보고된이",
    "address": "서울 노원구 노해로81길 22-22",
    "website": "http://place.map.daum.net/26086942",
    "category": "생선구이 &조림"
   }
  },
  {
   "type": "Feature",
   "geometry": {
    "type": "Point",
    "coordinates": [
     127.130875843744,
     37.538583004801
    ]
   },
   "properties": {
    "pid": "488663748",
    "name": "달빛포차",
    "phone": "02-488-7598",
    "source": "천호동 - 천호역 - 달빛포차",
    "address": "서울 강동구 진황도로 36",
    "website": "http://place.map.daum.net/488663748",
    "category": "생선구이 &조림"
   }
  },
  {
   "type": "Feature",
   "geometry": {
    "type": "Point",
    "coordinates": [
     127.137471280809,
     37.5367626997433
    ]
   },
   "properties": {
    "pid": "20615736",
    "name": "까시",
    "phone": "02-470-5709",
    "source": "길동 - 길동역 - 까시",
    "address": "서울 강동구 천호대로175길 48",
    "website": "http://place.map.daum.net/20615736",
    "category": "생선구이 &조림"
   }
  },
  {
   "type": "Feature",
   "geometry": {
    "type": "Point",
    "coordinates": [
     127.11586519552743,
     37.507160190234394
    ]
   },
   "properties": {
    "pid": "18450926",
    "name": "삼척해물 송파점",
    "phone": "",
    "source": "송파동 - 석촌역 - 삼척해물",
    "address": "서울 송파구 백제고분로46길 41-12",
    "website": "http://place.map.daum.net/18450926",
    "category": "생선구이 &조림"
   }
  },
  {
   "type": "Feature",
   "geometry": {
    "type": "Point",
    "coordinates": [
     126.963142562001,
     37.5261150479484
    ]
   },
   "properties": {
    "pid": "26503366",
    "name": "대식가",
    "phone": "02-797-6009",
    "source": "한강로3가 - 용산역 - 대식가",
    "address": "서울 용산구 한강대로15길 23",
    "website": "http://place.map.daum.net/26503366",
    "category": "생선구이 &조림"
   }
  },
  {
   "type": "Feature",
   "geometry": {
    "type": "Point",
    "coordinates": [
     127.066758648777,
     37.545242786241
    ]
   },
   "properties": {
    "pid": "12057498",
    "name": "동해해물",
    "phone": "02-469-5843",
    "source": "화양동 - 건대입구역 - 동해해물",
    "address": "서울 광진구 동일로26길 16",
    "website": "http://place.map.daum.net/12057498",
    "category": "생선구이 &조림"
   }
  },
  {
   "type": "Feature",
   "geometry": {
    "type": "Point",
    "coordinates": [
     126.977096892251,
     37.5598483969057
    ]
   },
   "properties": {
    "pid": "8670706",
    "name": "희락갈치",
    "phone": "02-755-3449",
    "source": "남창동 - 회현역 - 희락",
    "address": "서울 중구 남대문시장길 22-6",
    "website": "http://place.map.daum.net/8670706",
    "category": "생선구이 &조림"
   }
  },
  {
   "type": "Feature",
   "geometry": {
    "type": "Point",
    "coordinates": [
     126.976970098476,
     37.5599528878874
    ]
   },
   "properties": {
    "pid": "10619983",
    "name": "왕성식당",
    "phone": "02-752-9476",
    "source": "남창동 - 회현역 - 왕성식당",
    "address": "서울 중구 남대문시장길 18-2",
    "website": "http://place.map.daum.net/10619983",
    "category": "생선구이 &조림"
   }
  },
  {
   "type": "Feature",
   "geometry": {
    "type": "Point",
    "coordinates": [
     126.977078804427,
     37.5597799176267
    ]
   },
   "properties": {
    "pid": "8081393",
    "name": "중앙식당",
    "phone": "02-752-2892",
    "source": "남창동 - 회현역 - 중앙식당",
    "address": "서울 중구 남대문시장길 22-12",
    "website": "http://place.map.daum.net/8081393",
    "category": "생선구이 &조림"
   }
  }
 ]
}