{"type": "FeatureCollection","features": [
  {"type": "Feature", "geometry": {"type": "Point", "coordinates": [127.017934083654, 37.5108420256989]}, "properties": {"name": "\uc0dd\uc120\uad6c\uc774\ub300\ud48d", "address": "\uc11c\uc6b8 \uc11c\ucd08\uad6c \uc2e0\ubc18\ud3ec\ub85c45\uae38 9-26", "website": "http://place.map.daum.net/7828448", "phone": "02-3444-3003", "source": "\uc7a0\uc6d0\ub3d9 - \uc2e0\uc0ac\uc5ed - \ub300\ud48d\uc0dd\uc120\uad6c\uc774", "pid": "7828448"}}
  ,{"type": "Feature", "geometry": {"type": "Point", "coordinates": [127.035185906997, 37.5223962199706]}, "properties": {"name": "\ubc14\ub797", "address": "\uc11c\uc6b8 \uac15\ub0a8\uad6c \ub3c4\uc0b0\ub300\ub85c 309", "website": "http://place.map.daum.net/14841339", "phone": "02-542-8892", "source": "\uc2e0\uc0ac\ub3d9 - \uc555\uad6c\uc815\ub85c\ub370\uc624\uc5ed - \ubc14\ub797", "pid": "14841339"}}
  ,{"type": "Feature", "geometry": {"type": "Point", "coordinates": [126.967145310631, 37.5616588526281]}, "properties": {"name": "\ube44\uc9c4\ub3c4\ud574\ubb3c\ub69d\ubc30\uae30 \ucda9\uc815\ub85c\ubcf8\uc810", "address": "\uc11c\uc6b8 \uc11c\ub300\ubb38\uad6c \uc11c\uc18c\ubb38\ub85c 53", "website": "http://place.map.daum.net/27298492", "phone": "02-312-2867", "source": "\ud569\ub3d9 - \ucda9\uc815\ub85c\uc5ed - \ube44\uc9c4\ub3c4\ud574\ubb3c\ub69d\ubc30\uae30", "pid": "27298492"}}
  ,{"type": "Feature", "geometry": {"type": "Point", "coordinates": [126.934728159431, 37.5583189012137]}, "properties": {"name": "\uace0\uc0bc\uc774 \uc2e0\ucd0c\uc810", "address": "\uc11c\uc6b8 \uc11c\ub300\ubb38\uad6c \uc5f0\uc138\ub85c7\uc548\uae38 38", "website": "http://place.map.daum.net/17505297", "phone": "02-324-1403", "source": "\ucc3d\ucc9c\ub3d9 - \uc2e0\ucd0c\uc5ed - \uace0\uc0bc\uc774", "pid": "17505297"}}
  ,{"type": "Feature", "geometry": {"type": "Point", "coordinates": [126.93990629230946, 37.54813677050913]}, "properties": {"name": "\ub3c4\uaf2d\uc9c0", "address": "\uc11c\uc6b8 \ub9c8\ud3ec\uad6c \ubc31\ubc94\ub85c10\uae38 30", "website": "http://place.map.daum.net/2019896158", "phone": "02-711-0431", "source": "\uc11c\uad50\ub3d9 - \ud64d\ub300\uc785\uad6c\uc5ed - \ub3c4\uaf2d\uc9c0", "pid": "2019896158"}}
  ,{"type": "Feature", "geometry": {"type": "Point", "coordinates": [126.927214075105, 37.5201301307501]}, "properties": {"name": "\ub2e4\ubbf8", "address": "\uc11c\uc6b8 \uc601\ub4f1\ud3ec\uad6c \uad6d\uc81c\uae08\uc735\ub85c8\uae38 34", "website": "http://place.map.daum.net/8217961", "phone": "02-783-5167", "source": "\uc5ec\uc758\ub3c4\ub3d9 - \uc5ec\uc758\ub3c4\uc5ed - \ub2e4\ubbf8", "pid": "8217961"}}
  ,{"type": "Feature", "geometry": {"type": "Point", "coordinates": [126.921044734146, 37.530653475366]}, "properties": {"name": "\ub300\ubc29\uace8", "address": "\uc11c\uc6b8 \uc601\ub4f1\ud3ec\uad6c \uad6d\ud68c\ub300\ub85c 800", "website": "http://place.map.daum.net/8309073", "phone": "02-783-4999", "source": "\uc5ec\uc758\ub3c4\ub3d9 - \uad6d\ud68c\uc758\uc0ac\ub2f9\uc5ed - \ub300\ubc29\uace8", "pid": "8309073"}}
  ,{"type": "Feature", "geometry": {"type": "Point", "coordinates": [126.94453705388831, 37.53756533223396]}, "properties": {"name": "\uc6d0\uc870\ub9c8\ud3ec\uad6c\uc774\uad6c\uc774", "address": "\uc11c\uc6b8 \ub9c8\ud3ec\uad6c \ub9c8\ud3ec\ub300\ub85c4\uac00\uae38 45", "website": "http://place.map.daum.net/26985793", "phone": "02-703-9292", "source": "\ub9c8\ud3ec\ub3d9 - \ub9c8\ud3ec\uc5ed - \uad6c\uc774\uad6c\uc774", "pid": "26985793"}}
  ,{"type": "Feature", "geometry": {"type": "Point", "coordinates": [126.991003253839, 37.5698152935785]}, "properties": {"name": "\uc804\uc8fc\uc9d1", "address": "\uc11c\uc6b8 \uc885\ub85c\uad6c \uc218\ud45c\ub85c20\uae38 16-15", "website": "http://place.map.daum.net/8510319", "phone": "02-2278-3311", "source": "\uad00\uc218\ub3d9 - \uc885\ub85c3\uac00\uc5ed - \uc804\uc8fc\uc9d1", "pid": "8510319"}}
  ,{"type": "Feature", "geometry": {"type": "Point", "coordinates": [126.99115267051, 37.5698225128341]}, "properties": {"name": "\ud55c\uc77c\uc2dd\ub2f9", "address": "\uc11c\uc6b8 \uc885\ub85c\uad6c \uc218\ud45c\ub85c20\uae38 16-17", "website": "http://place.map.daum.net/8136764", "phone": "02-2279-7343", "source": "\uad00\uc218\ub3d9 - \uc885\ub85c3\uac00\uc5ed - \ud55c\uc77c\uc2dd\ub2f9", "pid": "8136764"}}
  ,{"type": "Feature", "geometry": {"type": "Point", "coordinates": [127.00648498818617, 37.57029028285237]}, "properties": {"name": "\uc804\uc8fc\uc9d1", "address": "\uc11c\uc6b8 \uc885\ub85c\uad6c \uc885\ub85c40\uac00\uae38 3", "website": "http://place.map.daum.net/9934552", "phone": "02-2267-6897", "source": "\uc885\ub85c 5\uac00 - \ub3d9\ub300\ubb38\uc5ed - \uc804\uc8fc\uc9d1", "pid": "9934552"}}
  ,{"type": "Feature", "geometry": {"type": "Point", "coordinates": [127.00637971339, 37.5702587537502]}, "properties": {"name": "\ud638\ub0a8\uc9d1", "address": "\uc11c\uc6b8 \uc885\ub85c\uad6c \uc885\ub85c40\uac00\uae38 5", "website": "http://place.map.daum.net/10974940", "phone": "02-2279-0996", "source": "\uc885\ub85c 5\uac00 - \ub3d9\ub300\ubb38\uc5ed - \ud638\ub0a8\uc9d1", "pid": "10974940"}}
  ,{"type": "Feature", "geometry": {"type": "Point", "coordinates": [127.005800147995, 37.5702191398502]}, "properties": {"name": "\uc624\ubd80\uc790\uc2dd\ub2f9", "address": "\uc11c\uc6b8 \uc885\ub85c\uad6c \uc885\ub85c40\uac00\uae38 17", "website": "http://place.map.daum.net/20536944", "phone": "02-2273-6466", "source": "\uc885\ub85c 5\uac00 - \ub3d9\ub300\ubb38\uc5ed - \uc624\ubd80\uc790\uc2dd\ub2f9", "pid": "20536944"}}
  ,{"type": "Feature", "geometry": {"type": "Point", "coordinates": [127.005899761353, 37.5702335508403]}, "properties": {"name": "\uc1a1\uc815\uc2dd\ub2f9", "address": "\uc11c\uc6b8 \uc885\ub85c\uad6c \uc885\ub85c40\uac00\uae38 13", "website": "http://place.map.daum.net/15758579", "phone": "", "source": "\uc885\ub85c 5\uac00 - \ub3d9\ub300\ubb38\uc5ed - \uc1a1\uc815\uc2dd\ub2f9", "pid": "15758579"}}
  ,{"type": "Feature", "geometry": {"type": "Point", "coordinates": [126.997903869, 37.5611732631081]}, "properties": {"name": "\ub2e4\uc624\ub9ac", "address": "\uc11c\uc6b8 \uc911\uad6c \uc11c\uc560\ub85c 14-1", "website": "http://place.map.daum.net/20743585", "phone": "", "source": "\ucda9\ubb34\ub85c3\uac00 - \ucda9\ubb34\ub85c\uc5ed - \ub2e4\uc624\ub9ac", "pid": "20743585"}}
  ,{"type": "Feature", "geometry": {"type": "Point", "coordinates": [127.063766068781, 37.655893293316]}, "properties": {"name": "\ud138\ubcf4\uace0\ub41c\uc774 \ubcf8\uc810", "address": "\uc11c\uc6b8 \ub178\uc6d0\uad6c \ub178\ud574\ub85c81\uae38 22-22", "website": "http://place.map.daum.net/26086942", "phone": "02-932-8616", "source": "\uc0c1\uacc4\ub3d9 - \ub178\uc6d0\uc5ed - \ud138\ubcf4\uace0\ub41c\uc774", "pid": "26086942"}}
  ,{"type": "Feature", "geometry": {"type": "Point", "coordinates": [127.130875843744, 37.538583004801]}, "properties": {"name": "\ub2ec\ube5b\ud3ec\ucc28", "address": "\uc11c\uc6b8 \uac15\ub3d9\uad6c \uc9c4\ud669\ub3c4\ub85c 36", "website": "http://place.map.daum.net/488663748", "phone": "02-488-7598", "source": "\ucc9c\ud638\ub3d9 - \ucc9c\ud638\uc5ed - \ub2ec\ube5b\ud3ec\ucc28", "pid": "488663748"}}
  ,{"type": "Feature", "geometry": {"type": "Point", "coordinates": [127.137471280809, 37.5367626997433]}, "properties": {"name": "\uae4c\uc2dc", "address": "\uc11c\uc6b8 \uac15\ub3d9\uad6c \ucc9c\ud638\ub300\ub85c175\uae38 48", "website": "http://place.map.daum.net/20615736", "phone": "02-470-5709", "source": "\uae38\ub3d9 - \uae38\ub3d9\uc5ed - \uae4c\uc2dc", "pid": "20615736"}}
  ,{"type": "Feature", "geometry": {"type": "Point", "coordinates": [127.11586519552743, 37.507160190234394]}, "properties": {"name": "\uc0bc\ucc99\ud574\ubb3c \uc1a1\ud30c\uc810", "address": "\uc11c\uc6b8 \uc1a1\ud30c\uad6c \ubc31\uc81c\uace0\ubd84\ub85c46\uae38 41-12", "website": "http://place.map.daum.net/18450926", "phone": "", "source": "\uc1a1\ud30c\ub3d9 - \uc11d\ucd0c\uc5ed - \uc0bc\ucc99\ud574\ubb3c", "pid": "18450926"}}
  ,{"type": "Feature", "geometry": {"type": "Point", "coordinates": [126.963142562001, 37.5261150479484]}, "properties": {"name": "\ub300\uc2dd\uac00", "address": "\uc11c\uc6b8 \uc6a9\uc0b0\uad6c \ud55c\uac15\ub300\ub85c15\uae38 23", "website": "http://place.map.daum.net/26503366", "phone": "02-797-6009", "source": "\ud55c\uac15\ub85c3\uac00 - \uc6a9\uc0b0\uc5ed - \ub300\uc2dd\uac00", "pid": "26503366"}}
  ,{"type": "Feature", "geometry": {"type": "Point", "coordinates": [127.066758648777, 37.545242786241]}, "properties": {"name": "\ub3d9\ud574\ud574\ubb3c", "address": "\uc11c\uc6b8 \uad11\uc9c4\uad6c \ub3d9\uc77c\ub85c26\uae38 16", "website": "http://place.map.daum.net/12057498", "phone": "02-469-5843", "source": "\ud654\uc591\ub3d9 - \uac74\ub300\uc785\uad6c\uc5ed - \ub3d9\ud574\ud574\ubb3c", "pid": "12057498"}}
  ,{"type": "Feature", "geometry": {"type": "Point", "coordinates": [126.977096892251, 37.5598483969057]}, "properties": {"name": "\ud76c\ub77d\uac08\uce58", "address": "\uc11c\uc6b8 \uc911\uad6c \ub0a8\ub300\ubb38\uc2dc\uc7a5\uae38 22-6", "website": "http://place.map.daum.net/8670706", "phone": "02-755-3449", "source": "\ub0a8\ucc3d\ub3d9 - \ud68c\ud604\uc5ed - \ud76c\ub77d", "pid": "8670706"}}
  ,{"type": "Feature", "geometry": {"type": "Point", "coordinates": [126.976970098476, 37.5599528878874]}, "properties": {"name": "\uc655\uc131\uc2dd\ub2f9", "address": "\uc11c\uc6b8 \uc911\uad6c \ub0a8\ub300\ubb38\uc2dc\uc7a5\uae38 18-2", "website": "http://place.map.daum.net/10619983", "phone": "02-752-9476", "source": "\ub0a8\ucc3d\ub3d9 - \ud68c\ud604\uc5ed - \uc655\uc131\uc2dd\ub2f9", "pid": "10619983"}}
]}
