{
 "type": "FeatureCollection",
 "features": [
  {
   "type": "Feature",
   "geometry": {
    "type": "Point",
    "coordinates": [
     126.98775274833315,
     37.53935767244584
    ]
   },
   "properties": {
    "pid": "19851780",
    "name": "더부스 경리단점",
    "phone": "1544-4723",
    "source": "이태원동 - 녹사평역 - 더부스",
    "address": "서울 용산구 녹사평대로54길 7",
    "website": "http://place.map.daum.net/19851780",
    "category": "수제맥주, 맥주 맛있는 곳"
   }
  },
  {
   "type": "Feature",
   "geometry": {
    "type": "Point",
    "coordinates": [
     126.98747212667,
     37.5394297230164
    ]
   },
   "properties": {
    "pid": "21296575",
    "name": "맥파이 이태원점",
    "phone": "02-749-2703",
    "source": "이태원동 - 녹사평역 - 맥파이",
    "address": "서울 용산구 녹사평대로 244-1",
    "website": "http://place.map.daum.net/21296575",
    "category": "수제맥주, 맥주 맛있는 곳"
   }
  },
  {
   "type": "Feature",
   "geometry": {
    "type": "Point",
    "coordinates": [
     126.98710978262963,
     37.54097940397078
    ]
   },
   "properties": {
    "pid": "15616881",
    "name": "크래프트웍스 본점",
    "phone": "02-794-2537",
    "source": "이태원동 - 녹사평역 - 크래프트웍스",
    "address": "서울 용산구 신흥로 28",
    "website": "http://place.map.daum.net/15616881",
    "category": "수제맥주, 맥주 맛있는 곳"
   }
  },
  {
   "type": "Feature",
   "geometry": {
    "type": "Point",
    "coordinates": [
     126.990404906744,
     37.5397867937558
    ]
   },
   "properties": {
    "pid": "26935628",
    "name": "남산케미스트리",
    "phone": "02-797-2227",
    "source": "이태원동 - 녹사평역 - 남산케미스트리",
    "address": "서울 용산구 회나무로 33",
    "website": "http://place.map.daum.net/26935628",
    "category": "수제맥주, 맥주 맛있는 곳"
   }
  },
  {
   "type": "Feature",
   "geometry": {
    "type": "Point",
    "coordinates": [
     126.993980914162,
     37.5338476349154
    ]
   },
   "properties": {
    "pid": "27510174",
    "name": "더스프링스탭하우스 3호점",
    "phone": "",
    "source": "이태원동 - 녹사평역 - 더스프링스 탭 하우스",
    "address": "서울 용산구 보광로 125",
    "website": "http://place.map.daum.net/27510174",
    "category": "수제맥주, 맥주 맛있는 곳"
   }
  },
  {
   "type": "Feature",
   "geometry": {
    "type": "Point",
    "coordinates": [
     126.987209742241,
     37.5387179047753
    ]
   },
   "properties": {
    "pid": "2119021247",
    "name": "치즈윅",
    "phone": "",
    "source": "이태원동 - 녹사평역 - 치즈윅",
    "address": "서울 용산구 녹사평대로 236",
    "website": "http://place.map.daum.net/2119021247",
    "category": "수제맥주, 맥주 맛있는 곳"
   }
  },
  {
   "type": "Feature",
   "geometry": {
    "type": "Point",
    "coordinates": [
     126.986946813706,
     37.5411559820375
    ]
   },
   "properties": {
    "pid": "18489028",
    "name": "보니스피자펍",
    "phone": "02-792-0303",
    "source": "이태원동 - 녹사평역 - 보니스펍",
    "address": "서울 용산구 신흥로3길 2",
    "website": "http://place.map.daum.net/18489028",
    "category": "수제맥주, 맥주 맛있는 곳"
   }
  },
  {
   "type": "Feature",
   "geometry": {
    "type": "Point",
    "coordinates": [
     126.988224228724,
     37.5343950097517
    ]
   },
   "properties": {
    "pid": "27510661",
    "name": "지노스뉴욕피자",
    "phone": "02-792-2234",
    "source": "이태원동 - 녹사평역 - 지노스 피자",
    "address": "서울 용산구 녹사평대로40길 46",
    "website": "http://place.map.daum.net/27510661",
    "category": "수제맥주, 맥주 맛있는 곳"
   }
  },
  {
   "type": "Feature",
   "geometry": {
    "type": "Point",
    "coordinates": [
     126.992188661186,
     37.5348458389335
    ]
   },
   "properties": {
    "pid": "26330829",
    "name": "크래프트한스 이태원점",
    "phone": "",
    "source": "이태원동 - 이태원역 - 크래프트한스",
    "address": "서울 용산구 이태원로19길 6-5",
    "website": "http://place.map.daum.net/26330829",
    "category": "수제맥주, 맥주 맛있는 곳"
   }
  },
  {
   "type": "Feature",
   "geometry": {
    "type": "Point",
    "coordinates": [
     127.002330814525,
     37.5375707000497
    ]
   },
   "properties": {
    "pid": "26912981",
    "name": "밀2그램",
    "phone": "02-790-1145",
    "source": "이태원동 - 이태원역 - 밀2그램",
    "address": "서울 용산구 이태원로54길 16-1",
    "website": "http://place.map.daum.net/26912981",
    "category": "수제맥주, 맥주 맛있는 곳"
   }
  },
  {
   "type": "Feature",
   "geometry": {
    "type": "Point",
    "coordinates": [
     126.993664117428,
     37.5338800543781
    ]
   },
   "properties": {
    "pid": "22107868",
    "name": "리틀에일",
    "phone": "070-8635-0542",
    "source": "이태원동 - 이태원역 - 리틀에일",
    "address": "서울 용산구 보광로59길 5",
    "website": "http://place.map.daum.net/22107868",
    "category": "수제맥주, 맥주 맛있는 곳"
   }
  },
  {
   "type": "Feature",
   "geometry": {
    "type": "Point",
    "coordinates": [
     126.99289466897,
     37.5348422795186
    ]
   },
   "properties": {
    "pid": "13062768",
    "name": "브릭스 이태원점",
    "phone": "",
    "source": "이태원동 - 이태원역 - 브릭스",
    "address": "서울 용산구 이태원로27가길 43",
    "website": "http://place.map.daum.net/13062768",
    "category": "수제맥주, 맥주 맛있는 곳"
   }
  },
  {
   "type": "Feature",
   "geometry": {
    "type": "Point",
    "coordinates": [
     126.924931812841,
     37.5625189316533
    ]
   },
   "properties": {
    "pid": "26864918",
    "name": "빚짜 연남점",
    "phone": "02-337-1832",
    "source": "연남동 - 홍대입구역 - 빚짜",
    "address": "서울 마포구 동교로 256-4",
    "website": "http://place.map.daum.net/26864918",
    "category": "수제맥주, 맥주 맛있는 곳"
   }
  },
  {
   "type": "Feature",
   "geometry": {
    "type": "Point",
    "coordinates": [
     126.927014981344,
     37.5619219761768
    ]
   },
   "properties": {
    "pid": "20156353",
    "name": "크래프트원",
    "phone": "02-3144-7499",
    "source": "연남동 - 홍대입구역 - 크래프트원",
    "address": "서울 마포구 연희로 35",
    "website": "http://place.map.daum.net/20156353",
    "category": "수제맥주, 맥주 맛있는 곳"
   }
  },
  {
   "type": "Feature",
   "geometry": {
    "type": "Point",
    "coordinates": [
     126.927798222784,
     37.557215650323
    ]
   },
   "properties": {
    "pid": "685026175",
    "name": "야관문",
    "phone": "",
    "source": "연남동 - 홍대입구역 - 야관문",
    "address": "서울 마포구 신촌로4길 22-10",
    "website": "http://place.map.daum.net/685026175",
    "category": "수제맥주, 맥주 맛있는 곳"
   }
  },
  {
   "type": "Feature",
   "geometry": {
    "type": "Point",
    "coordinates": [
     126.914424887872,
     37.545738812527
    ]
   },
   "properties": {
    "pid": "26858886",
    "name": "크래머리 합정점",
    "phone": "070-4643-5429",
    "source": "합정동 - 합정역 - 크래머리",
    "address": "서울 마포구 토정로 31",
    "website": "http://place.map.daum.net/26858886",
    "category": "수제맥주, 맥주 맛있는 곳"
   }
  },
  {
   "type": "Feature",
   "geometry": {
    "type": "Point",
    "coordinates": [
     126.925712700295,
     37.5557619489477
    ]
   },
   "properties": {
    "pid": "17124616",
    "name": "펍원",
    "phone": "02-333-7138",
    "source": "서교동 - 홍대입구역 - 펍원",
    "address": "서울 마포구 어울마당로 136-13",
    "website": "http://place.map.daum.net/17124616",
    "category": "수제맥주, 맥주 맛있는 곳"
   }
  },
  {
   "type": "Feature",
   "geometry": {
    "type": "Point",
    "coordinates": [
     126.923005933353,
     37.5510209667501
    ]
   },
   "properties": {
    "pid": "18754656",
    "name": "몬스터피자 본점",
    "phone": "02-334-0322",
    "source": "서교동 - 홍대입구역 - 몬스터피자",
    "address": "서울 마포구 와우산로 73",
    "website": "http://place.map.daum.net/18754656",
    "category": "수제맥주, 맥주 맛있는 곳"
   }
  },
  {
   "type": "Feature",
   "geometry": {
    "type": "Point",
    "coordinates": [
     126.916788619514,
     37.5489300370565
    ]
   },
   "properties": {
    "pid": "21853452",
    "name": "발리슈퍼스토어",
    "phone": "02-323-7871",
    "source": "서교동 - 홍대입구역 - 발리슈퍼스토어",
    "address": "서울 마포구 양화로6길 45",
    "website": "http://place.map.daum.net/21853452",
    "category": "수제맥주, 맥주 맛있는 곳"
   }
  },
  {
   "type": "Feature",
   "geometry": {
    "type": "Point",
    "coordinates": [
     126.919806224104,
     37.5504205742129
    ]
   },
   "properties": {
    "pid": "26794320",
    "name": "더캐스크",
    "phone": "1644-7574",
    "source": "서교동 - 홍대입구역 - 더캐스크",
    "address": "서울 마포구 잔다리로3안길 27",
    "website": "http://place.map.daum.net/26794320",
    "category": "수제맥주, 맥주 맛있는 곳"
   }
  },
  {
   "type": "Feature",
   "geometry": {
    "type": "Point",
    "coordinates": [
     126.92307026966,
     37.5544880483969
    ]
   },
   "properties": {
    "pid": "21763513",
    "name": "플래티넘비어펍",
    "phone": "",
    "source": "서교동 - 홍대입구역 - 플래티넘 비어펍",
    "address": "서울 마포구 와우산로23길 35-9",
    "website": "http://place.map.daum.net/21763513",
    "category": "수제맥주, 맥주 맛있는 곳"
   }
  },
  {
   "type": "Feature",
   "geometry": {
    "type": "Point",
    "coordinates": [
     126.921174756733,
     37.5490051264055
    ]
   },
   "properties": {
    "pid": "27486393",
    "name": "바오밥",
    "phone": "02-322-2047",
    "source": "상수동 - 상수역 - 바오밥",
    "address": "서울 마포구 와우산로15길 40",
    "website": "http://place.map.daum.net/27486393",
    "category": "수제맥주, 맥주 맛있는 곳"
   }
  },
  {
   "type": "Feature",
   "geometry": {
    "type": "Point",
    "coordinates": [
     126.984265898638,
     37.5697353003011
    ]
   },
   "properties": {
    "pid": "16989223",
    "name": "더테이블",
    "phone": "02-733-8883",
    "source": "관철동 - 종각역 - 더 테이블",
    "address": "서울 종로구 우정국로2길 21",
    "website": "http://place.map.daum.net/16989223",
    "category": "수제맥주, 맥주 맛있는 곳"
   }
  },
  {
   "type": "Feature",
   "geometry": {
    "type": "Point",
    "coordinates": [
     126.97294764225,
     37.5788224842294
    ]
   },
   "properties": {
    "pid": "24654367",
    "name": "합스카치 광화문점",
    "phone": "02-722-0145",
    "source": "통의동 - 경복궁역 - 합스카치",
    "address": "서울 종로구 효자로7길 14-1",
    "website": "http://place.map.daum.net/24654367",
    "category": "수제맥주, 맥주 맛있는 곳"
   }
  },
  {
   "type": "Feature",
   "geometry": {
    "type": "Point",
    "coordinates": [
     126.981705503365,
     37.5786836112838
    ]
   },
   "properties": {
    "pid": "27117874",
    "name": "기와탭룸",
    "phone": "02-733-1825",
    "source": "소격동 - 안국역 - 기와탭룸",
    "address": "서울 종로구 율곡로1길 74-7",
    "website": "http://place.map.daum.net/27117874",
    "category": "수제맥주, 맥주 맛있는 곳"
   }
  },
  {
   "type": "Feature",
   "geometry": {
    "type": "Point",
    "coordinates": [
     126.999633184199,
     37.5828007678805
    ]
   },
   "properties": {
    "pid": "22016023",
    "name": "맥덕스",
    "phone": "070-8623-6397",
    "source": "명륜4가 - 혜화역 - 맥덕스",
    "address": "서울 종로구 대명길 39-5",
    "website": "http://place.map.daum.net/22016023",
    "category": "수제맥주, 맥주 맛있는 곳"
   }
  },
  {
   "type": "Feature",
   "geometry": {
    "type": "Point",
    "coordinates": [
     127.000520789247,
     37.5829989858595
    ]
   },
   "properties": {
    "pid": "25463398",
    "name": "독일주택",
    "phone": "02-742-1933",
    "source": "혜화동 - 혜화역 - 독일주택",
    "address": "서울 종로구 대명1길 16-4",
    "website": "http://place.map.daum.net/25463398",
    "category": "수제맥주, 맥주 맛있는 곳"
   }
  },
  {
   "type": "Feature",
   "geometry": {
    "type": "Point",
    "coordinates": [
     127.009802310779,
     37.5668815875452
    ]
   },
   "properties": {
    "pid": "1759958063",
    "name": "과르네리탭하우스 DDP점",
    "phone": "02-2153-0776",
    "source": "산림동 - 동대문역 - 과르네리 탭 하우스",
    "address": "서울 중구 을지로 281",
    "website": "http://place.map.daum.net/1759958063",
    "category": "수제맥주, 맥주 맛있는 곳"
   }
  },
  {
   "type": "Feature",
   "geometry": {
    "type": "Point",
    "coordinates": [
     127.03050446943,
     37.5825229249851
    ]
   },
   "properties": {
    "pid": "24307573",
    "name": "히든트랙 안암점",
    "phone": "070-8801-9744",
    "source": "제기동 - 안암역 - 히든트랙",
    "address": "서울 동대문구 약령시로 6",
    "website": "http://place.map.daum.net/24307573",
    "category": "수제맥주, 맥주 맛있는 곳"
   }
  },
  {
   "type": "Feature",
   "geometry": {
    "type": "Point",
    "coordinates": [
     127.009210632617,
     37.5049973081753
    ]
   },
   "properties": {
    "pid": "26330704",
    "name": "데블스도어 센트럴시티점",
    "phone": "02-6282-4466",
    "source": "반포동 - 고속터미널역 - 데블스도어",
    "address": "서울 서초구 사평대로 205",
    "website": "http://place.map.daum.net/26330704",
    "category": "수제맥주, 맥주 맛있는 곳"
   }
  },
  {
   "type": "Feature",
   "geometry": {
    "type": "Point",
    "coordinates": [
     126.997634202793,
     37.4988059314737
    ]
   },
   "properties": {
    "pid": "24712107",
    "name": "크래프트브로스",
    "phone": "02-537-7451",
    "source": "반포동 - 고속터미널역 - 크래프트 브로스",
    "address": "서울 서초구 사평대로22길 18",
    "website": "http://place.map.daum.net/24712107",
    "category": "수제맥주, 맥주 맛있는 곳"
   }
  },
  {
   "type": "Feature",
   "geometry": {
    "type": "Point",
    "coordinates": [
     126.998891753206,
     37.4978689033293
    ]
   },
   "properties": {
    "pid": "27504004",
    "name": "공방",
    "phone": "02-594-2018",
    "source": "반포동 - 고속터미널역 - 공방",
    "address": "서울 서초구 서래로6길 7",
    "website": "http://place.map.daum.net/27504004",
    "category": "수제맥주, 맥주 맛있는 곳"
   }
  },
  {
   "type": "Feature",
   "geometry": {
    "type": "Point",
    "coordinates": [
     126.982127929601,
     37.4784418257663
    ]
   },
   "properties": {
    "pid": "27020392",
    "name": "바이젠하우스 서울 방배1호점",
    "phone": "02-588-7782",
    "source": "방배동 - 방배역 - 바이젠 하우스",
    "address": "서울 서초구 동작대로 22",
    "website": "http://place.map.daum.net/27020392",
    "category": "수제맥주, 맥주 맛있는 곳"
   }
  },
  {
   "type": "Feature",
   "geometry": {
    "type": "Point",
    "coordinates": [
     127.023954514249,
     37.520831287047
    ]
   },
   "properties": {
    "pid": "26870097",
    "name": "미켈러바",
    "phone": "070-4231-4723",
    "source": "신사동 - 신사역 - 미켈러바",
    "address": "서울 강남구 도산대로17길 33",
    "website": "http://place.map.daum.net/26870097",
    "category": "수제맥주, 맥주 맛있는 곳"
   }
  },
  {
   "type": "Feature",
   "geometry": {
    "type": "Point",
    "coordinates": [
     127.022012963245,
     37.519490972363
    ]
   },
   "properties": {
    "pid": "25810535",
    "name": "가로수브루잉컴퍼니",
    "phone": "02-515-8962",
    "source": "신사동 - 신사역 - 브루잉컴퍼니",
    "address": "서울 강남구 도산대로11길 31-4",
    "website": "http://place.map.daum.net/25810535",
    "category": "수제맥주, 맥주 맛있는 곳"
   }
  },
  {
   "type": "Feature",
   "geometry": {
    "type": "Point",
    "coordinates": [
     127.021238989074,
     37.5186441710738
    ]
   },
   "properties": {
    "pid": "21624885",
    "name": "퐁당크래프트비어 컴퍼니",
    "phone": "02-6204-5513",
    "source": "신사동 - 신사역 - 퐁당",
    "address": "서울 강남구 압구정로2길 49",
    "website": "http://place.map.daum.net/21624885",
    "category": "수제맥주, 맥주 맛있는 곳"
   }
  },
  {
   "type": "Feature",
   "geometry": {
    "type": "Point",
    "coordinates": [
     127.020551085914,
     37.5181072948021
    ]
   },
   "properties": {
    "pid": "25539596",
    "name": "메이븐",
    "phone": "",
    "source": "신사동 - 신사역 - 메이븐",
    "address": "서울 강남구 강남대로156길 16",
    "website": "http://place.map.daum.net/25539596",
    "category": "수제맥주, 맥주 맛있는 곳"
   }
  },
  {
   "type": "Feature",
   "geometry": {
    "type": "Point",
    "coordinates": [
     127.040308397832,
     37.5228847282524
    ]
   },
   "properties": {
    "pid": "19952110",
    "name": "써스티몽크 청담점",
    "phone": "02-546-8389",
    "source": "청담동 - 강남구청역 - 써스티몽크",
    "address": "서울 강남구 도산대로56길 3",
    "website": "http://place.map.daum.net/19952110",
    "category": "수제맥주, 맥주 맛있는 곳"
   }
  },
  {
   "type": "Feature",
   "geometry": {
    "type": "Point",
    "coordinates": [
     127.109394590905,
     37.5129190998546
    ]
   },
   "properties": {
    "pid": "27391060",
    "name": "슈타인도르프",
    "phone": "02-422-9000",
    "source": "방이동 - 잠실역 - 슈타인도르프 브로이",
    "address": "서울 송파구 오금로15길 11",
    "website": "http://place.map.daum.net/27391060",
    "category": "수제맥주, 맥주 맛있는 곳"
   }
  },
  {
   "type": "Feature",
   "geometry": {
    "type": "Point",
    "coordinates": [
     126.919969124833,
     37.5504747446271
    ]
   },
   "properties": {
    "pid": "18622266",
    "name": "캐슬프라하 홍대점",
    "phone": "02-337-6644",
    "source": "서교동 - 홍대입구역 - 캐슬프라하",
    "address": "서울 마포구 독막로7길 59",
    "website": "http://place.map.daum.net/18622266",
    "category": "수제맥주, 맥주 맛있는 곳"
   }
  },
  {
   "type": "Feature",
   "geometry": {
    "type": "Point",
    "coordinates": [
     127.049366963229,
     37.5428510757593
    ]
   },
   "properties": {
    "pid": "27474832",
    "name": "어메이징브루잉컴퍼니 성수브루펍",
    "phone": "02-465-5208",
    "source": "성수동 - 성수역 - 어메이징 브루잉 컴퍼니",
    "address": "서울 성동구 성수일로4길 4",
    "website": "http://place.map.daum.net/27474832",
    "category": "수제맥주, 맥주 맛있는 곳"
   }
  },
  {
   "type": "Feature",
   "geometry": {
    "type": "Point",
    "coordinates": [
     127.044948005065,
     37.510326668722
    ]
   },
   "properties": {
    "pid": "1363561784",
    "name": "코퍼룸",
    "phone": "02-6202-2078",
    "source": "삼성동 - 선정릉역 - 코퍼룸",
    "address": "서울 강남구 봉은사로 410",
    "website": "http://place.map.daum.net/1363561784",
    "category": "수제맥주, 맥주 맛있는 곳"
   }
  },
  {
   "type": "Feature",
   "geometry": {
    "type": "Point",
    "coordinates": [
     127.03146404849,
     37.4844324994983
    ]
   },
   "properties": {
    "pid": "18984288",
    "name": "크롬바커 양재점",
    "phone": "02-585-2471",
    "source": "역삼동 - 강남역 - 크롬바커하우스",
    "address": "서울 서초구 남부순환로 2567",
    "website": "http://place.map.daum.net/18984288",
    "category": "수제맥주, 맥주 맛있는 곳"
   }
  },
  {
   "type": "Feature",
   "geometry": {
    "type": "Point",
    "coordinates": [
     126.993460426612,
     37.5343089197076
    ]
   },
   "properties": {
    "pid": "11363028",
    "name": "서울펍",
    "phone": "",
    "source": "이태원동 - 이태원역 - 서울펍",
    "address": "서울 용산구 이태원로 176",
    "website": "http://place.map.daum.net/11363028",
    "category": "수제맥주, 맥주 맛있는 곳"
   }
  },
  {
   "type": "Feature",
   "geometry": {
    "type": "Point",
    "coordinates": [
     126.993822502898,
     37.5340206189148
    ]
   },
   "properties": {
    "pid": "16849964",
    "name": "JR PUB",
    "phone": "02-793-3567",
    "source": "이태원동 - 이태원역 - JR펍",
    "address": "서울 용산구 보광로 127",
    "website": "http://place.map.daum.net/16849964",
    "category": "수제맥주, 맥주 맛있는 곳"
   }
  },
  {
   "type": "Feature",
   "geometry": {
    "type": "Point",
    "coordinates": [
     126.953768330852,
     37.479010778709
    ]
   },
   "properties": {
    "pid": "690549119",
    "name": "밀형제양조장",
    "phone": "02-6052-3335",
    "source": "봉천동 - 서울대입구역 - 밀형제양조장",
    "address": "서울 관악구 관악로14길 22",
    "website": "http://place.map.daum.net/690549119",
    "category": "수제맥주, 맥주 맛있는 곳"
   }
  },
  {
   "type": "Feature",
   "geometry": {
    "type": "Point",
    "coordinates": [
     127.082060003017,
     37.6216986282432
    ]
   },
   "properties": {
    "pid": "16999919",
    "name": "바네하임",
    "phone": "02-948-8003",
    "source": "공릉동 - 공릉역 - 바네하임",
    "address": "서울 노원구 공릉로32길 54",
    "website": "http://place.map.daum.net/16999919",
    "category": "수제맥주, 맥주 맛있는 곳"
   }
  },
  {
   "type": "Feature",
   "geometry": {
    "type": "Point",
    "coordinates": [
     127.064558717578,
     37.6394553213408
    ]
   },
   "properties": {
    "pid": "27306245",
    "name": "비어탭세븐",
    "phone": "02-976-6003",
    "source": "하계동 - 하계역 - 비어탭세븐",
    "address": "서울 노원구 동일로203가길 29",
    "website": "http://place.map.daum.net/27306245",
    "category": "수제맥주, 맥주 맛있는 곳"
   }
  },
  {
   "type": "Feature",
   "geometry": {
    "type": "Point",
    "coordinates": [
     126.981369016057,
     37.4750971606606
    ]
   },
   "properties": {
    "pid": "25161579",
    "name": "브롱스 사당본점",
    "phone": "02-522-1206",
    "source": "남현동 - 사당역 - 브롱스",
    "address": "서울 관악구 과천대로 947",
    "website": "http://place.map.daum.net/25161579",
    "category": "수제맥주, 맥주 맛있는 곳"
   }
  },
  {
   "type": "Feature",
   "geometry": {
    "type": "Point",
    "coordinates": [
     126.98047352408496,
     37.57104901586957
    ]
   },
   "properties": {
    "pid": "8026072",
    "name": "옥토버훼스트 종로점",
    "phone": "02-738-8881",
    "source": "청진동 - 광화문역 - 옥토버 훼스트",
    "address": "서울 종로구 종로5길 13",
    "website": "http://place.map.daum.net/8026072",
    "category": "수제맥주, 맥주 맛있는 곳"
   }
  },
  {
   "type": "Feature",
   "geometry": {
    "type": "Point",
    "coordinates": [
     127.02717606830697,
     37.570195754050445
    ]
   },
   "properties": {
    "pid": "26826009",
    "name": "청계브로이 왕십리점",
    "phone": "",
    "source": "하왕십리 - 상왕십리역 - 청계브로이",
    "address": "서울 성동구 청계천로 452",
    "website": "http://place.map.daum.net/26826009",
    "category": "수제맥주, 맥주 맛있는 곳"
   }
  },
  {
   "type": "Feature",
   "geometry": {
    "type": "Point",
    "coordinates": [
     126.9814591842304,
     37.567633771113854
    ]
   },
   "properties": {
    "pid": "406136454",
    "name": "비어할레 을지점",
    "phone": "02-777-7051",
    "source": "다동 - 을지로입구역 - 비어할레",
    "address": "서울 중구 을지로3길 34",
    "website": "http://place.map.daum.net/406136454",
    "category": "수제맥주, 맥주 맛있는 곳"
   }
  },
  {
   "type": "Feature",
   "geometry": {
    "type": "Point",
    "coordinates": [
     127.051552953127,
     37.5031735950527
    ]
   },
   "properties": {
    "pid": "23780221",
    "name": "미쓰양꼬치",
    "phone": "02-562-9233",
    "source": "대치동 - 선릉역 - 미쓰양꼬치",
    "address": "서울 강남구 테헤란로64길 26",
    "website": "http://place.map.daum.net/23780221",
    "category": "수제맥주, 맥주 맛있는 곳"
   }
  },
  {
   "type": "Feature",
   "geometry": {
    "type": "Point",
    "coordinates": [
     126.989449703698,
     37.5734551854309
    ]
   },
   "properties": {
    "pid": "27184056",
    "name": "거북이슈퍼",
    "phone": "010-8819-8826",
    "source": "익선동 - 종로3가역 - 거북이슈퍼",
    "address": "서울 종로구 수표로28길 17-25",
    "website": "http://place.map.daum.net/27184056",
    "category": "수제맥주, 맥주 맛있는 곳"
   }
  },
  {
   "type": "Feature",
   "geometry": {
    "type": "Point",
    "coordinates": [
     128.591720847217,
     35.8684720794921
    ]
   },
   "properties": {
    "pid": "27403351",
    "name": "브루어스브라더스",
    "phone": "070-7645-0699",
    "source": "브루어스 브라더스 - 대구",
    "address": "대구 중구 종로 29",
    "website": "http://place.map.daum.net/27403351",
    "category": "수제맥주, 맥주 맛있는 곳"
   }
  },
  {
   "type": "Feature",
   "geometry": {
    "type": "Point",
    "coordinates": [
     129.112671880651,
     35.1475252187739
    ]
   },
   "properties": {
    "pid": "24120157",
    "name": "갈매기브루잉",
    "phone": "070-7677-9658",
    "source": "갈매기 브루잉 - 부산",
    "address": "부산 수영구 광남로 58",
    "website": "http://place.map.daum.net/24120157",
    "category": "수제맥주, 맥주 맛있는 곳"
   }
  },
  {
   "type": "Feature",
   "geometry": {
    "type": "Point",
    "coordinates": [
     129.123281561341,
     35.1558087013475
    ]
   },
   "properties": {
    "pid": "1572174225",
    "name": "와일드웨이브 광안본점",
    "phone": "",
    "source": "와일드웨이브 - 부산",
    "address": "부산 수영구 광안해변로 271",
    "website": "http://place.map.daum.net/1572174225",
    "category": "수제맥주, 맥주 맛있는 곳"
   }
  },
  {
   "type": "Feature",
   "geometry": {
    "type": "Point",
    "coordinates": [
     129.116068687195,
     35.152609697119
    ]
   },
   "properties": {
    "pid": "27532253",
    "name": "고릴라브루잉",
    "phone": "051-714-6258",
    "source": "고릴라 브루잉 - 부산",
    "address": "부산 수영구 광남로 125",
    "website": "http://place.map.daum.net/27532253",
    "category": "수제맥주, 맥주 맛있는 곳"
   }
  },
  {
   "type": "Feature",
   "geometry": {
    "type": "Point",
    "coordinates": [
     129.141357508523,
     35.6049913338957
    ]
   },
   "properties": {
    "pid": "1877850328",
    "name": "트레비어",
    "phone": "052-225-1111",
    "source": "트레비어 - 울산",
    "address": "울산 울주군 언양읍 반구대로 1305-2",
    "website": "http://place.map.daum.net/1877850328",
    "category": "수제맥주, 맥주 맛있는 곳"
   }
  }
 ]
}