{
 "type": "FeatureCollection",
 "features": [
  {
   "type": "Feature",
   "geometry": {
    "type": "Point",
    "coordinates": [
     126.848844341349,
     37.5471579201494
    ]
   },
   "properties": {
    "pid": "16330638",
    "name": "황해도사골순대국",
    "phone": "02-2601-6309",
    "source": "화곡동 - 화곡역 - 황해도 순대국",
    "address": "서울 강서구 까치산로 100-1",
    "website": "http://place.map.daum.net/16330638",
    "category": "순대"
   }
  },
  {
   "type": "Feature",
   "geometry": {
    "type": "Point",
    "coordinates": [
     126.931535993335,
     37.5193254164282
    ]
   },
   "properties": {
    "pid": "21423297",
    "name": "화목순대국",
    "phone": "02-780-8191",
    "source": "여의도동 - 샛강역 - 화목순대국",
    "address": "서울 영등포구 여의대방로 383",
    "website": "http://place.map.daum.net/21423297",
    "category": "순대"
   }
  },
  {
   "type": "Feature",
   "geometry": {
    "type": "Point",
    "coordinates": [
     126.921557198639,
     37.5296122593619
    ]
   },
   "properties": {
    "pid": "16908087",
    "name": "함경진순대",
    "phone": "02-783-9395",
    "source": "여의도동 - 샛강역 - 함경진순대",
    "address": "서울 영등포구 국회대로74길 20",
    "website": "http://place.map.daum.net/16908087",
    "category": "순대"
   }
  },
  {
   "type": "Feature",
   "geometry": {
    "type": "Point",
    "coordinates": [
     126.936354907546,
     37.5565358148639
    ]
   },
   "properties": {
    "pid": "19950900",
    "name": "구월산",
    "phone": "02-336-2069",
    "source": "창천동 - 신촌역 - 구월산",
    "address": "서울 서대문구 신촌로 87-22",
    "website": "http://place.map.daum.net/19950900",
    "category": "순대"
   }
  },
  {
   "type": "Feature",
   "geometry": {
    "type": "Point",
    "coordinates": [
     126.92407888974589,
     37.56087133857872
    ]
   },
   "properties": {
    "pid": "26838040",
    "name": "홍반장신의주찹쌀순대감자탕",
    "phone": "",
    "source": "연남동 - 홍대입구역 - 연남순대국",
    "address": "서울 마포구 동교로 233",
    "website": "http://place.map.daum.net/26838040",
    "category": "순대"
   }
  },
  {
   "type": "Feature",
   "geometry": {
    "type": "Point",
    "coordinates": [
     126.914918857321,
     37.5491954001353
    ]
   },
   "properties": {
    "pid": "16045153",
    "name": "합정순대국",
    "phone": "02-325-3939",
    "source": "합정동 - 합정역 - 합정순대국",
    "address": "서울 마포구 양화로6길 14",
    "website": "http://place.map.daum.net/16045153",
    "category": "순대"
   }
  },
  {
   "type": "Feature",
   "geometry": {
    "type": "Point",
    "coordinates": [
     126.931064584868,
     37.5693882602416
    ]
   },
   "properties": {
    "pid": "7885867",
    "name": "백암왕순대 연희동본점",
    "phone": "02-337-7894",
    "source": "연희동 - 홍대입구역 - 백암왕순대",
    "address": "서울 서대문구 증가로 13-6",
    "website": "http://place.map.daum.net/7885867",
    "category": "순대"
   }
  },
  {
   "type": "Feature",
   "geometry": {
    "type": "Point",
    "coordinates": [
     126.91708649794,
     37.5905634334003
    ]
   },
   "properties": {
    "pid": "20127558",
    "name": "개성 찹쌀순대해장국",
    "phone": "02-374-7050",
    "source": "응암동 - 새절역 - 개성찹쌀순대해장국",
    "address": "서울 은평구 응암로 207",
    "website": "http://place.map.daum.net/20127558",
    "category": "순대"
   }
  },
  {
   "type": "Feature",
   "geometry": {
    "type": "Point",
    "coordinates": [
     126.928127516728,
     37.6102591189726
    ]
   },
   "properties": {
    "pid": "11829911",
    "name": "삼오옛날순대국",
    "phone": "02-387-2605",
    "source": "대조동 - 불광역 - 삼오순대국",
    "address": "서울 은평구 불광로1길 2",
    "website": "http://place.map.daum.net/11829911",
    "category": "순대"
   }
  },
  {
   "type": "Feature",
   "geometry": {
    "type": "Point",
    "coordinates": [
     126.99532758358,
     37.5653790406748
    ]
   },
   "properties": {
    "pid": "27072121",
    "name": "산수갑산",
    "phone": "02-2275-6654",
    "source": "인현동 - 충무로역 - 산수갑산",
    "address": "서울 중구 을지로20길 24",
    "website": "http://place.map.daum.net/27072121",
    "category": "순대"
   }
  },
  {
   "type": "Feature",
   "geometry": {
    "type": "Point",
    "coordinates": [
     127.027898894042,
     37.5781123038498
    ]
   },
   "properties": {
    "pid": "14881605",
    "name": "와가리피순대 본점",
    "phone": "02-927-5477",
    "source": "용두동 - 신설동역 - 와가리 피순대",
    "address": "서울 동대문구 왕산로9길 22",
    "website": "http://place.map.daum.net/14881605",
    "category": "순대"
   }
  },
  {
   "type": "Feature",
   "geometry": {
    "type": "Point",
    "coordinates": [
     126.907226982355,
     37.4917380718654
    ]
   },
   "properties": {
    "pid": "9125675",
    "name": "삼거리먼지막순대국",
    "phone": "02-848-2469",
    "source": "대림동 - 신대방역 - 삼거리 먼지막순대국",
    "address": "서울 영등포구 시흥대로185길 11",
    "website": "http://place.map.daum.net/9125675",
    "category": "순대"
   }
  },
  {
   "type": "Feature",
   "geometry": {
    "type": "Point",
    "coordinates": [
     126.903150847561,
     37.4538347181964
    ]
   },
   "properties": {
    "pid": "23210619",
    "name": "우리집 순대국",
    "phone": "02-802-6179",
    "source": "시흥동 - 금천구청역 - 우리집순대국",
    "address": "서울 금천구 금하로 650",
    "website": "http://place.map.daum.net/23210619",
    "category": "순대"
   }
  },
  {
   "type": "Feature",
   "geometry": {
    "type": "Point",
    "coordinates": [
     126.90901512137772,
     37.49994250035086
    ]
   },
   "properties": {
    "pid": "20541843",
    "name": "순대국전문",
    "phone": "",
    "source": "신길동 - 신풍역 - 순대국전문",
    "address": "서울 영등포구 신풍로 28",
    "website": "http://place.map.daum.net/20541843",
    "category": "순대"
   }
  },
  {
   "type": "Feature",
   "geometry": {
    "type": "Point",
    "coordinates": [
     126.899788313795,
     37.4666803436556
    ]
   },
   "properties": {
    "pid": "20535260",
    "name": "옛날순대국집",
    "phone": "02-830-4578",
    "source": "독산동 - 독산역 - 옛날 순대국",
    "address": "서울 금천구 범안로 1241",
    "website": "http://place.map.daum.net/20535260",
    "category": "순대"
   }
  },
  {
   "type": "Feature",
   "geometry": {
    "type": "Point",
    "coordinates": [
     127.040717707874,
     37.468362868286
    ]
   },
   "properties": {
    "pid": "24878935",
    "name": "24시찹쌀순대",
    "phone": "02-2058-2038",
    "source": "양재동 - 양재역 - 찹쌀순대만드는집",
    "address": "서울 서초구 강남대로10길 19",
    "website": "http://place.map.daum.net/24878935",
    "category": "순대"
   }
  },
  {
   "type": "Feature",
   "geometry": {
    "type": "Point",
    "coordinates": [
     127.033465168523,
     37.4891640442037
    ]
   },
   "properties": {
    "pid": "11139515",
    "name": "서초남순남순대국",
    "phone": "02-574-3227",
    "source": "도곡동 - 양재역, 강남역 - 남순남 순대국",
    "address": "서울 강남구 도곡로4길 12",
    "website": "http://place.map.daum.net/11139515",
    "category": "순대"
   }
  },
  {
   "type": "Feature",
   "geometry": {
    "type": "Point",
    "coordinates": [
     127.055922524457,
     37.5087073826763
    ]
   },
   "properties": {
    "pid": "7881618",
    "name": "박서방순대국밥 삼성본점",
    "phone": "02-568-9205",
    "source": "삼성동 - 삼성역 - 박서방 순대국",
    "address": "서울 강남구 삼성로 520",
    "website": "http://place.map.daum.net/7881618",
    "category": "순대"
   }
  },
  {
   "type": "Feature",
   "geometry": {
    "type": "Point",
    "coordinates": [
     127.009083003846,
     37.6089724187708
    ]
   },
   "properties": {
    "pid": "16501643",
    "name": "기차순대국",
    "phone": "02-914-9316",
    "source": "정릉동 - 길음역 - 기차순댓국",
    "address": "서울 성북구 보국문로11길 18-6",
    "website": "http://place.map.daum.net/16501643",
    "category": "순대"
   }
  },
  {
   "type": "Feature",
   "geometry": {
    "type": "Point",
    "coordinates": [
     127.038901878331,
     37.6026810511621
    ]
   },
   "properties": {
    "pid": "20522473",
    "name": "송천순대국 본점",
    "phone": "02-919-2868",
    "source": "하월곡동 - 월곡역 - 송천순대국",
    "address": "서울 성북구 화랑로 59",
    "website": "http://place.map.daum.net/20522473",
    "category": "순대"
   }
  },
  {
   "type": "Feature",
   "geometry": {
    "type": "Point",
    "coordinates": [
     126.968287194687,
     37.559294949155
    ]
   },
   "properties": {
    "pid": "14686414",
    "name": "황성집",
    "phone": "02-392-6926",
    "source": "중림동 - 충정로역 - 황성집",
    "address": "서울 중구 청파로 447-15",
    "website": "http://place.map.daum.net/14686414",
    "category": "순대"
   }
  },
  {
   "type": "Feature",
   "geometry": {
    "type": "Point",
    "coordinates": [
     126.973561281357,
     37.5594728433782
    ]
   },
   "properties": {
    "pid": "21396770",
    "name": "철산집",
    "phone": "02-0755-9367",
    "source": "회현동 - 회현역 - 철산집",
    "address": "서울 중구 칠패로 42",
    "website": "http://place.map.daum.net/21396770",
    "category": "순대"
   }
  },
  {
   "type": "Feature",
   "geometry": {
    "type": "Point",
    "coordinates": [
     126.97458084020062,
     37.553362502415695
    ]
   },
   "properties": {
    "pid": "17375524",
    "name": "어멈순대 본점",
    "phone": "02-755-6100",
    "source": "동자동 - 서울역 - 어멈순대",
    "address": "서울 용산구 후암로 97-2",
    "website": "http://place.map.daum.net/17375524",
    "category": "순대"
   }
  },
  {
   "type": "Feature",
   "geometry": {
    "type": "Point",
    "coordinates": [
     127.015811218167,
     37.5918312609669
    ]
   },
   "properties": {
    "pid": "21367852",
    "name": "돈암순대김밥",
    "phone": "02-922-9210",
    "source": "동소문동 - 성신여대입구역 - 돈암순대김밥",
    "address": "서울 성북구 동소문로18길 12",
    "website": "http://place.map.daum.net/21367852",
    "category": "순대"
   }
  },
  {
   "type": "Feature",
   "geometry": {
    "type": "Point",
    "coordinates": [
     127.044242978112,
     37.5805255774179
    ]
   },
   "properties": {
    "pid": "8658534",
    "name": "고향집",
    "phone": "02-964-8844",
    "source": "청량리동 - 청량리역 - 고향집",
    "address": "서울 동대문구 왕산로37길 12",
    "website": "http://place.map.daum.net/8658534",
    "category": "순대"
   }
  },
  {
   "type": "Feature",
   "geometry": {
    "type": "Point",
    "coordinates": [
     127.942229572633,
     36.9822276570118
    ]
   },
   "properties": {
    "pid": "27124563",
    "name": "개성집",
    "phone": "043-855-9211",
    "source": "용두동 - 신설동역 - 개성집",
    "address": "충북 충주시 계명대로 248-1",
    "website": "http://place.map.daum.net/27124563",
    "category": "순대"
   }
  },
  {
   "type": "Feature",
   "geometry": {
    "type": "Point",
    "coordinates": [
     127.100624459078,
     37.5990261893991
    ]
   },
   "properties": {
    "pid": "16474900",
    "name": "대가가마솥순대국",
    "phone": "02-437-8494",
    "source": "망우동 - 망우역 - 대가순대국",
    "address": "서울 중랑구 용마산로 538",
    "website": "http://place.map.daum.net/16474900",
    "category": "순대"
   }
  },
  {
   "type": "Feature",
   "geometry": {
    "type": "Point",
    "coordinates": [
     127.069133709311,
     37.5389812749835
    ]
   },
   "properties": {
    "pid": "17101239",
    "name": "고흥순대국 본관",
    "phone": "02-497-7876",
    "source": "자양동 - 건대입구역 - 고흥순대국",
    "address": "서울 광진구 아차산로34길 26",
    "website": "http://place.map.daum.net/17101239",
    "category": "순대"
   }
  },
  {
   "type": "Feature",
   "geometry": {
    "type": "Point",
    "coordinates": [
     127.046721762172,
     37.5470327881516
    ]
   },
   "properties": {
    "pid": "16529354",
    "name": "먹거리집",
    "phone": "02-465-4204",
    "source": "성수동 - 뚝섬역 - 먹거리집",
    "address": "서울 성동구 왕십리로4길 26-7",
    "website": "http://place.map.daum.net/16529354",
    "category": "순대"
   }
  },
  {
   "type": "Feature",
   "geometry": {
    "type": "Point",
    "coordinates": [
     127.005996375459,
     37.5328204949003
    ]
   },
   "properties": {
    "pid": "17363274",
    "name": "용가마순대와장어 한남점",
    "phone": "02-798-1004",
    "source": "한남동 - 한남역 - 용가마순대",
    "address": "서울 용산구 대사관로34길 10",
    "website": "http://place.map.daum.net/17363274",
    "category": "순대"
   }
  },
  {
   "type": "Feature",
   "geometry": {
    "type": "Point",
    "coordinates": [
     126.90748815166,
     37.558646682726
    ]
   },
   "properties": {
    "pid": "16931682",
    "name": "순대일번지",
    "phone": "02-334-9210",
    "source": "망원동 - 마포구청역 - 순대일번지",
    "address": "서울 마포구 월드컵로 117",
    "website": "http://place.map.daum.net/16931682",
    "category": "순대"
   }
  },
  {
   "type": "Feature",
   "geometry": {
    "type": "Point",
    "coordinates": [
     127.00331915146441,
     37.575927939664254
    ]
   },
   "properties": {
    "pid": "15292047",
    "name": "왕십리순대국",
    "phone": "02-3672-1133",
    "source": "이화동 - 혜화역, 동대문역 - 왕십리순대국",
    "address": "서울 종로구 율곡로 220-1",
    "website": "http://place.map.daum.net/15292047",
    "category": "순대"
   }
  },
  {
   "type": "Feature",
   "geometry": {
    "type": "Point",
    "coordinates": [
     126.962342190313,
     37.5699465816414
    ]
   },
   "properties": {
    "pid": "16499325",
    "name": "석교식당",
    "phone": "02-363-2803",
    "source": "영천동 - 서대문역 - 석교식당",
    "address": "서울 서대문구 통일로 183-1",
    "website": "http://place.map.daum.net/16499325",
    "category": "순대"
   }
  },
  {
   "type": "Feature",
   "geometry": {
    "type": "Point",
    "coordinates": [
     126.992868894877,
     37.5678656665454
    ]
   },
   "properties": {
    "pid": "27547817",
    "name": "쌍벌식당",
    "phone": "02-2275-6660",
    "source": "입정동 - 을지로 3가 - 쌍벌식당",
    "address": "서울 중구 충무로14길 6-1",
    "website": "http://place.map.daum.net/27547817",
    "category": "순대"
   }
  },
  {
   "type": "Feature",
   "geometry": {
    "type": "Point",
    "coordinates": [
     126.999827942791,
     37.5701039547957
    ]
   },
   "properties": {
    "pid": "13280047",
    "name": "할머니집순대",
    "phone": "02-2274-1332",
    "source": "예지동 - 종로 5가역 - 광장시장 할머니 순대",
    "address": "서울 종로구 동호로 403-14",
    "website": "http://place.map.daum.net/13280047",
    "category": "순대"
   }
  },
  {
   "type": "Feature",
   "geometry": {
    "type": "Point",
    "coordinates": [
     126.989146348574,
     37.5733001868081
    ]
   },
   "properties": {
    "pid": "27269590",
    "name": "호반",
    "phone": "02-738-9393",
    "source": "낙원동 - 종로 3가역 - 호반",
    "address": "서울 종로구 삼일대로26길 20",
    "website": "http://place.map.daum.net/27269590",
    "category": "순대"
   }
  },
  {
   "type": "Feature",
   "geometry": {
    "type": "Point",
    "coordinates": [
     126.89158765770651,
     37.5157275324236
    ]
   },
   "properties": {
    "pid": "24040605",
    "name": "오복순대국",
    "phone": "02-2677-4183",
    "source": "문래동 - 문래역, 신도림역 - 오복순대국",
    "address": "서울 영등포구 도림로 465",
    "website": "http://place.map.daum.net/24040605",
    "category": "순대"
   }
  },
  {
   "type": "Feature",
   "geometry": {
    "type": "Point",
    "coordinates": [
     126.900595337741,
     37.5332797680754
    ]
   },
   "properties": {
    "pid": "26946331",
    "name": "김둘레순대국",
    "phone": "02-2677-6639",
    "source": "당산동 - 당산역 - 김둘레순대국",
    "address": "서울 영등포구 당산로45길 1",
    "website": "http://place.map.daum.net/26946331",
    "category": "순대"
   }
  },
  {
   "type": "Feature",
   "geometry": {
    "type": "Point",
    "coordinates": [
     126.962690707339,
     37.5066099807047
    ]
   },
   "properties": {
    "pid": "12439395",
    "name": "진미순대",
    "phone": "02-812-0539",
    "source": "흑석동 - 흑석역 - 진미순대",
    "address": "서울 동작구 서달로12가길 5",
    "website": "http://place.map.daum.net/12439395",
    "category": "순대"
   }
  },
  {
   "type": "Feature",
   "geometry": {
    "type": "Point",
    "coordinates": [
     126.979597352029,
     37.4880786046359
    ]
   },
   "properties": {
    "pid": "27283357",
    "name": "백암집",
    "phone": "02-599-6899",
    "source": "사당동 - 이수역 - 백암집",
    "address": "서울 동작구 동작대로27길 50",
    "website": "http://place.map.daum.net/27283357",
    "category": "순대"
   }
  },
  {
   "type": "Feature",
   "geometry": {
    "type": "Point",
    "coordinates": [
     126.981940226807,
     37.4879528448853
    ]
   },
   "properties": {
    "pid": "12519099",
    "name": "남성집",
    "phone": "02-599-1175",
    "source": "사당동 - 이수역 - 남성집",
    "address": "서울 동작구 동작대로 127",
    "website": "http://place.map.daum.net/12519099",
    "category": "순대"
   }
  },
  {
   "type": "Feature",
   "geometry": {
    "type": "Point",
    "coordinates": [
     126.992623252348,
     37.4876044037981
    ]
   },
   "properties": {
    "pid": "16734525",
    "name": "큰집가마솥순대국 방배동내방역본점",
    "phone": "02-596-8349",
    "source": "방배동 - 내방역 - 큰집 가마솥 순대국",
    "address": "서울 서초구 서초대로 95",
    "website": "http://place.map.daum.net/16734525",
    "category": "순대"
   }
  },
  {
   "type": "Feature",
   "geometry": {
    "type": "Point",
    "coordinates": [
     126.973562819324,
     37.5423034197768
    ]
   },
   "properties": {
    "pid": "762911769",
    "name": "제일어버이순대",
    "phone": "02-798-0480",
    "source": "남영동 - 삼각지역 - 제일 어버이순대",
    "address": "서울 용산구 한강대로76길 11-31",
    "website": "http://place.map.daum.net/762911769",
    "category": "순대"
   }
  },
  {
   "type": "Feature",
   "geometry": {
    "type": "Point",
    "coordinates": [
     127.044955623251,
     37.5230272112046
    ]
   },
   "properties": {
    "pid": "15568364",
    "name": "청담순대국",
    "phone": "02-511-8244",
    "source": "청담동 - 청담역 - 청담순대국",
    "address": "서울 강남구 삼성로149길 31",
    "website": "http://place.map.daum.net/15568364",
    "category": "순대"
   }
  },
  {
   "type": "Feature",
   "geometry": {
    "type": "Point",
    "coordinates": [
     127.023462361606,
     37.5097490394916
    ]
   },
   "properties": {
    "pid": "16417279",
    "name": "고흥집",
    "phone": "02-546-2082",
    "source": "논현동 - 논현역 - 고흥집",
    "address": "서울 강남구 학동로4길 28",
    "website": "http://place.map.daum.net/16417279",
    "category": "순대"
   }
  },
  {
   "type": "Feature",
   "geometry": {
    "type": "Point",
    "coordinates": [
     127.0258988076,
     37.503719004475
    ]
   },
   "properties": {
    "pid": "16301504",
    "name": "평안도찹쌀순대 강남직영점",
    "phone": "02-508-2357",
    "source": "역삼동 - 강남역 - 평안도 찹쌀 순대",
    "address": "서울 강남구 봉은사로2길 13",
    "website": "http://place.map.daum.net/16301504",
    "category": "순대"
   }
  },
  {
   "type": "Feature",
   "geometry": {
    "type": "Point",
    "coordinates": [
     127.03975106892,
     37.4787896863926
    ]
   },
   "properties": {
    "pid": "17363119",
    "name": "한국순대 본점",
    "phone": "02-573-3550",
    "source": "양재동 - 양재역 - 한국순대",
    "address": "서울 서초구 바우뫼로35길 4",
    "website": "http://place.map.daum.net/17363119",
    "category": "순대"
   }
  },
  {
   "type": "Feature",
   "geometry": {
    "type": "Point",
    "coordinates": [
     127.054268000314,
     37.5042535855177
    ]
   },
   "properties": {
    "pid": "16905999",
    "name": "황해도찹쌀순대",
    "phone": "",
    "source": "대치동 - 선릉역 - 황해도 찹쌀순대",
    "address": "서울 강남구 삼성로85길 39",
    "website": "http://place.map.daum.net/16905999",
    "category": "순대"
   }
  },
  {
   "type": "Feature",
   "geometry": {
    "type": "Point",
    "coordinates": [
     127.021193754208,
     37.5186874273555
    ]
   },
   "properties": {
    "pid": "16587015",
    "name": "원조옛날순대전문점",
    "phone": "02-540-2266",
    "source": "신사동 - 신사역 - 원조 옛날 순대 전문점",
    "address": "서울 강남구 압구정로2길 49",
    "website": "http://place.map.daum.net/16587015",
    "category": "순대"
   }
  },
  {
   "type": "Feature",
   "geometry": {
    "type": "Point",
    "coordinates": [
     126.927836633278,
     37.4797618423074
    ]
   },
   "properties": {
    "pid": "27224915",
    "name": "국강순대 신림점",
    "phone": "02-865-5322",
    "source": "신림동 - 신림역 - 국강순대",
    "address": "서울 관악구 신원로 5",
    "website": "http://place.map.daum.net/27224915",
    "category": "순대"
   }
  },
  {
   "type": "Feature",
   "geometry": {
    "type": "Point",
    "coordinates": [
     126.920911848468,
     37.4979145153724
    ]
   },
   "properties": {
    "pid": "27454501",
    "name": "서일순대국",
    "phone": "02-821-3468",
    "source": "신대방동 - 보라매역 - 서일순대국",
    "address": "서울 동작구 여의대방로24길 10-4",
    "website": "http://place.map.daum.net/27454501",
    "category": "순대"
   }
  },
  {
   "type": "Feature",
   "geometry": {
    "type": "Point",
    "coordinates": [
     127.125418933144,
     37.509648746214
    ]
   },
   "properties": {
    "pid": "9078120",
    "name": "백암왕순대",
    "phone": "02-420-8465",
    "source": "방이동 - 방이역 - 백암왕순대",
    "address": "서울 송파구 위례성대로18길 27-6",
    "website": "http://place.map.daum.net/9078120",
    "category": "순대"
   }
  },
  {
   "type": "Feature",
   "geometry": {
    "type": "Point",
    "coordinates": [
     127.121314000573,
     37.4947323862486
    ]
   },
   "properties": {
    "pid": "26971014",
    "name": "함경도찹쌀순대",
    "phone": "02-403-8822",
    "source": "가락동 - 경찰병원역 - 함경도 찹쌀순대",
    "address": "서울 송파구 송파대로28길 32",
    "website": "http://place.map.daum.net/26971014",
    "category": "순대"
   }
  },
  {
   "type": "Feature",
   "geometry": {
    "type": "Point",
    "coordinates": [
     127.010126427681,
     37.5530494550062
    ]
   },
   "properties": {
    "pid": "13499817",
    "name": "약수순대국",
    "phone": "02-2236-5926",
    "source": "신당동 - 약수역 - 약수순대국",
    "address": "서울 중구 다산로8길 7",
    "website": "http://place.map.daum.net/13499817",
    "category": "순대"
   }
  },
  {
   "type": "Feature",
   "geometry": {
    "type": "Point",
    "coordinates": [
     127.009868375983,
     37.5528620692666
    ]
   },
   "properties": {
    "pid": "27439556",
    "name": "해남순대국",
    "phone": "02-2252-1526",
    "source": "약수동 - 약수역 - 해남순대국",
    "address": "서울 중구 다산로8길 8",
    "website": "http://place.map.daum.net/27439556",
    "category": "순대"
   }
  },
  {
   "type": "Feature",
   "geometry": {
    "type": "Point",
    "coordinates": [
     126.9531621044387,
     37.54454958877756
    ]
   },
   "properties": {
    "pid": "7864536",
    "name": "마포오향족발",
    "phone": "02-715-7719",
    "source": "공덕동 - 공덕역 - 마포 오향족발",
    "address": "서울 마포구 만리재로 19",
    "website": "http://place.map.daum.net/7864536",
    "category": "순대"
   }
  },
  {
   "type": "Feature",
   "geometry": {
    "type": "Point",
    "coordinates": [
     127.003138336262,
     37.583355738677
    ]
   },
   "properties": {
    "pid": "22961938",
    "name": "순대실록 대학로본점",
    "phone": "02-742-5338",
    "source": "동숭동 - 혜화역 - 순대실록",
    "address": "서울 종로구 동숭길 127",
    "website": "http://place.map.daum.net/22961938",
    "category": "순대"
   }
  },
  {
   "type": "Feature",
   "geometry": {
    "type": "Point",
    "coordinates": [
     127.138840731368,
     37.5357555817489
    ]
   },
   "properties": {
    "pid": "16819010",
    "name": "장터순대국",
    "phone": "02-472-5959",
    "source": "길동 - 길동역 - 장터순대국",
    "address": "서울 강동구 양재대로 1453",
    "website": "http://place.map.daum.net/16819010",
    "category": "순대"
   }
  },
  {
   "type": "Feature",
   "geometry": {
    "type": "Point",
    "coordinates": [
     127.116219047263,
     37.5344465306038
    ]
   },
   "properties": {
    "pid": "16528404",
    "name": "아바이순대",
    "phone": "02-473-2803",
    "source": "풍납동 - 강동구청역 - 아바이순대",
    "address": "서울 송파구 풍성로 32-1",
    "website": "http://place.map.daum.net/16528404",
    "category": "순대"
   }
  }
 ]
}