{
 "type": "FeatureCollection",
 "features": [
  {
   "type": "Feature",
   "geometry": {
    "type": "Point",
    "coordinates": [
     126.949551996035,
     37.6558384738453
    ]
   },
   "properties": {
    "pid": "27469398",
    "name": "만석쌈밥",
    "phone": "02-385-2093",
    "source": "진관동 - 구파발역 - 만석장",
    "address": "서울 은평구 대서문길 43-10",
    "website": "http://place.map.daum.net/27469398",
    "category": "순두부, 두부"
   }
  },
  {
   "type": "Feature",
   "geometry": {
    "type": "Point",
    "coordinates": [
     126.97303007647,
     37.5637038036408
    ]
   },
   "properties": {
    "pid": "10557415",
    "name": "소공동뚝배기집 시청점",
    "phone": "02-773-9292",
    "source": "서소문동 - 시청역 - 소공동뚝배기집",
    "address": "서울 중구 서소문로11길 18",
    "website": "http://place.map.daum.net/10557415",
    "category": "순두부, 두부"
   }
  },
  {
   "type": "Feature",
   "geometry": {
    "type": "Point",
    "coordinates": [
     126.974157961362,
     37.5621002821661
    ]
   },
   "properties": {
    "pid": "8511743",
    "name": "정원순두부",
    "phone": "02-755-7139",
    "source": "서소문동 - 시청역 - 정원순두부",
    "address": "서울 중구 세종대로11길 33",
    "website": "http://place.map.daum.net/8511743",
    "category": "순두부, 두부"
   }
  },
  {
   "type": "Feature",
   "geometry": {
    "type": "Point",
    "coordinates": [
     126.97989172339346,
     37.570931158126214
    ]
   },
   "properties": {
    "pid": "15398824",
    "name": "감촌",
    "phone": "02-733-7035",
    "source": "청진동 - 광화문역 - 감촌",
    "address": "서울 종로구 종로 19",
    "website": "http://place.map.daum.net/15398824",
    "category": "순두부, 두부"
   }
  },
  {
   "type": "Feature",
   "geometry": {
    "type": "Point",
    "coordinates": [
     126.974412849104,
     37.5713697834493
    ]
   },
   "properties": {
    "pid": "21532640",
    "name": "대한순두부",
    "phone": "02-725-0717",
    "source": "당주동 - 광화문역 - 대한순두부",
    "address": "서울 종로구 새문안로5길 13",
    "website": "http://place.map.daum.net/21532640",
    "category": "순두부, 두부"
   }
  },
  {
   "type": "Feature",
   "geometry": {
    "type": "Point",
    "coordinates": [
     126.972094603284,
     37.571268346773
    ]
   },
   "properties": {
    "pid": "8194946",
    "name": "나무가있는집",
    "phone": "02-737-3888",
    "source": "신문로2가 - 광화문역 - 나무가 있는집",
    "address": "서울 종로구 경희궁길 10-2",
    "website": "http://place.map.daum.net/8194946",
    "category": "순두부, 두부"
   }
  },
  {
   "type": "Feature",
   "geometry": {
    "type": "Point",
    "coordinates": [
     127.013775388394,
     37.4812102746748
    ]
   },
   "properties": {
    "pid": "7885551",
    "name": "백년옥 본관",
    "phone": "02-523-2860",
    "source": "서초동 - 남부터미널역 - 백년옥",
    "address": "서울 서초구 남부순환로 2407",
    "website": "http://place.map.daum.net/7885551",
    "category": "순두부, 두부"
   }
  },
  {
   "type": "Feature",
   "geometry": {
    "type": "Point",
    "coordinates": [
     126.970085094317,
     37.5464327708052
    ]
   },
   "properties": {
    "pid": "20226663",
    "name": "자담순두부 청파점",
    "phone": "02-777-2215",
    "source": "청파동 - 숙대입구역 - 자담순두부",
    "address": "서울 용산구 청파로 301",
    "website": "http://place.map.daum.net/20226663",
    "category": "순두부, 두부"
   }
  },
  {
   "type": "Feature",
   "geometry": {
    "type": "Point",
    "coordinates": [
     126.960362248958,
     37.6065370437988
    ]
   },
   "properties": {
    "pid": "13289977",
    "name": "옛날민속집 본점",
    "phone": "02-379-6100",
    "source": "구기동 - 경복궁역 - 옛날민속집",
    "address": "서울 종로구 진흥로 469-4",
    "website": "http://place.map.daum.net/13289977",
    "category": "순두부, 두부"
   }
  },
  {
   "type": "Feature",
   "geometry": {
    "type": "Point",
    "coordinates": [
     126.957616121782,
     37.6081758906674
    ]
   },
   "properties": {
    "pid": "8034069",
    "name": "원조할머니두부집",
    "phone": "02-379-6276",
    "source": "구기동 - 경복궁역 - 원조할머니두부집",
    "address": "서울 종로구 진흥로 439",
    "website": "http://place.map.daum.net/8034069",
    "category": "순두부, 두부"
   }
  },
  {
   "type": "Feature",
   "geometry": {
    "type": "Point",
    "coordinates": [
     127.056727768138,
     37.6757184620033
    ]
   },
   "properties": {
    "pid": "13291909",
    "name": "최가네 손두부집",
    "phone": "02-931-8635",
    "source": "상계동 - 수락산역 - 최가네손두부",
    "address": "서울 노원구 동일로242길 21",
    "website": "http://place.map.daum.net/13291909",
    "category": "순두부, 두부"
   }
  },
  {
   "type": "Feature",
   "geometry": {
    "type": "Point",
    "coordinates": [
     127.082986852175,
     37.6484284095015
    ]
   },
   "properties": {
    "pid": "15092336",
    "name": "두부명가",
    "phone": "02-935-8003",
    "source": "상계동 - 수락산역 - 명가두부",
    "address": "서울 노원구 중계로12가길 29",
    "website": "http://place.map.daum.net/15092336",
    "category": "순두부, 두부"
   }
  },
  {
   "type": "Feature",
   "geometry": {
    "type": "Point",
    "coordinates": [
     127.042488111138,
     37.6878119754544
    ]
   },
   "properties": {
    "pid": "16623635",
    "name": "콩사랑두부",
    "phone": "02-955-6016",
    "source": "도봉동 - 도봉산역 - 콩사랑두부",
    "address": "서울 도봉구 도봉산4길 10",
    "website": "http://place.map.daum.net/16623635",
    "category": "순두부, 두부"
   }
  },
  {
   "type": "Feature",
   "geometry": {
    "type": "Point",
    "coordinates": [
     127.077653612313,
     37.619477973192
    ]
   },
   "properties": {
    "pid": "8083654",
    "name": "제일콩집",
    "phone": "02-972-7016",
    "source": "공릉동 - 태릉입구역 - 제일콩집",
    "address": "서울 노원구 동일로174길 37-8",
    "website": "http://place.map.daum.net/8083654",
    "category": "순두부, 두부"
   }
  },
  {
   "type": "Feature",
   "geometry": {
    "type": "Point",
    "coordinates": [
     126.981558629245,
     37.5866591826078
    ]
   },
   "properties": {
    "pid": "16533244",
    "name": "온마을",
    "phone": "02-738-4231",
    "source": "삼청동 - 안국역 - 온마을",
    "address": "서울 종로구 삼청로 127",
    "website": "http://place.map.daum.net/16533244",
    "category": "순두부, 두부"
   }
  },
  {
   "type": "Feature",
   "geometry": {
    "type": "Point",
    "coordinates": [
     126.986206824846,
     37.5778661203744
    ]
   },
   "properties": {
    "pid": "8064601",
    "name": "재동맷돌순두부",
    "phone": "02-747-0011",
    "source": "재동 - 안국역 - 재동순두부",
    "address": "서울 종로구 북촌로2길 8",
    "website": "http://place.map.daum.net/8064601",
    "category": "순두부, 두부"
   }
  },
  {
   "type": "Feature",
   "geometry": {
    "type": "Point",
    "coordinates": [
     127.062676160603,
     37.5887703257628
    ]
   },
   "properties": {
    "pid": "26948071",
    "name": "콩보 휘경점",
    "phone": "02-2215-5015",
    "source": "휘경동 - 회기역 - 콩보",
    "address": "서울 동대문구 망우로18길 26",
    "website": "http://place.map.daum.net/26948071",
    "category": "순두부, 두부"
   }
  },
  {
   "type": "Feature",
   "geometry": {
    "type": "Point",
    "coordinates": [
     126.929852102226,
     37.5200560427354
    ]
   },
   "properties": {
    "pid": "11272926",
    "name": "하남두부마을",
    "phone": "02-780-9384",
    "source": "여의도동 - 여의도역 - 하남두부마을",
    "address": "서울 영등포구 의사당대로1길 25",
    "website": "http://place.map.daum.net/11272926",
    "category": "순두부, 두부"
   }
  },
  {
   "type": "Feature",
   "geometry": {
    "type": "Point",
    "coordinates": [
     126.970953942409,
     37.5819790927727
    ]
   },
   "properties": {
    "pid": "12318725",
    "name": "토방",
    "phone": "02-722-8255",
    "source": "관훈동 - 종각역 - 토방",
    "address": "서울 종로구 자하문로 66-1",
    "website": "http://place.map.daum.net/12318725",
    "category": "순두부, 두부"
   }
  },
  {
   "type": "Feature",
   "geometry": {
    "type": "Point",
    "coordinates": [
     127.024076515467,
     37.5765958709724
    ]
   },
   "properties": {
    "pid": "19897070",
    "name": "강릉초당집",
    "phone": "02-953-8999",
    "source": "신설동 - 신설동역 - 강릉초당집",
    "address": "서울 동대문구 한빛로 3",
    "website": "http://place.map.daum.net/19897070",
    "category": "순두부, 두부"
   }
  },
  {
   "type": "Feature",
   "geometry": {
    "type": "Point",
    "coordinates": [
     127.003187849785,
     37.5762883410765
    ]
   },
   "properties": {
    "pid": "10199477",
    "name": "김문정식당",
    "phone": "02-763-7223",
    "source": "이화동 - 혜화역 - 김문정식당",
    "address": "서울 종로구 율곡로 219",
    "website": "http://place.map.daum.net/10199477",
    "category": "순두부, 두부"
   }
  },
  {
   "type": "Feature",
   "geometry": {
    "type": "Point",
    "coordinates": [
     126.857079588777,
     37.5249387058067
    ]
   },
   "properties": {
    "pid": "13287336",
    "name": "부뚜막청국장",
    "phone": "02-2695-2074",
    "source": "신정동 - 목동역 - 부뚜막청국장",
    "address": "서울 양천구 오목로 176",
    "website": "http://place.map.daum.net/13287336",
    "category": "순두부, 두부"
   }
  },
  {
   "type": "Feature",
   "geometry": {
    "type": "Point",
    "coordinates": [
     126.872966753082,
     37.5198463784219
    ]
   },
   "properties": {
    "pid": "10690118",
    "name": "원두막",
    "phone": "02-2061-1212",
    "source": "신정동 - 목동역 - 원두막",
    "address": "서울 양천구 신목로 56",
    "website": "http://place.map.daum.net/10690118",
    "category": "순두부, 두부"
   }
  },
  {
   "type": "Feature",
   "geometry": {
    "type": "Point",
    "coordinates": [
     126.94047860497837,
     37.54163579109111
    ]
   },
   "properties": {
    "pid": "17972377",
    "name": "미스터산쵸 순두부한우불고기 마포용강점",
    "phone": "",
    "source": "신정동 - 목동역 - 미스터순두부",
    "address": "서울 마포구 마포대로1길 46",
    "website": "http://place.map.daum.net/17972377",
    "category": "순두부, 두부"
   }
  },
  {
   "type": "Feature",
   "geometry": {
    "type": "Point",
    "coordinates": [
     126.98850847385,
     37.5695555904063
    ]
   },
   "properties": {
    "pid": "10374336",
    "name": "뚝배기집",
    "phone": "02-2265-5744",
    "source": "관철동 - 종각역 - 뚝배기집",
    "address": "서울 종로구 종로16길 12",
    "website": "http://place.map.daum.net/10374336",
    "category": "순두부, 두부"
   }
  },
  {
   "type": "Feature",
   "geometry": {
    "type": "Point",
    "coordinates": [
     126.980192578158,
     37.4777351257611
    ]
   },
   "properties": {
    "pid": "8106735",
    "name": "가마솥손두부",
    "phone": "02-3472-2202",
    "source": "사당동 - 사당역 - 가마솥순두부",
    "address": "서울 동작구 남부순환로271길 20",
    "website": "http://place.map.daum.net/8106735",
    "category": "순두부, 두부"
   }
  },
  {
   "type": "Feature",
   "geometry": {
    "type": "Point",
    "coordinates": [
     126.978281995617,
     37.5633733198815
    ]
   },
   "properties": {
    "pid": "19401996",
    "name": "오군순두부",
    "phone": "02-753-3460",
    "source": "북창동 - 시청역 - 오군순두부",
    "address": "서울 중구 세종대로16길 23",
    "website": "http://place.map.daum.net/19401996",
    "category": "순두부, 두부"
   }
  },
  {
   "type": "Feature",
   "geometry": {
    "type": "Point",
    "coordinates": [
     126.892914144346,
     37.5784526550779
    ]
   },
   "properties": {
    "pid": "4289903",
    "name": "두부공작소",
    "phone": "02-3484-5886",
    "source": "신사동 - 신사역 - 두부공작소",
    "address": "서울 마포구 매봉산로 75",
    "website": "http://place.map.daum.net/4289903",
    "category": "순두부, 두부"
   }
  },
  {
   "type": "Feature",
   "geometry": {
    "type": "Point",
    "coordinates": [
     127.013864016272,
     37.4958282160617
    ]
   },
   "properties": {
    "pid": "23984687",
    "name": "기와집순두부 서초점",
    "phone": "02-599-0579",
    "source": "서초동 - 교대역 - 기와집순두부",
    "address": "서울 서초구 서초대로51길 21",
    "website": "http://place.map.daum.net/23984687",
    "category": "순두부, 두부"
   }
  },
  {
   "type": "Feature",
   "geometry": {
    "type": "Point",
    "coordinates": [
     126.987098543486,
     37.5011190344079
    ]
   },
   "properties": {
    "pid": "27495427",
    "name": "맷돌로만 반포점",
    "phone": "02-535-1233",
    "source": "반포동 - 구반포역 - 맷돌로만",
    "address": "서울 서초구 신반포로 22",
    "website": "http://place.map.daum.net/27495427",
    "category": "순두부, 두부"
   }
  },
  {
   "type": "Feature",
   "geometry": {
    "type": "Point",
    "coordinates": [
     127.051249648377,
     37.5028637811128
    ]
   },
   "properties": {
    "pid": "18446814",
    "name": "LA북창동순두부 선릉2호점",
    "phone": "02-555-9683",
    "source": "대치동 - 선릉역 - LA북창동순두부",
    "address": "서울 강남구 선릉로82길 15",
    "website": "http://place.map.daum.net/18446814",
    "category": "순두부, 두부"
   }
  },
  {
   "type": "Feature",
   "geometry": {
    "type": "Point",
    "coordinates": [
     127.098024588236,
     37.5057859203678
    ]
   },
   "properties": {
    "pid": "19927945",
    "name": "사계진미 잠실석촌점",
    "phone": "02-420-9199",
    "source": "석촌동 - 석촌역 - 사계진미",
    "address": "서울 송파구 송파대로49길 63",
    "website": "http://place.map.daum.net/19927945",
    "category": "순두부, 두부"
   }
  },
  {
   "type": "Feature",
   "geometry": {
    "type": "Point",
    "coordinates": [
     127.005369339475,
     37.5609569203953
    ]
   },
   "properties": {
    "pid": "10730168",
    "name": "장충동진두부집",
    "phone": "02-2275-9345",
    "source": "장충동 - 동대입구역 - 장충동진두부집",
    "address": "서울 중구 동호로24길 39",
    "website": "http://place.map.daum.net/10730168",
    "category": "순두부, 두부"
   }
  },
  {
   "type": "Feature",
   "geometry": {
    "type": "Point",
    "coordinates": [
     127.112334811109,
     37.5004320197287
    ]
   },
   "properties": {
    "pid": "7867010",
    "name": "모꼬지에",
    "phone": "02-424-6150",
    "source": "송파동 - 송파역 - 모꼬지에",
    "address": "서울 송파구 송파대로36길 5-13",
    "website": "http://place.map.daum.net/7867010",
    "category": "순두부, 두부"
   }
  }
 ]
}