{"type": "FeatureCollection","features": [
  {"type": "Feature", "geometry": {"type": "Point", "coordinates": [126.848844341349, 37.5471579201494]}, "properties": {"name": "\ud669\ud574\ub3c4\uc0ac\uace8\uc21c\ub300\uad6d", "address": "\uc11c\uc6b8 \uac15\uc11c\uad6c \uae4c\uce58\uc0b0\ub85c 100-1", "website": "http://place.map.daum.net/16330638", "source": "\ud654\uace1\ub3d9 - \ud654\uace1\uc5ed - \ud669\ud574\ub3c4 \uc21c\ub300\uad6d"}}
  ,{"type": "Feature", "geometry": {"type": "Point", "coordinates": [126.931535993335, 37.5193254164282]}, "properties": {"name": "\ud654\ubaa9\uc21c\ub300\uad6d", "address": "\uc11c\uc6b8 \uc601\ub4f1\ud3ec\uad6c \uc5ec\uc758\ub300\ubc29\ub85c 383", "website": "http://place.map.daum.net/21423297", "source": "\uc5ec\uc758\ub3c4\ub3d9 - \uc0db\uac15\uc5ed - \ud654\ubaa9\uc21c\ub300\uad6d"}}
  ,{"type": "Feature", "geometry": {"type": "Point", "coordinates": [126.921557198639, 37.5296122593619]}, "properties": {"name": "\ud568\uacbd\uc9c4\uc21c\ub300", "address": "\uc11c\uc6b8 \uc601\ub4f1\ud3ec\uad6c \uad6d\ud68c\ub300\ub85c74\uae38 20", "website": "http://place.map.daum.net/16908087", "source": "\uc5ec\uc758\ub3c4\ub3d9 - \uc0db\uac15\uc5ed - \ud568\uacbd\uc9c4\uc21c\ub300"}}
  ,{"type": "Feature", "geometry": {"type": "Point", "coordinates": [126.936354907546, 37.5565358148639]}, "properties": {"name": "\uad6c\uc6d4\uc0b0", "address": "\uc11c\uc6b8 \uc11c\ub300\ubb38\uad6c \uc2e0\ucd0c\ub85c 87-22", "website": "http://place.map.daum.net/19950900", "source": "\ucc3d\ucc9c\ub3d9 - \uc2e0\ucd0c\uc5ed - \uad6c\uc6d4\uc0b0"}}
  ,{"type": "Feature", "geometry": {"type": "Point", "coordinates": [126.92407888974589, 37.56087133857872]}, "properties": {"name": "\ud64d\ubc18\uc7a5\uc2e0\uc758\uc8fc\ucc39\uc300\uc21c\ub300\uac10\uc790\ud0d5", "address": "\uc11c\uc6b8 \ub9c8\ud3ec\uad6c \ub3d9\uad50\ub85c 233", "website": "http://place.map.daum.net/26838040", "source": "\uc5f0\ub0a8\ub3d9 - \ud64d\ub300\uc785\uad6c\uc5ed - \uc5f0\ub0a8\uc21c\ub300\uad6d"}}
  ,{"type": "Feature", "geometry": {"type": "Point", "coordinates": [126.914918857321, 37.5491954001353]}, "properties": {"name": "\ud569\uc815\uc21c\ub300\uad6d", "address": "\uc11c\uc6b8 \ub9c8\ud3ec\uad6c \uc591\ud654\ub85c6\uae38 14", "website": "http://place.map.daum.net/16045153", "source": "\ud569\uc815\ub3d9 - \ud569\uc815\uc5ed - \ud569\uc815\uc21c\ub300\uad6d"}}
  ,{"type": "Feature", "geometry": {"type": "Point", "coordinates": [126.931064584868, 37.5693882602416]}, "properties": {"name": "\ubc31\uc554\uc655\uc21c\ub300 \uc5f0\ud76c\ub3d9\ubcf8\uc810", "address": "\uc11c\uc6b8 \uc11c\ub300\ubb38\uad6c \uc99d\uac00\ub85c 13-6", "website": "http://place.map.daum.net/7885867", "source": "\uc5f0\ud76c\ub3d9 - \ud64d\ub300\uc785\uad6c\uc5ed - \ubc31\uc554\uc655\uc21c\ub300"}}
  ,{"type": "Feature", "geometry": {"type": "Point", "coordinates": [126.91708649794, 37.5905634334003]}, "properties": {"name": "\uac1c\uc131 \ucc39\uc300\uc21c\ub300\ud574\uc7a5\uad6d", "address": "\uc11c\uc6b8 \uc740\ud3c9\uad6c \uc751\uc554\ub85c 207", "website": "http://place.map.daum.net/20127558", "source": "\uc751\uc554\ub3d9 - \uc0c8\uc808\uc5ed - \uac1c\uc131\ucc39\uc300\uc21c\ub300\ud574\uc7a5\uad6d"}}
  ,{"type": "Feature", "geometry": {"type": "Point", "coordinates": [126.928127516728, 37.6102591189726]}, "properties": {"name": "\uc0bc\uc624\uc61b\ub0a0\uc21c\ub300\uad6d", "address": "\uc11c\uc6b8 \uc740\ud3c9\uad6c \ubd88\uad11\ub85c1\uae38 2", "website": "http://place.map.daum.net/11829911", "source": "\ub300\uc870\ub3d9 - \ubd88\uad11\uc5ed - \uc0bc\uc624\uc21c\ub300\uad6d"}}
  ,{"type": "Feature", "geometry": {"type": "Point", "coordinates": [126.928127516728, 37.6102591189726]}, "properties": {"name": "\uc0bc\uc624\uc61b\ub0a0\uc21c\ub300\uad6d", "address": "\uc11c\uc6b8 \uc740\ud3c9\uad6c \ubd88\uad11\ub85c1\uae38 2", "website": "http://place.map.daum.net/11829911", "source": "\ub300\uc870\ub3d9 - \ubd88\uad11\uc5ed - \uc0bc\uc624\uc21c\ub300\uad6d"}}
  ,{"type": "Feature", "geometry": {"type": "Point", "coordinates": [126.99532758358, 37.5653790406748]}, "properties": {"name": "\uc0b0\uc218\uac11\uc0b0", "address": "\uc11c\uc6b8 \uc911\uad6c \uc744\uc9c0\ub85c20\uae38 24", "website": "http://place.map.daum.net/27072121", "source": "\uc778\ud604\ub3d9 - \ucda9\ubb34\ub85c\uc5ed - \uc0b0\uc218\uac11\uc0b0"}}
  ,{"type": "Feature", "geometry": {"type": "Point", "coordinates": [127.027898894042, 37.5781123038498]}, "properties": {"name": "\uc640\uac00\ub9ac\ud53c\uc21c\ub300 \ubcf8\uc810", "address": "\uc11c\uc6b8 \ub3d9\ub300\ubb38\uad6c \uc655\uc0b0\ub85c9\uae38 22", "website": "http://place.map.daum.net/14881605", "source": "\uc6a9\ub450\ub3d9 - \uc2e0\uc124\ub3d9\uc5ed - \uc640\uac00\ub9ac \ud53c\uc21c\ub300"}}
  ,{"type": "Feature", "geometry": {"type": "Point", "coordinates": [126.907226982355, 37.4917380718654]}, "properties": {"name": "\uc0bc\uac70\ub9ac\uba3c\uc9c0\ub9c9\uc21c\ub300\uad6d", "address": "\uc11c\uc6b8 \uc601\ub4f1\ud3ec\uad6c \uc2dc\ud765\ub300\ub85c185\uae38 11", "website": "http://place.map.daum.net/9125675", "source": "\ub300\ub9bc\ub3d9 - \uc2e0\ub300\ubc29\uc5ed - \uc0bc\uac70\ub9ac \uba3c\uc9c0\ub9c9\uc21c\ub300\uad6d"}}
  ,{"type": "Feature", "geometry": {"type": "Point", "coordinates": [126.903150847561, 37.4538347181964]}, "properties": {"name": "\uc6b0\ub9ac\uc9d1 \uc21c\ub300\uad6d", "address": "\uc11c\uc6b8 \uae08\ucc9c\uad6c \uae08\ud558\ub85c 650", "website": "http://place.map.daum.net/23210619", "source": "\uc2dc\ud765\ub3d9 - \uae08\ucc9c\uad6c\uccad\uc5ed - \uc6b0\ub9ac\uc9d1\uc21c\ub300\uad6d"}}
  ,{"type": "Feature", "geometry": {"type": "Point", "coordinates": [126.90901512137772, 37.49994250035086]}, "properties": {"name": "\uc21c\ub300\uad6d\uc804\ubb38", "address": "\uc11c\uc6b8 \uc601\ub4f1\ud3ec\uad6c \uc2e0\ud48d\ub85c 28", "website": "http://place.map.daum.net/20541843", "source": "\uc2e0\uae38\ub3d9 - \uc2e0\ud48d\uc5ed - \uc21c\ub300\uad6d\uc804\ubb38"}}
  ,{"type": "Feature", "geometry": {"type": "Point", "coordinates": [126.899788313795, 37.4666803436556]}, "properties": {"name": "\uc61b\ub0a0\uc21c\ub300\uad6d\uc9d1", "address": "\uc11c\uc6b8 \uae08\ucc9c\uad6c \ubc94\uc548\ub85c 1241", "website": "http://place.map.daum.net/20535260", "source": "\ub3c5\uc0b0\ub3d9 - \ub3c5\uc0b0\uc5ed - \uc61b\ub0a0 \uc21c\ub300\uad6d"}}
  ,{"type": "Feature", "geometry": {"type": "Point", "coordinates": [127.040717707874, 37.468362868286]}, "properties": {"name": "24\uc2dc\ucc39\uc300\uc21c\ub300", "address": "\uc11c\uc6b8 \uc11c\ucd08\uad6c \uac15\ub0a8\ub300\ub85c10\uae38 19", "website": "http://place.map.daum.net/24878935", "source": "\uc591\uc7ac\ub3d9 - \uc591\uc7ac\uc5ed - \ucc39\uc300\uc21c\ub300\ub9cc\ub4dc\ub294\uc9d1"}}
  ,{"type": "Feature", "geometry": {"type": "Point", "coordinates": [127.033465168523, 37.4891640442037]}, "properties": {"name": "\uc11c\ucd08\ub0a8\uc21c\ub0a8\uc21c\ub300\uad6d", "address": "\uc11c\uc6b8 \uac15\ub0a8\uad6c \ub3c4\uace1\ub85c4\uae38 12", "website": "http://place.map.daum.net/11139515", "source": "\ub3c4\uace1\ub3d9 - \uc591\uc7ac\uc5ed, \uac15\ub0a8\uc5ed - \ub0a8\uc21c\ub0a8 \uc21c\ub300\uad6d"}}
  ,{"type": "Feature", "geometry": {"type": "Point", "coordinates": [127.055922524457, 37.5087073826763]}, "properties": {"name": "\ubc15\uc11c\ubc29\uc21c\ub300\uad6d\ubc25 \uc0bc\uc131\ubcf8\uc810", "address": "\uc11c\uc6b8 \uac15\ub0a8\uad6c \uc0bc\uc131\ub85c 520", "website": "http://place.map.daum.net/7881618", "source": "\uc0bc\uc131\ub3d9 - \uc0bc\uc131\uc5ed - \ubc15\uc11c\ubc29 \uc21c\ub300\uad6d"}}
  ,{"type": "Feature", "geometry": {"type": "Point", "coordinates": [127.055922524457, 37.5087073826763]}, "properties": {"name": "\ubc15\uc11c\ubc29\uc21c\ub300\uad6d\ubc25 \uc0bc\uc131\ubcf8\uc810", "address": "\uc11c\uc6b8 \uac15\ub0a8\uad6c \uc0bc\uc131\ub85c 520", "website": "http://place.map.daum.net/7881618", "source": "\uc0bc\uc131\ub3d9 - \uc0bc\uc131\uc5ed - \ubc15\uc11c\ubc29 \uc21c\ub300\uad6d"}}
  ,{"type": "Feature", "geometry": {"type": "Point", "coordinates": [127.038901878331, 37.6026810511621]}, "properties": {"name": "\uc1a1\ucc9c\uc21c\ub300\uad6d \ubcf8\uc810", "address": "\uc11c\uc6b8 \uc131\ubd81\uad6c \ud654\ub791\ub85c 59", "website": "http://place.map.daum.net/20522473", "source": "\ud558\uc6d4\uace1\ub3d9 - \uc6d4\uace1\uc5ed - \uc1a1\ucc9c\uc21c\ub300\uad6d"}}
  ,{"type": "Feature", "geometry": {"type": "Point", "coordinates": [126.968287194687, 37.559294949155]}, "properties": {"name": "\ud669\uc131\uc9d1", "address": "\uc11c\uc6b8 \uc911\uad6c \uccad\ud30c\ub85c 447-15", "website": "http://place.map.daum.net/14686414", "source": "\uc911\ub9bc\ub3d9 - \ucda9\uc815\ub85c\uc5ed - \ud669\uc131\uc9d1"}}
  ,{"type": "Feature", "geometry": {"type": "Point", "coordinates": [126.973561281357, 37.5594728433782]}, "properties": {"name": "\ucca0\uc0b0\uc9d1", "address": "\uc11c\uc6b8 \uc911\uad6c \uce60\ud328\ub85c 42", "website": "http://place.map.daum.net/21396770", "source": "\ud68c\ud604\ub3d9 - \ud68c\ud604\uc5ed - \ucca0\uc0b0\uc9d1"}}
  ,{"type": "Feature", "geometry": {"type": "Point", "coordinates": [126.973561281357, 37.5594728433782]}, "properties": {"name": "\ucca0\uc0b0\uc9d1", "address": "\uc11c\uc6b8 \uc911\uad6c \uce60\ud328\ub85c 42", "website": "http://place.map.daum.net/21396770", "source": "\ud68c\ud604\ub3d9 - \ud68c\ud604\uc5ed - \ucca0\uc0b0\uc9d1"}}
  ,{"type": "Feature", "geometry": {"type": "Point", "coordinates": [126.97458084020062, 37.553362502415695]}, "properties": {"name": "\uc5b4\uba48\uc21c\ub300 \ubcf8\uc810", "address": "\uc11c\uc6b8 \uc6a9\uc0b0\uad6c \ud6c4\uc554\ub85c 97-2", "website": "http://place.map.daum.net/17375524", "source": "\ub3d9\uc790\ub3d9 - \uc11c\uc6b8\uc5ed - \uc5b4\uba48\uc21c\ub300"}}
  ,{"type": "Feature", "geometry": {"type": "Point", "coordinates": [127.015811218167, 37.5918312609669]}, "properties": {"name": "\ub3c8\uc554\uc21c\ub300\uae40\ubc25", "address": "\uc11c\uc6b8 \uc131\ubd81\uad6c \ub3d9\uc18c\ubb38\ub85c18\uae38 12", "website": "http://place.map.daum.net/21367852", "source": "\ub3d9\uc18c\ubb38\ub3d9 - \uc131\uc2e0\uc5ec\ub300\uc785\uad6c\uc5ed - \ub3c8\uc554\uc21c\ub300\uae40\ubc25"}}
  ,{"type": "Feature", "geometry": {"type": "Point", "coordinates": [127.044242978112, 37.5805255774179]}, "properties": {"name": "\uace0\ud5a5\uc9d1", "address": "\uc11c\uc6b8 \ub3d9\ub300\ubb38\uad6c \uc655\uc0b0\ub85c37\uae38 12", "website": "http://place.map.daum.net/8658534", "source": "\uccad\ub7c9\ub9ac\ub3d9 - \uccad\ub7c9\ub9ac\uc5ed - \uace0\ud5a5\uc9d1"}}
  ,{"type": "Feature", "geometry": {"type": "Point", "coordinates": [127.942229572633, 36.9822276570118]}, "properties": {"name": "\uac1c\uc131\uc9d1", "address": "\ucda9\ubd81 \ucda9\uc8fc\uc2dc \uacc4\uba85\ub300\ub85c 248-1", "website": "http://place.map.daum.net/27124563", "source": "\uc6a9\ub450\ub3d9 - \uc2e0\uc124\ub3d9\uc5ed - \uac1c\uc131\uc9d1"}}
  ,{"type": "Feature", "geometry": {"type": "Point", "coordinates": [127.100624459078, 37.5990261893991]}, "properties": {"name": "\ub300\uac00\uac00\ub9c8\uc1a5\uc21c\ub300\uad6d", "address": "\uc11c\uc6b8 \uc911\ub791\uad6c \uc6a9\ub9c8\uc0b0\ub85c 538", "website": "http://place.map.daum.net/16474900", "source": "\ub9dd\uc6b0\ub3d9 - \ub9dd\uc6b0\uc5ed - \ub300\uac00\uc21c\ub300\uad6d"}}
  ,{"type": "Feature", "geometry": {"type": "Point", "coordinates": [127.069133709311, 37.5389812749835]}, "properties": {"name": "\uace0\ud765\uc21c\ub300\uad6d \ubcf8\uad00", "address": "\uc11c\uc6b8 \uad11\uc9c4\uad6c \uc544\ucc28\uc0b0\ub85c34\uae38 26", "website": "http://place.map.daum.net/17101239", "source": "\uc790\uc591\ub3d9 - \uac74\ub300\uc785\uad6c\uc5ed - \uace0\ud765\uc21c\ub300\uad6d"}}
  ,{"type": "Feature", "geometry": {"type": "Point", "coordinates": [127.046721762172, 37.5470327881516]}, "properties": {"name": "\uba39\uac70\ub9ac\uc9d1", "address": "\uc11c\uc6b8 \uc131\ub3d9\uad6c \uc655\uc2ed\ub9ac\ub85c4\uae38 26-7", "website": "http://place.map.daum.net/16529354", "source": "\uc131\uc218\ub3d9 - \ub69d\uc12c\uc5ed - \uba39\uac70\ub9ac\uc9d1"}}
  ,{"type": "Feature", "geometry": {"type": "Point", "coordinates": [127.005996375459, 37.5328204949003]}, "properties": {"name": "\uc6a9\uac00\ub9c8\uc21c\ub300\uc640\uc7a5\uc5b4 \ud55c\ub0a8\uc810", "address": "\uc11c\uc6b8 \uc6a9\uc0b0\uad6c \ub300\uc0ac\uad00\ub85c34\uae38 10", "website": "http://place.map.daum.net/17363274", "source": "\ud55c\ub0a8\ub3d9 - \ud55c\ub0a8\uc5ed - \uc6a9\uac00\ub9c8\uc21c\ub300"}}
  ,{"type": "Feature", "geometry": {"type": "Point", "coordinates": [127.005996375459, 37.5328204949003]}, "properties": {"name": "\uc6a9\uac00\ub9c8\uc21c\ub300\uc640\uc7a5\uc5b4 \ud55c\ub0a8\uc810", "address": "\uc11c\uc6b8 \uc6a9\uc0b0\uad6c \ub300\uc0ac\uad00\ub85c34\uae38 10", "website": "http://place.map.daum.net/17363274", "source": "\ud55c\ub0a8\ub3d9 - \ud55c\ub0a8\uc5ed - \uc6a9\uac00\ub9c8\uc21c\ub300"}}
  ,{"type": "Feature", "geometry": {"type": "Point", "coordinates": [126.90748815166, 37.558646682726]}, "properties": {"name": "\uc21c\ub300\uc77c\ubc88\uc9c0", "address": "\uc11c\uc6b8 \ub9c8\ud3ec\uad6c \uc6d4\ub4dc\ucef5\ub85c 117", "website": "http://place.map.daum.net/16931682", "source": "\ub9dd\uc6d0\ub3d9 - \ub9c8\ud3ec\uad6c\uccad\uc5ed - \uc21c\ub300\uc77c\ubc88\uc9c0"}}
  ,{"type": "Feature", "geometry": {"type": "Point", "coordinates": [127.00331915146441, 37.575927939664254]}, "properties": {"name": "\uc655\uc2ed\ub9ac\uc21c\ub300\uad6d", "address": "\uc11c\uc6b8 \uc885\ub85c\uad6c \uc728\uace1\ub85c 220-1", "website": "http://place.map.daum.net/15292047", "source": "\uc774\ud654\ub3d9 - \ud61c\ud654\uc5ed, \ub3d9\ub300\ubb38\uc5ed - \uc655\uc2ed\ub9ac\uc21c\ub300\uad6d"}}
  ,{"type": "Feature", "geometry": {"type": "Point", "coordinates": [126.962342190313, 37.5699465816414]}, "properties": {"name": "\uc11d\uad50\uc2dd\ub2f9", "address": "\uc11c\uc6b8 \uc11c\ub300\ubb38\uad6c \ud1b5\uc77c\ub85c 183-1", "website": "http://place.map.daum.net/16499325", "source": "\uc601\ucc9c\ub3d9 - \uc11c\ub300\ubb38\uc5ed - \uc11d\uad50\uc2dd\ub2f9"}}
  ,{"type": "Feature", "geometry": {"type": "Point", "coordinates": [126.992868894877, 37.5678656665454]}, "properties": {"name": "\uc30d\ubc8c\uc2dd\ub2f9", "address": "\uc11c\uc6b8 \uc911\uad6c \ucda9\ubb34\ub85c14\uae38 6-1", "website": "http://place.map.daum.net/27547817", "source": "\uc785\uc815\ub3d9 - \uc744\uc9c0\ub85c 3\uac00 - \uc30d\ubc8c\uc2dd\ub2f9"}}
  ,{"type": "Feature", "geometry": {"type": "Point", "coordinates": [126.999827942791, 37.5701039547957]}, "properties": {"name": "\ud560\uba38\ub2c8\uc9d1\uc21c\ub300", "address": "\uc11c\uc6b8 \uc885\ub85c\uad6c \ub3d9\ud638\ub85c 403-14", "website": "http://place.map.daum.net/13280047", "source": "\uc608\uc9c0\ub3d9 - \uc885\ub85c 5\uac00\uc5ed - \uad11\uc7a5\uc2dc\uc7a5 \ud560\uba38\ub2c8 \uc21c\ub300"}}
  ,{"type": "Feature", "geometry": {"type": "Point", "coordinates": [126.989146348574, 37.5733001868081]}, "properties": {"name": "\ud638\ubc18", "address": "\uc11c\uc6b8 \uc885\ub85c\uad6c \uc0bc\uc77c\ub300\ub85c26\uae38 20", "website": "http://place.map.daum.net/27269590", "source": "\ub099\uc6d0\ub3d9 - \uc885\ub85c 3\uac00\uc5ed - \ud638\ubc18"}}
  ,{"type": "Feature", "geometry": {"type": "Point", "coordinates": [126.89158765770651, 37.5157275324236]}, "properties": {"name": "\uc624\ubcf5\uc21c\ub300\uad6d", "address": "\uc11c\uc6b8 \uc601\ub4f1\ud3ec\uad6c \ub3c4\ub9bc\ub85c 465", "website": "http://place.map.daum.net/24040605", "source": "\ubb38\ub798\ub3d9 - \ubb38\ub798\uc5ed, \uc2e0\ub3c4\ub9bc\uc5ed - \uc624\ubcf5\uc21c\ub300\uad6d"}}
  ,{"type": "Feature", "geometry": {"type": "Point", "coordinates": [126.900595337741, 37.5332797680754]}, "properties": {"name": "\uae40\ub458\ub808\uc21c\ub300\uad6d", "address": "\uc11c\uc6b8 \uc601\ub4f1\ud3ec\uad6c \ub2f9\uc0b0\ub85c45\uae38 1", "website": "http://place.map.daum.net/26946331", "source": "\ub2f9\uc0b0\ub3d9 - \ub2f9\uc0b0\uc5ed - \uae40\ub458\ub808\uc21c\ub300\uad6d"}}
  ,{"type": "Feature", "geometry": {"type": "Point", "coordinates": [126.962690707339, 37.5066099807047]}, "properties": {"name": "\uc9c4\ubbf8\uc21c\ub300", "address": "\uc11c\uc6b8 \ub3d9\uc791\uad6c \uc11c\ub2ec\ub85c12\uac00\uae38 5", "website": "http://place.map.daum.net/12439395", "source": "\ud751\uc11d\ub3d9 - \ud751\uc11d\uc5ed - \uc9c4\ubbf8\uc21c\ub300"}}
  ,{"type": "Feature", "geometry": {"type": "Point", "coordinates": [126.979597352029, 37.4880786046359]}, "properties": {"name": "\ubc31\uc554\uc9d1", "address": "\uc11c\uc6b8 \ub3d9\uc791\uad6c \ub3d9\uc791\ub300\ub85c27\uae38 50", "website": "http://place.map.daum.net/27283357", "source": "\uc0ac\ub2f9\ub3d9 - \uc774\uc218\uc5ed - \ubc31\uc554\uc9d1"}}
  ,{"type": "Feature", "geometry": {"type": "Point", "coordinates": [126.981940226807, 37.4879528448853]}, "properties": {"name": "\ub0a8\uc131\uc9d1", "address": "\uc11c\uc6b8 \ub3d9\uc791\uad6c \ub3d9\uc791\ub300\ub85c 127", "website": "http://place.map.daum.net/12519099", "source": "\uc0ac\ub2f9\ub3d9 - \uc774\uc218\uc5ed - \ub0a8\uc131\uc9d1"}}
  ,{"type": "Feature", "geometry": {"type": "Point", "coordinates": [126.992623252348, 37.4876044037981]}, "properties": {"name": "\ud070\uc9d1\uac00\ub9c8\uc1a5\uc21c\ub300\uad6d \ubc29\ubc30\ub3d9\ub0b4\ubc29\uc5ed\ubcf8\uc810", "address": "\uc11c\uc6b8 \uc11c\ucd08\uad6c \uc11c\ucd08\ub300\ub85c 95", "website": "http://place.map.daum.net/16734525", "source": "\ubc29\ubc30\ub3d9 - \ub0b4\ubc29\uc5ed - \ud070\uc9d1 \uac00\ub9c8\uc1a5 \uc21c\ub300\uad6d"}}
  ,{"type": "Feature", "geometry": {"type": "Point", "coordinates": [126.973562819324, 37.5423034197768]}, "properties": {"name": "\uc81c\uc77c\uc5b4\ubc84\uc774\uc21c\ub300", "address": "\uc11c\uc6b8 \uc6a9\uc0b0\uad6c \ud55c\uac15\ub300\ub85c76\uae38 11-31", "website": "http://place.map.daum.net/762911769", "source": "\ub0a8\uc601\ub3d9 - \uc0bc\uac01\uc9c0\uc5ed - \uc81c\uc77c \uc5b4\ubc84\uc774\uc21c\ub300"}}
  ,{"type": "Feature", "geometry": {"type": "Point", "coordinates": [127.044955623251, 37.5230272112046]}, "properties": {"name": "\uccad\ub2f4\uc21c\ub300\uad6d", "address": "\uc11c\uc6b8 \uac15\ub0a8\uad6c \uc0bc\uc131\ub85c149\uae38 31", "website": "http://place.map.daum.net/15568364", "source": "\uccad\ub2f4\ub3d9 - \uccad\ub2f4\uc5ed - \uccad\ub2f4\uc21c\ub300\uad6d"}}
  ,{"type": "Feature", "geometry": {"type": "Point", "coordinates": [127.023462361606, 37.5097490394916]}, "properties": {"name": "\uace0\ud765\uc9d1", "address": "\uc11c\uc6b8 \uac15\ub0a8\uad6c \ud559\ub3d9\ub85c4\uae38 28", "website": "http://place.map.daum.net/16417279", "source": "\ub17c\ud604\ub3d9 - \ub17c\ud604\uc5ed - \uace0\ud765\uc9d1"}}
  ,{"type": "Feature", "geometry": {"type": "Point", "coordinates": [127.0258988076, 37.503719004475]}, "properties": {"name": "\ud3c9\uc548\ub3c4\ucc39\uc300\uc21c\ub300 \uac15\ub0a8\uc9c1\uc601\uc810", "address": "\uc11c\uc6b8 \uac15\ub0a8\uad6c \ubd09\uc740\uc0ac\ub85c2\uae38 13", "website": "http://place.map.daum.net/16301504", "source": "\uc5ed\uc0bc\ub3d9 - \uac15\ub0a8\uc5ed - \ud3c9\uc548\ub3c4 \ucc39\uc300 \uc21c\ub300"}}
  ,{"type": "Feature", "geometry": {"type": "Point", "coordinates": [127.0258988076, 37.503719004475]}, "properties": {"name": "\ud3c9\uc548\ub3c4\ucc39\uc300\uc21c\ub300 \uac15\ub0a8\uc9c1\uc601\uc810", "address": "\uc11c\uc6b8 \uac15\ub0a8\uad6c \ubd09\uc740\uc0ac\ub85c2\uae38 13", "website": "http://place.map.daum.net/16301504", "source": "\uc5ed\uc0bc\ub3d9 - \uac15\ub0a8\uc5ed - \ud3c9\uc548\ub3c4 \ucc39\uc300 \uc21c\ub300"}}
  ,{"type": "Feature", "geometry": {"type": "Point", "coordinates": [127.03975106892, 37.4787896863926]}, "properties": {"name": "\ud55c\uad6d\uc21c\ub300 \ubcf8\uc810", "address": "\uc11c\uc6b8 \uc11c\ucd08\uad6c \ubc14\uc6b0\ubafc\ub85c35\uae38 4", "website": "http://place.map.daum.net/17363119", "source": "\uc591\uc7ac\ub3d9 - \uc591\uc7ac\uc5ed - \ud55c\uad6d\uc21c\ub300"}}
  ,{"type": "Feature", "geometry": {"type": "Point", "coordinates": [127.054268000314, 37.5042535855177]}, "properties": {"name": "\ud669\ud574\ub3c4\ucc39\uc300\uc21c\ub300", "address": "\uc11c\uc6b8 \uac15\ub0a8\uad6c \uc0bc\uc131\ub85c85\uae38 39", "website": "http://place.map.daum.net/16905999", "source": "\ub300\uce58\ub3d9 - \uc120\ub989\uc5ed - \ud669\ud574\ub3c4 \ucc39\uc300\uc21c\ub300"}}
  ,{"type": "Feature", "geometry": {"type": "Point", "coordinates": [127.021193754208, 37.5186874273555]}, "properties": {"name": "\uc6d0\uc870\uc61b\ub0a0\uc21c\ub300\uc804\ubb38\uc810", "address": "\uc11c\uc6b8 \uac15\ub0a8\uad6c \uc555\uad6c\uc815\ub85c2\uae38 49", "website": "http://place.map.daum.net/16587015", "source": "\uc2e0\uc0ac\ub3d9 - \uc2e0\uc0ac\uc5ed - \uc6d0\uc870 \uc61b\ub0a0 \uc21c\ub300 \uc804\ubb38\uc810"}}
  ,{"type": "Feature", "geometry": {"type": "Point", "coordinates": [126.927836633278, 37.4797618423074]}, "properties": {"name": "\uad6d\uac15\uc21c\ub300 \uc2e0\ub9bc\uc810", "address": "\uc11c\uc6b8 \uad00\uc545\uad6c \uc2e0\uc6d0\ub85c 5", "website": "http://place.map.daum.net/27224915", "source": "\uc2e0\ub9bc\ub3d9 - \uc2e0\ub9bc\uc5ed - \uad6d\uac15\uc21c\ub300"}}
  ,{"type": "Feature", "geometry": {"type": "Point", "coordinates": [126.920911848468, 37.4979145153724]}, "properties": {"name": "\uc11c\uc77c\uc21c\ub300\uad6d", "address": "\uc11c\uc6b8 \ub3d9\uc791\uad6c \uc5ec\uc758\ub300\ubc29\ub85c24\uae38 10-4", "website": "http://place.map.daum.net/27454501", "source": "\uc2e0\ub300\ubc29\ub3d9 - \ubcf4\ub77c\ub9e4\uc5ed - \uc11c\uc77c\uc21c\ub300\uad6d"}}
  ,{"type": "Feature", "geometry": {"type": "Point", "coordinates": [127.125418933144, 37.509648746214]}, "properties": {"name": "\ubc31\uc554\uc655\uc21c\ub300", "address": "\uc11c\uc6b8 \uc1a1\ud30c\uad6c \uc704\ub840\uc131\ub300\ub85c18\uae38 27-6", "website": "http://place.map.daum.net/9078120", "source": "\ubc29\uc774\ub3d9 - \ubc29\uc774\uc5ed - \ubc31\uc554\uc655\uc21c\ub300"}}
  ,{"type": "Feature", "geometry": {"type": "Point", "coordinates": [127.121314000573, 37.4947323862486]}, "properties": {"name": "\ud568\uacbd\ub3c4\ucc39\uc300\uc21c\ub300", "address": "\uc11c\uc6b8 \uc1a1\ud30c\uad6c \uc1a1\ud30c\ub300\ub85c28\uae38 32", "website": "http://place.map.daum.net/26971014", "source": "\uac00\ub77d\ub3d9 - \uacbd\ucc30\ubcd1\uc6d0\uc5ed - \ud568\uacbd\ub3c4 \ucc39\uc300\uc21c\ub300"}}
  ,{"type": "Feature", "geometry": {"type": "Point", "coordinates": [127.010126427681, 37.5530494550062]}, "properties": {"name": "\uc57d\uc218\uc21c\ub300\uad6d", "address": "\uc11c\uc6b8 \uc911\uad6c \ub2e4\uc0b0\ub85c8\uae38 7", "website": "http://place.map.daum.net/13499817", "source": "\uc2e0\ub2f9\ub3d9 - \uc57d\uc218\uc5ed - \uc57d\uc218\uc21c\ub300\uad6d"}}
  ,{"type": "Feature", "geometry": {"type": "Point", "coordinates": [127.009868375983, 37.5528620692666]}, "properties": {"name": "\ud574\ub0a8\uc21c\ub300\uad6d", "address": "\uc11c\uc6b8 \uc911\uad6c \ub2e4\uc0b0\ub85c8\uae38 8", "website": "http://place.map.daum.net/27439556", "source": "\uc57d\uc218\ub3d9 - \uc57d\uc218\uc5ed - \ud574\ub0a8\uc21c\ub300\uad6d"}}
  ,{"type": "Feature", "geometry": {"type": "Point", "coordinates": [126.9531621044387, 37.54454958877756]}, "properties": {"name": "\ub9c8\ud3ec\uc624\ud5a5\uc871\ubc1c", "address": "\uc11c\uc6b8 \ub9c8\ud3ec\uad6c \ub9cc\ub9ac\uc7ac\ub85c 19", "website": "http://place.map.daum.net/7864536", "source": "\uacf5\ub355\ub3d9 - \uacf5\ub355\uc5ed - \ub9c8\ud3ec \uc624\ud5a5\uc871\ubc1c"}}
  ,{"type": "Feature", "geometry": {"type": "Point", "coordinates": [127.003138336262, 37.583355738677]}, "properties": {"name": "\uc21c\ub300\uc2e4\ub85d \ub300\ud559\ub85c\ubcf8\uc810", "address": "\uc11c\uc6b8 \uc885\ub85c\uad6c \ub3d9\uc22d\uae38 127", "website": "http://place.map.daum.net/22961938", "source": "\ub3d9\uc22d\ub3d9 - \ud61c\ud654\uc5ed - \uc21c\ub300\uc2e4\ub85d"}}
  ,{"type": "Feature", "geometry": {"type": "Point", "coordinates": [127.138840731368, 37.5357555817489]}, "properties": {"name": "\uc7a5\ud130\uc21c\ub300\uad6d", "address": "\uc11c\uc6b8 \uac15\ub3d9\uad6c \uc591\uc7ac\ub300\ub85c 1453", "website": "http://place.map.daum.net/16819010", "source": "\uae38\ub3d9 - \uae38\ub3d9\uc5ed - \uc7a5\ud130\uc21c\ub300\uad6d"}}
  ,{"type": "Feature", "geometry": {"type": "Point", "coordinates": [127.116219047263, 37.5344465306038]}, "properties": {"name": "\uc544\ubc14\uc774\uc21c\ub300", "address": "\uc11c\uc6b8 \uc1a1\ud30c\uad6c \ud48d\uc131\ub85c 32-1", "website": "http://place.map.daum.net/16528404", "source": "\ud48d\ub0a9\ub3d9 - \uac15\ub3d9\uad6c\uccad\uc5ed - \uc544\ubc14\uc774\uc21c\ub300"}}
]}
