{
 "type": "FeatureCollection",
 "features": [
  {
   "type": "Feature",
   "geometry": {
    "type": "Point",
    "coordinates": [
     126.922744744681,
     37.549705338762
    ]
   },
   "properties": {
    "pid": "21882779",
    "name": "The450",
    "phone": "02-338-0046",
    "source": "상수동 - 상수역 - The 450",
    "address": "서울 마포구 와우산로13길 7",
    "website": "http://place.map.daum.net/21882779",
    "category": "스테이크, BBQ"
   }
  },
  {
   "type": "Feature",
   "geometry": {
    "type": "Point",
    "coordinates": [
     126.98620205580998,
     37.57917075928636
    ]
   },
   "properties": {
    "pid": "22960250",
    "name": "2046팬스테이크 본점",
    "phone": "",
    "source": "계동 - 안국역 - 2046팬스테이크",
    "address": "서울 종로구 북촌로4길 20",
    "website": "http://place.map.daum.net/22960250",
    "category": "스테이크, BBQ"
   }
  },
  {
   "type": "Feature",
   "geometry": {
    "type": "Point",
    "coordinates": [
     127.020579555371,
     37.5229186457253
    ]
   },
   "properties": {
    "pid": "8669196",
    "name": "구스테이크528",
    "phone": "02-511-0917",
    "source": "신사동 - 신사역 - 구스테이크 528",
    "address": "서울 강남구 압구정로 108",
    "website": "http://place.map.daum.net/8669196",
    "category": "스테이크, BBQ"
   }
  },
  {
   "type": "Feature",
   "geometry": {
    "type": "Point",
    "coordinates": [
     127.025098728207,
     37.5191263516736
    ]
   },
   "properties": {
    "pid": "20941381",
    "name": "미드가르드",
    "phone": "02-516-9400",
    "source": "신사동 - 신사역 - 미드가르드",
    "address": "서울 강남구 도산대로17길 6",
    "website": "http://place.map.daum.net/20941381",
    "category": "스테이크, BBQ"
   }
  },
  {
   "type": "Feature",
   "geometry": {
    "type": "Point",
    "coordinates": [
     126.927201303113,
     37.6030578422013
    ]
   },
   "properties": {
    "pid": "27373661",
    "name": "킹콩부대찌개 은평구청점",
    "phone": "02-353-1102",
    "source": "신사동 - 압구정역 - 킹콩스테이크",
    "address": "서울 은평구 녹번로 8",
    "website": "http://place.map.daum.net/27373661",
    "category": "스테이크, BBQ"
   }
  },
  {
   "type": "Feature",
   "geometry": {
    "type": "Point",
    "coordinates": [
     127.03440343069,
     37.5231316686112
    ]
   },
   "properties": {
    "pid": "8079815",
    "name": "저스트스테이크",
    "phone": "02-544-9357",
    "source": "신사동 - 압구정로데오역 - 저스트스테이크",
    "address": "서울 강남구 언주로152길 11-7",
    "website": "http://place.map.daum.net/8079815",
    "category": "스테이크, BBQ"
   }
  },
  {
   "type": "Feature",
   "geometry": {
    "type": "Point",
    "coordinates": [
     127.034851174065,
     37.5226377879245
    ]
   },
   "properties": {
    "pid": "12684080",
    "name": "이사벨더부처 압구정점",
    "phone": "02-518-9825",
    "source": "신사동 - 압구정로데오역 - 이사벨더부처",
    "address": "서울 강남구 언주로152길 14",
    "website": "http://place.map.daum.net/12684080",
    "category": "스테이크, BBQ"
   }
  },
  {
   "type": "Feature",
   "geometry": {
    "type": "Point",
    "coordinates": [
     127.035708081618,
     37.5261874812079
    ]
   },
   "properties": {
    "pid": "14723734",
    "name": "장스테이크하우스",
    "phone": "02-548-9621",
    "source": "신사동 - 압구정로데오역 - 장스테이크 하우스",
    "address": "서울 강남구 언주로168길 25",
    "website": "http://place.map.daum.net/14723734",
    "category": "스테이크, BBQ"
   }
  },
  {
   "type": "Feature",
   "geometry": {
    "type": "Point",
    "coordinates": [
     126.96410021212552,
     37.595766200303395
    ]
   },
   "properties": {
    "pid": "1162409103",
    "name": "그릴엔포",
    "phone": "",
    "source": "부암동 - 안국역 - 립스테이크",
    "address": "서울 종로구 자하문로 242",
    "website": "http://place.map.daum.net/1162409103",
    "category": "스테이크, BBQ"
   }
  },
  {
   "type": "Feature",
   "geometry": {
    "type": "Point",
    "coordinates": [
     127.058505908235,
     37.5088575001708
    ]
   },
   "properties": {
    "pid": "19514179",
    "name": "붓처스컷 삼성점",
    "phone": "02-552-6647",
    "source": "청담동 - 압구정로데오역 - 붓처스컷",
    "address": "서울 강남구 테헤란로87길 17",
    "website": "http://place.map.daum.net/19514179",
    "category": "스테이크, BBQ"
   }
  },
  {
   "type": "Feature",
   "geometry": {
    "type": "Point",
    "coordinates": [
     127.044974910882,
     37.5250058050897
    ]
   },
   "properties": {
    "pid": "25415531",
    "name": "볼트82",
    "phone": "02-544-9234",
    "source": "청담동 - 압구정로데오역 - 볼트 82",
    "address": "서울 강남구 압구정로72길 22",
    "website": "http://place.map.daum.net/25415531",
    "category": "스테이크, BBQ"
   }
  },
  {
   "type": "Feature",
   "geometry": {
    "type": "Point",
    "coordinates": [
     127.041422378086,
     37.5244016309384
    ]
   },
   "properties": {
    "pid": "26572124",
    "name": "울프강스테이크하우스",
    "phone": "02-556-8700",
    "source": "청담동 - 압구정로데오역 - 울프강스테이크 하우스",
    "address": "서울 강남구 선릉로152길 21",
    "website": "http://place.map.daum.net/26572124",
    "category": "스테이크, BBQ"
   }
  },
  {
   "type": "Feature",
   "geometry": {
    "type": "Point",
    "coordinates": [
     127.005174317802,
     37.5559077408633
    ]
   },
   "properties": {
    "pid": "7867106",
    "name": "신라호텔 콘티넨탈",
    "phone": "02-2230-3369",
    "source": "장충동 - 동대입구역 - 콘티넨탈",
    "address": "서울 중구 동호로 249",
    "website": "http://place.map.daum.net/7867106",
    "category": "스테이크, BBQ"
   }
  },
  {
   "type": "Feature",
   "geometry": {
    "type": "Point",
    "coordinates": [
     127.0259240103325,
     37.49810753381494
    ]
   },
   "properties": {
    "pid": "22211960",
    "name": "로리스더프라임립",
    "phone": "02-590-2800",
    "source": "서초동 - 강남역 - 로리스 더 프라임립",
    "address": "서울 서초구 서초대로 411",
    "website": "http://place.map.daum.net/22211960",
    "category": "스테이크, BBQ"
   }
  },
  {
   "type": "Feature",
   "geometry": {
    "type": "Point",
    "coordinates": [
     126.998909840534,
     37.4983158026807
    ]
   },
   "properties": {
    "pid": "20646931",
    "name": "르지우",
    "phone": "02-3476-7036",
    "source": "반포동 - 고속터미널역 - 르지우",
    "address": "서울 서초구 사평대로26길 40",
    "website": "http://place.map.daum.net/20646931",
    "category": "스테이크, BBQ"
   }
  },
  {
   "type": "Feature",
   "geometry": {
    "type": "Point",
    "coordinates": [
     126.998452994747,
     37.4970543885099
    ]
   },
   "properties": {
    "pid": "11088100",
    "name": "라싸브어",
    "phone": "02-591-6713",
    "source": "반포동 - 고속터미널역 - 라싸브어",
    "address": "서울 서초구 서래로 24",
    "website": "http://place.map.daum.net/11088100",
    "category": "스테이크, BBQ"
   }
  },
  {
   "type": "Feature",
   "geometry": {
    "type": "Point",
    "coordinates": [
     127.008743263297,
     37.5704496133822
    ]
   },
   "properties": {
    "pid": "26407092",
    "name": "BLT스테이크",
    "phone": "02-2276-3330",
    "source": "종로 6가 - 동대문역 - BLT 스테이크",
    "address": "서울 종로구 청계천로 279",
    "website": "http://place.map.daum.net/26407092",
    "category": "스테이크, BBQ"
   }
  },
  {
   "type": "Feature",
   "geometry": {
    "type": "Point",
    "coordinates": [
     126.99490405457,
     37.5351379115748
    ]
   },
   "properties": {
    "pid": "26814600",
    "name": "오레노 이태원점",
    "phone": "02-794-0055",
    "source": "이태원동 - 이태원역 - 오레노",
    "address": "서울 용산구 이태원로27가길 8",
    "website": "http://place.map.daum.net/26814600",
    "category": "스테이크, BBQ"
   }
  },
  {
   "type": "Feature",
   "geometry": {
    "type": "Point",
    "coordinates": [
     126.989713251038,
     37.5338149042573
    ]
   },
   "properties": {
    "pid": "25090873",
    "name": "라이너스바베큐",
    "phone": "02-790-2920",
    "source": "이태원동 - 녹사평역 - 라이너스 바베큐",
    "address": "서울 용산구 이태원로 136-13",
    "website": "http://place.map.daum.net/25090873",
    "category": "스테이크, BBQ"
   }
  },
  {
   "type": "Feature",
   "geometry": {
    "type": "Point",
    "coordinates": [
     126.995528253629,
     37.5409728148364
    ]
   },
   "properties": {
    "pid": "618020526",
    "name": "로코스비비큐",
    "phone": "",
    "source": "이태원동 - 녹사평역 - 로코스비비큐",
    "address": "서울 용산구 회나무로 83",
    "website": "http://place.map.daum.net/618020526",
    "category": "스테이크, BBQ"
   }
  },
  {
   "type": "Feature",
   "geometry": {
    "type": "Point",
    "coordinates": [
     126.988676799772,
     37.5343626179811
    ]
   },
   "properties": {
    "pid": "26776284",
    "name": "킨덜스",
    "phone": "02-790-2550",
    "source": "이태원동 - 녹사평역 - 킨덜스",
    "address": "",
    "website": "http://place.map.daum.net/26776284",
    "category": "스테이크, BBQ"
   }
  },
  {
   "type": "Feature",
   "geometry": {
    "type": "Point",
    "coordinates": [
     126.990667285986,
     37.540813954737
    ]
   },
   "properties": {
    "pid": "24203518",
    "name": "마쵸스헡",
    "phone": "070-8820-2371",
    "source": "이태원동 - 녹사평역 - 마쵸스헡",
    "address": "서울 용산구 회나무로13가길 20",
    "website": "http://place.map.daum.net/24203518",
    "category": "스테이크, BBQ"
   }
  },
  {
   "type": "Feature",
   "geometry": {
    "type": "Point",
    "coordinates": [
     126.988473120688,
     37.5345211744266
    ]
   },
   "properties": {
    "pid": "26827374",
    "name": "매니멀스모크하우스",
    "phone": "02-790-6788",
    "source": "이태원동 - 녹사평역 - 매니멀스모크하우스",
    "address": "서울 용산구 녹사평대로40길 47",
    "website": "http://place.map.daum.net/26827374",
    "category": "스테이크, BBQ"
   }
  },
  {
   "type": "Feature",
   "geometry": {
    "type": "Point",
    "coordinates": [
     126.99300781051,
     37.534849494278
    ]
   },
   "properties": {
    "pid": "17357597",
    "name": "코파카바나그릴",
    "phone": "02-796-1660",
    "source": "이태원동 - 이태원역 - 코파카바나 그릴",
    "address": "서울 용산구 이태원로27가길 41",
    "website": "http://place.map.daum.net/17357597",
    "category": "스테이크, BBQ"
   }
  },
  {
   "type": "Feature",
   "geometry": {
    "type": "Point",
    "coordinates": [
     126.925904531005,
     37.5631898873813
    ]
   },
   "properties": {
    "pid": "17173659",
    "name": "윤씨그릴방",
    "phone": "02-3143-2288",
    "source": "연남동 - 홍대입구역 - 윤씨그릴방",
    "address": "서울 마포구 성미산로 184",
    "website": "http://place.map.daum.net/17173659",
    "category": "스테이크, BBQ"
   }
  },
  {
   "type": "Feature",
   "geometry": {
    "type": "Point",
    "coordinates": [
     126.922157477014,
     37.5485624871053
    ]
   },
   "properties": {
    "pid": "24060959",
    "name": "오스틴",
    "phone": "02-334-5324",
    "source": "상수동 - 상수역 - 오스틴",
    "address": "서울 마포구 독막로15길 18",
    "website": "http://place.map.daum.net/24060959",
    "category": "스테이크, BBQ"
   }
  },
  {
   "type": "Feature",
   "geometry": {
    "type": "Point",
    "coordinates": [
     126.970104666408,
     37.5767531158103
    ]
   },
   "properties": {
    "pid": "26441783",
    "name": "효자바베",
    "phone": "070-8749-0019",
    "source": "체부동 - 안국역 - 효자바베",
    "address": "서울 종로구 자하문로1길 42",
    "website": "http://place.map.daum.net/26441783",
    "category": "스테이크, BBQ"
   }
  },
  {
   "type": "Feature",
   "geometry": {
    "type": "Point",
    "coordinates": [
     126.947505104034,
     37.5433470783607
    ]
   },
   "properties": {
    "pid": "13033048",
    "name": "주주이자카야",
    "phone": "02-718-8929",
    "source": "염리동 - 마포역 - 주주이자카야",
    "address": "서울 마포구 독막로 316",
    "website": "http://place.map.daum.net/13033048",
    "category": "스테이크, BBQ"
   }
  },
  {
   "type": "Feature",
   "geometry": {
    "type": "Point",
    "coordinates": [
     127.049585293354,
     37.5239660048155
    ]
   },
   "properties": {
    "pid": "25575889",
    "name": "로코8",
    "phone": "02-3446-8887",
    "source": "청담동 - 청담역 - Loco8",
    "address": "서울 강남구 도산대로90길 3",
    "website": "http://place.map.daum.net/25575889",
    "category": "스테이크, BBQ"
   }
  },
  {
   "type": "Feature",
   "geometry": {
    "type": "Point",
    "coordinates": [
     126.975045595348,
     37.5205319470453
    ]
   },
   "properties": {
    "pid": "24482696",
    "name": "바베큐큐브",
    "phone": "02-797-5688",
    "source": "이촌동 - 동부이촌동역 - 바베큐큐브",
    "address": "서울 용산구 이촌로77길 19",
    "website": "http://place.map.daum.net/24482696",
    "category": "스테이크, BBQ"
   }
  },
  {
   "type": "Feature",
   "geometry": {
    "type": "Point",
    "coordinates": [
     127.006193108447,
     37.5038838621865
    ]
   },
   "properties": {
    "pid": "26930532",
    "name": "텍사스데브라질 센트럴시티점",
    "phone": "02-6282-5000",
    "source": "반포동 - 고속터미널역 - 텍사스 데 브라질",
    "address": "서울 서초구 사평대로 205",
    "website": "http://place.map.daum.net/26930532",
    "category": "스테이크, BBQ"
   }
  }
 ]
}