{
 "type": "FeatureCollection",
 "features": [
  {
   "type": "Feature",
   "geometry": {
    "type": "Point",
    "coordinates": [
     126.837845825537,
     37.5593680566266
    ]
   },
   "properties": {
    "pid": "27501934",
    "name": "똑순이아구찜",
    "phone": "02-2668-3030",
    "source": "가양동 - 발산역 - 똑순이아구찜",
    "address": "서울 강서구 강서로 375-8",
    "website": "http://place.map.daum.net/27501934",
    "category": "아구찜"
   }
  },
  {
   "type": "Feature",
   "geometry": {
    "type": "Point",
    "coordinates": [
     126.83759458402335,
     37.54055031072513
    ]
   },
   "properties": {
    "pid": "20551873",
    "name": "맹순이 꽃게아구찜전문점",
    "phone": "",
    "source": "내발산동 - 발산역 - 맹순이꽃게아구찜",
    "address": "서울 강서구 화곡로 142",
    "website": "http://place.map.daum.net/20551873",
    "category": "아구찜"
   }
  },
  {
   "type": "Feature",
   "geometry": {
    "type": "Point",
    "coordinates": [
     126.838278220045,
     37.5603921811808
    ]
   },
   "properties": {
    "pid": "27587956",
    "name": "다오세",
    "phone": "02-2603-2603",
    "source": "마곡동 - 발산역 - 다오세",
    "address": "서울 강서구 강서로 391",
    "website": "http://place.map.daum.net/27587956",
    "category": "아구찜"
   }
  },
  {
   "type": "Feature",
   "geometry": {
    "type": "Point",
    "coordinates": [
     126.838662107569,
     37.5419222602241
    ]
   },
   "properties": {
    "pid": "17092510",
    "name": "본가왕해물찜",
    "phone": "02-2697-0774",
    "source": "화곡동 - 화곡역 - 본가왕해물찜",
    "address": "서울 강서구 강서로33길 20",
    "website": "http://place.map.daum.net/17092510",
    "category": "아구찜"
   }
  },
  {
   "type": "Feature",
   "geometry": {
    "type": "Point",
    "coordinates": [
     126.926457654933,
     37.5992263697125
    ]
   },
   "properties": {
    "pid": "26895942",
    "name": "마산아구찜",
    "phone": "02-384-3007",
    "source": "응암동 - 음암역 - 마산아구찜",
    "address": "",
    "website": "http://place.map.daum.net/26895942",
    "category": "아구찜"
   }
  },
  {
   "type": "Feature",
   "geometry": {
    "type": "Point",
    "coordinates": [
     126.90739883547,
     37.5649716072044
    ]
   },
   "properties": {
    "pid": "16050290",
    "name": "군산찜",
    "phone": "02-306-3977",
    "source": "성산동 - 마포구청역 - 군산찜",
    "address": "서울 마포구 새터산길 2",
    "website": "http://place.map.daum.net/16050290",
    "category": "아구찜"
   }
  },
  {
   "type": "Feature",
   "geometry": {
    "type": "Point",
    "coordinates": [
     126.923485007967,
     37.5606114942821
    ]
   },
   "properties": {
    "pid": "18411608",
    "name": "나무그늘집",
    "phone": "02-322-0985",
    "source": "연남동 - 홍대입구역 - 나무그늘집",
    "address": "서울 마포구 연남로 8",
    "website": "http://place.map.daum.net/18411608",
    "category": "아구찜"
   }
  },
  {
   "type": "Feature",
   "geometry": {
    "type": "Point",
    "coordinates": [
     126.917933158367,
     37.6155538871069
    ]
   },
   "properties": {
    "pid": "20809318",
    "name": "오늘손칼국수앤찜 연신내점",
    "phone": "02-388-1522",
    "source": "갈현동 - 연신내역 - 오늘손칼국수찜",
    "address": "서울 은평구 연서로 187",
    "website": "http://place.map.daum.net/20809318",
    "category": "아구찜"
   }
  },
  {
   "type": "Feature",
   "geometry": {
    "type": "Point",
    "coordinates": [
     127.0450730472,
     37.5677599703022
    ]
   },
   "properties": {
    "pid": "10330031",
    "name": "목포산꽃게아구찜탕",
    "phone": "02-2292-1270",
    "source": "마장동 - 마장역 - 목포산꽃게",
    "address": "서울 성동구 마장로 325",
    "website": "http://place.map.daum.net/10330031",
    "category": "아구찜"
   }
  },
  {
   "type": "Feature",
   "geometry": {
    "type": "Point",
    "coordinates": [
     127.044869251968,
     37.5676771563279
    ]
   },
   "properties": {
    "pid": "17358375",
    "name": "연평도산꽃게해물탕",
    "phone": "02-2294-6565",
    "source": "마장동 - 마장역 - 연평도꽃게아구낙지",
    "address": "서울 성동구 마장로 323",
    "website": "http://place.map.daum.net/17358375",
    "category": "아구찜"
   }
  },
  {
   "type": "Feature",
   "geometry": {
    "type": "Point",
    "coordinates": [
     127.045154632426,
     37.5679040984346
    ]
   },
   "properties": {
    "pid": "13290574",
    "name": "군산아구산꽃게",
    "phone": "02-2295-7019",
    "source": "마장동 - 마장역 - 군산아구산꽃게",
    "address": "서울 성동구 마장로 327",
    "website": "http://place.map.daum.net/13290574",
    "category": "아구찜"
   }
  },
  {
   "type": "Feature",
   "geometry": {
    "type": "Point",
    "coordinates": [
     127.01079872673391,
     37.55354043932798
    ]
   },
   "properties": {
    "pid": "12068344",
    "name": "약수동해물텀벙 약수동본점",
    "phone": "02-2253-9588",
    "source": "신당동 - 약수역 - 해물텀벙",
    "address": "서울 중구 다산로10길 11",
    "website": "http://place.map.daum.net/12068344",
    "category": "아구찜"
   }
  },
  {
   "type": "Feature",
   "geometry": {
    "type": "Point",
    "coordinates": [
     127.043347606875,
     37.5827027100811
    ]
   },
   "properties": {
    "pid": "15649782",
    "name": "소정",
    "phone": "02-962-8060",
    "source": "제기동 - 청량리역 - 소정",
    "address": "서울 동대문구 약령시로 122-7",
    "website": "http://place.map.daum.net/15649782",
    "category": "아구찜"
   }
  },
  {
   "type": "Feature",
   "geometry": {
    "type": "Point",
    "coordinates": [
     127.056804869796,
     37.5685585964394
    ]
   },
   "properties": {
    "pid": "20253614",
    "name": "늘봄해물찜손칼국수 답십리본점",
    "phone": "02-2215-5051",
    "source": "답십리동 - 답십리역 - 늘봄해물찜",
    "address": "서울 동대문구 전농로 39",
    "website": "http://place.map.daum.net/20253614",
    "category": "아구찜"
   }
  },
  {
   "type": "Feature",
   "geometry": {
    "type": "Point",
    "coordinates": [
     127.034347884518,
     37.6583886337137
    ]
   },
   "properties": {
    "pid": "20555993",
    "name": "복진해물잔치마당",
    "phone": "02-900-4567",
    "source": "쌍문동 - 쌍문역 - 복진해물잔치마당",
    "address": "서울 도봉구 방학로11길 101",
    "website": "http://place.map.daum.net/20555993",
    "category": "아구찜"
   }
  },
  {
   "type": "Feature",
   "geometry": {
    "type": "Point",
    "coordinates": [
     127.089464164698,
     37.5957195299576
    ]
   },
   "properties": {
    "pid": "14564924",
    "name": "양미식당",
    "phone": "02-492-7856",
    "source": "망우동 - 망우역 - 양미식당",
    "address": "서울 중랑구 망우로50길 33",
    "website": "http://place.map.daum.net/14564924",
    "category": "아구찜"
   }
  },
  {
   "type": "Feature",
   "geometry": {
    "type": "Point",
    "coordinates": [
     126.988014298694,
     37.573588395665
    ]
   },
   "properties": {
    "pid": "8359176",
    "name": "마산해물아구찜 낙원본점",
    "phone": "02-763-7494",
    "source": "낙원동 - 종로 3가역 - 통나무식당",
    "address": "서울 종로구 삼일대로 436-1",
    "website": "http://place.map.daum.net/8359176",
    "category": "아구찜"
   }
  },
  {
   "type": "Feature",
   "geometry": {
    "type": "Point",
    "coordinates": [
     126.988009787418,
     37.5734838798017
    ]
   },
   "properties": {
    "pid": "17606599",
    "name": "낙원아구찜",
    "phone": "02-763-8558",
    "source": "낙원동 - 종로 3가역 - 옛날집낙원아구찜",
    "address": "서울 종로구 삼일대로 436",
    "website": "http://place.map.daum.net/17606599",
    "category": "아구찜"
   }
  },
  {
   "type": "Feature",
   "geometry": {
    "type": "Point",
    "coordinates": [
     126.988544198802,
     37.5728027807007
    ]
   },
   "properties": {
    "pid": "25680462",
    "name": "원조마산아구찜",
    "phone": "02-741-4921",
    "source": "낙원동 - 종로 3가역 - 원조마산아구찜",
    "address": "서울 종로구 수표로 132",
    "website": "http://place.map.daum.net/25680462",
    "category": "아구찜"
   }
  },
  {
   "type": "Feature",
   "geometry": {
    "type": "Point",
    "coordinates": [
     126.989073975632,
     37.5727848110212
    ]
   },
   "properties": {
    "pid": "12046907",
    "name": "해수마산아구찜",
    "phone": "02-372-6210",
    "source": "낙원동 - 종로 3가역 - 해수마산아구찜",
    "address": "서울 종로구 돈화문로11길 42",
    "website": "http://place.map.daum.net/12046907",
    "category": "아구찜"
   }
  },
  {
   "type": "Feature",
   "geometry": {
    "type": "Point",
    "coordinates": [
     126.988050530437,
     37.5735415476048
    ]
   },
   "properties": {
    "pid": "11510605",
    "name": "마산아구와해물",
    "phone": "02-765-1338",
    "source": "낙원동 - 종로 3가역 - 마산아구와 해물",
    "address": "서울 종로구 삼일대로 436",
    "website": "http://place.map.daum.net/11510605",
    "category": "아구찜"
   }
  },
  {
   "type": "Feature",
   "geometry": {
    "type": "Point",
    "coordinates": [
     127.055681322767,
     37.5128809488357
    ]
   },
   "properties": {
    "pid": "9313546",
    "name": "오늘은",
    "phone": "02-562-1852",
    "source": "삼성동 - 삼성역 - 오늘은 아구찜",
    "address": "서울 강남구 봉은사로84길 7",
    "website": "http://place.map.daum.net/9313546",
    "category": "아구찜"
   }
  },
  {
   "type": "Feature",
   "geometry": {
    "type": "Point",
    "coordinates": [
     127.020717859302,
     37.5157934886313
    ]
   },
   "properties": {
    "pid": "25040567",
    "name": "부산아구",
    "phone": "02-546-9947",
    "source": "논현동 - 신사역 - 부산아구",
    "address": "서울 강남구 강남대로150길 10",
    "website": "http://place.map.daum.net/25040567",
    "category": "아구찜"
   }
  },
  {
   "type": "Feature",
   "geometry": {
    "type": "Point",
    "coordinates": [
     127.020907897928,
     37.5158222872632
    ]
   },
   "properties": {
    "pid": "18288338",
    "name": "첨벙아구찜 신사본점",
    "phone": "02-543-8873",
    "source": "논현동 - 신사역 - 첨벙",
    "address": "서울 강남구 강남대로150길 12",
    "website": "http://place.map.daum.net/18288338",
    "category": "아구찜"
   }
  },
  {
   "type": "Feature",
   "geometry": {
    "type": "Point",
    "coordinates": [
     127.020708800268,
     37.515757450072
    ]
   },
   "properties": {
    "pid": "9471051",
    "name": "초원아구찜",
    "phone": "02-544-9789",
    "source": "논현동 - 신사역 - 초원",
    "address": "서울 강남구 강남대로150길 10",
    "website": "http://place.map.daum.net/9471051",
    "category": "아구찜"
   }
  },
  {
   "type": "Feature",
   "geometry": {
    "type": "Point",
    "coordinates": [
     127.019165628579,
     37.5145647815267
    ]
   },
   "properties": {
    "pid": "11445020",
    "name": "프로간장게장 신사본점",
    "phone": "02-543-4126",
    "source": "잠원동 - 신사역 - 프로간장게장",
    "address": "서울 서초구 강남대로97길 9",
    "website": "http://place.map.daum.net/11445020",
    "category": "아구찜"
   }
  },
  {
   "type": "Feature",
   "geometry": {
    "type": "Point",
    "coordinates": [
     127.018469195137,
     37.515920002166
    ]
   },
   "properties": {
    "pid": "8111276",
    "name": "마산콧털네",
    "phone": "02-548-9139",
    "source": "잠원동 - 신사역 - 마산콧털네",
    "address": "서울 서초구 나루터로 79",
    "website": "http://place.map.daum.net/8111276",
    "category": "아구찜"
   }
  },
  {
   "type": "Feature",
   "geometry": {
    "type": "Point",
    "coordinates": [
     127.018179302515,
     37.5145937695739
    ]
   },
   "properties": {
    "pid": "16058875",
    "name": "소문난 마산아구해물찜 강남점",
    "phone": "02-3446-7337",
    "source": "잠원동 - 신사역 - 소마구찜",
    "address": "서울 서초구 강남대로99길 29-9",
    "website": "http://place.map.daum.net/16058875",
    "category": "아구찜"
   }
  },
  {
   "type": "Feature",
   "geometry": {
    "type": "Point",
    "coordinates": [
     127.020243173221,
     37.5172387806902
    ]
   },
   "properties": {
    "pid": "10360096",
    "name": "마산옥",
    "phone": "02-544-7207",
    "source": "신사동 - 신사역 - 마산옥",
    "address": "서울 강남구 강남대로152길 9",
    "website": "http://place.map.daum.net/10360096",
    "category": "아구찜"
   }
  },
  {
   "type": "Feature",
   "geometry": {
    "type": "Point",
    "coordinates": [
     126.944867820582,
     37.5413204295349
    ]
   },
   "properties": {
    "pid": "7989698",
    "name": "아름소",
    "phone": "",
    "source": "용강동 - 마포역 - 아름소",
    "address": "서울 마포구 토정로37길 21-5",
    "website": "http://place.map.daum.net/7989698",
    "category": "아구찜"
   }
  },
  {
   "type": "Feature",
   "geometry": {
    "type": "Point",
    "coordinates": [
     126.940771489271,
     37.5416103699035
    ]
   },
   "properties": {
    "pid": "10344387",
    "name": "원마산아구찜 본관",
    "phone": "02-719-0687",
    "source": "용강동 - 마포역 - 마산아구찜",
    "address": "서울 마포구 토정로 282",
    "website": "http://place.map.daum.net/10344387",
    "category": "아구찜"
   }
  },
  {
   "type": "Feature",
   "geometry": {
    "type": "Point",
    "coordinates": [
     126.925199077282,
     37.4989264346672
    ]
   },
   "properties": {
    "pid": "17290260",
    "name": "일진아구찜",
    "phone": "02-817-5554",
    "source": "대방동 - 신대방삼거리역 - 일진아구찜",
    "address": "서울 동작구 여의대방로24길 93",
    "website": "http://place.map.daum.net/17290260",
    "category": "아구찜"
   }
  },
  {
   "type": "Feature",
   "geometry": {
    "type": "Point",
    "coordinates": [
     126.944405049083,
     37.5123295750183
    ]
   },
   "properties": {
    "pid": "26895397",
    "name": "대한해물 노량진점 본점",
    "phone": "02-3280-8023",
    "source": "노량진동 - 노량진역 - 대한해물",
    "address": "서울 동작구 만양로 100",
    "website": "http://place.map.daum.net/26895397",
    "category": "아구찜"
   }
  },
  {
   "type": "Feature",
   "geometry": {
    "type": "Point",
    "coordinates": [
     126.98034638536,
     37.477540533386
    ]
   },
   "properties": {
    "pid": "19345354",
    "name": "해물한소반 사당직영점",
    "phone": "02-597-0717",
    "source": "사당동 - 사당역 - 해물한소반",
    "address": "서울 동작구 동작대로1길 18",
    "website": "http://place.map.daum.net/19345354",
    "category": "아구찜"
   }
  },
  {
   "type": "Feature",
   "geometry": {
    "type": "Point",
    "coordinates": [
     126.958892735144,
     37.4778846089314
    ]
   },
   "properties": {
    "pid": "9289455",
    "name": "소문난대구왕뽈찜해물아구찜 봉천점",
    "phone": "02-887-5186",
    "source": "낙성대동 - 낙성대역 - 소문난대구왕뽈찜",
    "address": "서울 관악구 봉천로62길 5",
    "website": "http://place.map.daum.net/9289455",
    "category": "아구찜"
   }
  },
  {
   "type": "Feature",
   "geometry": {
    "type": "Point",
    "coordinates": [
     126.953662755264,
     37.481540770805
    ]
   },
   "properties": {
    "pid": "12058323",
    "name": "대호아구집",
    "phone": "02-889-1700",
    "source": "행운동 - 서울대입구역 - 대호아구찜",
    "address": "서울 관악구 남부순환로 1829-9",
    "website": "http://place.map.daum.net/12058323",
    "category": "아구찜"
   }
  },
  {
   "type": "Feature",
   "geometry": {
    "type": "Point",
    "coordinates": [
     127.127634693179,
     37.5036997429552
    ]
   },
   "properties": {
    "pid": "18458743",
    "name": "군산집",
    "phone": "02-406-8867",
    "source": "오금동 - 오금역 - 군산집",
    "address": "서울 송파구 중대로25길 16",
    "website": "http://place.map.daum.net/18458743",
    "category": "아구찜"
   }
  },
  {
   "type": "Feature",
   "geometry": {
    "type": "Point",
    "coordinates": [
     127.155581992216,
     37.5469107035602
    ]
   },
   "properties": {
    "pid": "10140155",
    "name": "군산아구",
    "phone": "02-429-6224",
    "source": "명일동 - 굽은다리역 - 군산아구",
    "address": "서울 강동구 상암로67길 13",
    "website": "http://place.map.daum.net/10140155",
    "category": "아구찜"
   }
  }
 ]
}