{
 "type": "FeatureCollection",
 "features": [
  {
   "type": "Feature",
   "geometry": {
    "type": "Point",
    "coordinates": [
     126.922166946003,
     37.5481624500074
    ]
   },
   "properties": {
    "pid": "20752239",
    "name": "펠앤콜 홍대본점",
    "phone": "070-4411-1434",
    "source": "서교동 - 홍대입구역 - 펠앤콜",
    "address": "서울 마포구 와우산로 39-21",
    "website": "http://place.map.daum.net/20752239",
    "category": "아이스크림, 젤라또"
   }
  },
  {
   "type": "Feature",
   "geometry": {
    "type": "Point",
    "coordinates": [
     126.922305071329,
     37.550278085175
    ]
   },
   "properties": {
    "pid": "18082326",
    "name": "젤라띠젤라띠",
    "phone": "02-3144-3281",
    "source": "서교동 - 홍대입구역 - 젤라띠젤라띠",
    "address": "서울 마포구 와우산로17길 12",
    "website": "http://place.map.daum.net/18082326",
    "category": "아이스크림, 젤라또"
   }
  },
  {
   "type": "Feature",
   "geometry": {
    "type": "Point",
    "coordinates": [
     126.92110758328943,
     37.549578144075085
    ]
   },
   "properties": {
    "pid": "24995255",
    "name": "마크렘",
    "phone": "02-2149-0097",
    "source": "서교동 - 홍대입구역 - 마크렘",
    "address": "서울 마포구 어울마당로 52",
    "website": "http://place.map.daum.net/24995255",
    "category": "아이스크림, 젤라또"
   }
  },
  {
   "type": "Feature",
   "geometry": {
    "type": "Point",
    "coordinates": [
     126.904914753738,
     37.5530872872245
    ]
   },
   "properties": {
    "pid": "1484146990",
    "name": "카카오다다",
    "phone": "02-3446-7007",
    "source": "서교동 - 홍대입구역 - 카카오",
    "address": "서울 마포구 희우정로10길 15",
    "website": "http://place.map.daum.net/1484146990",
    "category": "아이스크림, 젤라또"
   }
  },
  {
   "type": "Feature",
   "geometry": {
    "type": "Point",
    "coordinates": [
     126.929680373346,
     37.5680179307946
    ]
   },
   "properties": {
    "pid": "27238675",
    "name": "콜드레시피",
    "phone": "",
    "source": "연희동 - 홍대입구역 - 콜드레시피",
    "address": "서울 서대문구 연희로11라길 2",
    "website": "http://place.map.daum.net/27238675",
    "category": "아이스크림, 젤라또"
   }
  },
  {
   "type": "Feature",
   "geometry": {
    "type": "Point",
    "coordinates": [
     126.901999420096,
     37.5566060013495
    ]
   },
   "properties": {
    "pid": "27413682",
    "name": "빙하의별",
    "phone": "02-336-0604",
    "source": "망원동 - 망원역 - 빙하의별",
    "address": "서울 마포구 망원로 46",
    "website": "http://place.map.daum.net/27413682",
    "category": "아이스크림, 젤라또"
   }
  },
  {
   "type": "Feature",
   "geometry": {
    "type": "Point",
    "coordinates": [
     126.944044732706,
     37.5586047951714
    ]
   },
   "properties": {
    "pid": "26983478",
    "name": "블랙번즈 이대점",
    "phone": "02-393-9077",
    "source": "대현동 - 이대 - 블랙번즈",
    "address": "서울 서대문구 이화여대7길 29",
    "website": "http://place.map.daum.net/26983478",
    "category": "아이스크림, 젤라또"
   }
  },
  {
   "type": "Feature",
   "geometry": {
    "type": "Point",
    "coordinates": [
     127.000398263852,
     37.535455173108
    ]
   },
   "properties": {
    "pid": "24010922",
    "name": "세컨스쿱젤라또",
    "phone": "",
    "source": "이태원동 - 이태원역 - 세컨스쿱젤라또",
    "address": "서울 용산구 대사관로5길 28",
    "website": "http://place.map.daum.net/24010922",
    "category": "아이스크림, 젤라또"
   }
  },
  {
   "type": "Feature",
   "geometry": {
    "type": "Point",
    "coordinates": [
     126.993188936726,
     37.5337646998067
    ]
   },
   "properties": {
    "pid": "26783033",
    "name": "주카스젤라또",
    "phone": "070-7012-0615",
    "source": "이태원동 - 이태원역 - 주카스젤라또",
    "address": "서울 용산구 이태원로26길 12",
    "website": "http://place.map.daum.net/26783033",
    "category": "아이스크림, 젤라또"
   }
  },
  {
   "type": "Feature",
   "geometry": {
    "type": "Point",
    "coordinates": [
     126.987667118337,
     37.5371520148732
    ]
   },
   "properties": {
    "pid": "26944434",
    "name": "밀크공방",
    "phone": "",
    "source": "이태원동 - 녹사평역 - 밀크공방",
    "address": "서울 용산구 녹사평대로46길 16",
    "website": "http://place.map.daum.net/26944434",
    "category": "아이스크림, 젤라또"
   }
  },
  {
   "type": "Feature",
   "geometry": {
    "type": "Point",
    "coordinates": [
     127.00434902448572,
     37.505316194910485
    ]
   },
   "properties": {
    "pid": "27315475",
    "name": "르타오 신세계백화점 강남점",
    "phone": "02-3479-1984",
    "source": "신사동 - 신사역 - 르타오",
    "address": "서울 서초구 신반포로 176",
    "website": "http://place.map.daum.net/27315475",
    "category": "아이스크림, 젤라또"
   }
  },
  {
   "type": "Feature",
   "geometry": {
    "type": "Point",
    "coordinates": [
     126.890772876755,
     37.5811212379516
    ]
   },
   "properties": {
    "pid": "25085286",
    "name": "고디바 MBC상암점",
    "phone": "02-306-3335",
    "source": "신사동 - 신사역 - 고디바",
    "address": "서울 마포구 성암로 267",
    "website": "http://place.map.daum.net/25085286",
    "category": "아이스크림, 젤라또"
   }
  },
  {
   "type": "Feature",
   "geometry": {
    "type": "Point",
    "coordinates": [
     127.024132068394,
     37.5242010008578
    ]
   },
   "properties": {
    "pid": "26828851",
    "name": "일젤라또",
    "phone": "02-511-1177",
    "source": "신사동 - 압구정역 - 일젤라또",
    "address": "서울 강남구 논현로175길 61",
    "website": "http://place.map.daum.net/26828851",
    "category": "아이스크림, 젤라또"
   }
  },
  {
   "type": "Feature",
   "geometry": {
    "type": "Point",
    "coordinates": [
     126.886621357713,
     37.4787419758423
    ]
   },
   "properties": {
    "pid": "1141245980",
    "name": "1964백미당 마리오아울렛 구로점",
    "phone": "",
    "source": "신사동 - 압구정역 - 백미당",
    "address": "서울 금천구 디지털로9길 23",
    "website": "http://place.map.daum.net/1141245980",
    "category": "아이스크림, 젤라또"
   }
  },
  {
   "type": "Feature",
   "geometry": {
    "type": "Point",
    "coordinates": [
     127.018545482777,
     37.5133755552735
    ]
   },
   "properties": {
    "pid": "24287338",
    "name": "비스토핑",
    "phone": "070-7792-0409",
    "source": "잠원동 - 신사역 - 비스토핑",
    "address": "서울 서초구 신반포로47길 68",
    "website": "http://place.map.daum.net/24287338",
    "category": "아이스크림, 젤라또"
   }
  },
  {
   "type": "Feature",
   "geometry": {
    "type": "Point",
    "coordinates": [
     127.02860672165701,
     37.49476062438435
    ]
   },
   "properties": {
    "pid": "842380186",
    "name": "밀크카우",
    "phone": "",
    "source": "역삼동 - 강남역 - 밀크카우",
    "address": "서울 서초구 강남대로 359",
    "website": "http://place.map.daum.net/842380186",
    "category": "아이스크림, 젤라또"
   }
  },
  {
   "type": "Feature",
   "geometry": {
    "type": "Point",
    "coordinates": [
     127.08418920185665,
     37.51208442520578
    ]
   },
   "properties": {
    "pid": "21299710",
    "name": "브리스 앤 프리즈",
    "phone": "",
    "source": "삼성동 - 삼성역 - 프리즈",
    "address": "서울 송파구 올림픽로 119",
    "website": "http://place.map.daum.net/21299710",
    "category": "아이스크림, 젤라또"
   }
  },
  {
   "type": "Feature",
   "geometry": {
    "type": "Point",
    "coordinates": [
     127.058500249318,
     37.5132003437801
    ]
   },
   "properties": {
    "pid": "26897602",
    "name": "빨라쪼델프레도 코엑스몰점",
    "phone": "02-6002-3805",
    "source": "역삼동 - 강남역 - 빨라쪼델프레도",
    "address": "서울 강남구 영동대로 513",
    "website": "http://place.map.daum.net/26897602",
    "category": "아이스크림, 젤라또"
   }
  },
  {
   "type": "Feature",
   "geometry": {
    "type": "Point",
    "coordinates": [
     127.00433545233611,
     37.50530177926614
    ]
   },
   "properties": {
    "pid": "26855918",
    "name": "오슬로 신세계강남점",
    "phone": "02-3479-1564",
    "source": "반포동 - 고속터미널역 - 오슬로",
    "address": "서울 서초구 신반포로 176",
    "website": "http://place.map.daum.net/26855918",
    "category": "아이스크림, 젤라또"
   }
  },
  {
   "type": "Feature",
   "geometry": {
    "type": "Point",
    "coordinates": [
     127.00436711872966,
     37.50528375854523
    ]
   },
   "properties": {
    "pid": "19729641",
    "name": "브릭팝 신세계강남점",
    "phone": "",
    "source": "반포동 - 고속터미널역 - 브릭팝",
    "address": "서울 서초구 신반포로 176",
    "website": "http://place.map.daum.net/19729641",
    "category": "아이스크림, 젤라또"
   }
  },
  {
   "type": "Feature",
   "geometry": {
    "type": "Point",
    "coordinates": [
     127.00434902312443,
     37.505280154988135
    ]
   },
   "properties": {
    "pid": "27286365",
    "name": "오뗄두스 신세계백화점 강남점",
    "phone": "02-310-5397",
    "source": "반포동 - 고속터미널역 - 오뗄두스",
    "address": "서울 서초구 신반포로 176",
    "website": "http://place.map.daum.net/27286365",
    "category": "아이스크림, 젤라또"
   }
  },
  {
   "type": "Feature",
   "geometry": {
    "type": "Point",
    "coordinates": [
     126.993880818352,
     37.4849410953161
    ]
   },
   "properties": {
    "pid": "16617581",
    "name": "바다목장",
    "phone": "02-597-4311",
    "source": "방배동 - 내방역 - 방배목장",
    "address": "서울 서초구 방배로19길 21",
    "website": "http://place.map.daum.net/16617581",
    "category": "아이스크림, 젤라또"
   }
  },
  {
   "type": "Feature",
   "geometry": {
    "type": "Point",
    "coordinates": [
     126.986775370269,
     37.5636773115379
    ]
   },
   "properties": {
    "pid": "26609754",
    "name": "에쎄레젤라또 명동",
    "phone": "02-771-5860",
    "source": "명동 - 명동역 - 에쎄레",
    "address": "서울 중구 명동길 74",
    "website": "http://place.map.daum.net/26609754",
    "category": "아이스크림, 젤라또"
   }
  }
 ]
}