{
 "type": "FeatureCollection",
 "features": [
  {
   "type": "Feature",
   "geometry": {
    "type": "Point",
    "coordinates": [
     126.923857747432,
     37.5546831743202
    ]
   },
   "properties": {
    "pid": "13337463",
    "name": "가미우동",
    "phone": "02-322-3302",
    "source": "서교동 - 홍대입구역 - 가미우동",
    "address": "서울 마포구 홍익로2길 23",
    "website": "http://place.map.daum.net/13337463",
    "category": "우동"
   }
  },
  {
   "type": "Feature",
   "geometry": {
    "type": "Point",
    "coordinates": [
     126.923996372178,
     37.5519081905067
    ]
   },
   "properties": {
    "pid": "1468848613",
    "name": "카네마야우동 홍대본점",
    "phone": "",
    "source": "서교동 - 홍대입구역 - 카네마야",
    "address": "서울 마포구 와우산로18길 38",
    "website": "http://place.map.daum.net/1468848613",
    "category": "우동"
   }
  },
  {
   "type": "Feature",
   "geometry": {
    "type": "Point",
    "coordinates": [
     126.922766623322,
     37.5548230212585
    ]
   },
   "properties": {
    "pid": "21339864",
    "name": "마루가메제면 홍대점",
    "phone": "02-3144-3767",
    "source": "서교동 - 홍대입구역 - 마루가메",
    "address": "서울 마포구 어울마당로 111",
    "website": "http://place.map.daum.net/21339864",
    "category": "우동"
   }
  },
  {
   "type": "Feature",
   "geometry": {
    "type": "Point",
    "coordinates": [
     126.916809209385,
     37.5548405980745
    ]
   },
   "properties": {
    "pid": "21883668",
    "name": "가츠시",
    "phone": "02-332-3407",
    "source": "서교동 - 홍대입구역 - 가츠시",
    "address": "서울 마포구 동교로18길 5",
    "website": "http://place.map.daum.net/21883668",
    "category": "우동"
   }
  },
  {
   "type": "Feature",
   "geometry": {
    "type": "Point",
    "coordinates": [
     126.922375097591,
     37.5525918942093
    ]
   },
   "properties": {
    "pid": "12771116",
    "name": "카미야",
    "phone": "02-322-5733",
    "source": "서교동 - 홍대입구역 - 카미야",
    "address": "서울 마포구 와우산로21길 28-6",
    "website": "http://place.map.daum.net/12771116",
    "category": "우동"
   }
  },
  {
   "type": "Feature",
   "geometry": {
    "type": "Point",
    "coordinates": [
     126.929171955098,
     37.5550612967006
    ]
   },
   "properties": {
    "pid": "21129871",
    "name": "고토히라우동",
    "phone": "02-333-4885",
    "source": "서교동 - 홍대입구역 - 고토히라우동",
    "address": "서울 마포구 와우산로29길 14-8",
    "website": "http://place.map.daum.net/21129871",
    "category": "우동"
   }
  },
  {
   "type": "Feature",
   "geometry": {
    "type": "Point",
    "coordinates": [
     126.9210194792,
     37.5588871649013
    ]
   },
   "properties": {
    "pid": "7826509",
    "name": "댕구우동",
    "phone": "02-333-9244",
    "source": "동교동 - 홍대입구역 - 댕구우동",
    "address": "서울 마포구 월드컵북로6길 46",
    "website": "http://place.map.daum.net/7826509",
    "category": "우동"
   }
  },
  {
   "type": "Feature",
   "geometry": {
    "type": "Point",
    "coordinates": [
     126.936081637669,
     37.5584674052103
    ]
   },
   "properties": {
    "pid": "8111489",
    "name": "가문의우동",
    "phone": "02-325-8325",
    "source": "동교동 - 홍대입구역 - 나라비우동",
    "address": "서울 서대문구 연세로9길 13",
    "website": "http://place.map.daum.net/8111489",
    "category": "우동"
   }
  },
  {
   "type": "Feature",
   "geometry": {
    "type": "Point",
    "coordinates": [
     126.922707222824,
     37.5553563729012
    ]
   },
   "properties": {
    "pid": "13319007",
    "name": "하까다우동",
    "phone": "",
    "source": "동교동 - 홍대입구역 - 하까다",
    "address": "서울 마포구 홍익로6길 15",
    "website": "http://place.map.daum.net/13319007",
    "category": "우동"
   }
  },
  {
   "type": "Feature",
   "geometry": {
    "type": "Point",
    "coordinates": [
     126.92676553412,
     37.5623759239117
    ]
   },
   "properties": {
    "pid": "15683790",
    "name": "히메지 1호점",
    "phone": "02-334-9245",
    "source": "연남동 - 홍대입구역 - 히메지",
    "address": "서울 마포구 성미산로 198",
    "website": "http://place.map.daum.net/15683790",
    "category": "우동"
   }
  },
  {
   "type": "Feature",
   "geometry": {
    "type": "Point",
    "coordinates": [
     126.91113318815265,
     37.5542454081282
    ]
   },
   "properties": {
    "pid": "15526158",
    "name": "망원동즉석우동돈까스",
    "phone": "02-336-1330",
    "source": "망원동 - 망원역 - 망원동 즉석우동",
    "address": "서울 마포구 동교로 83",
    "website": "http://place.map.daum.net/15526158",
    "category": "우동"
   }
  },
  {
   "type": "Feature",
   "geometry": {
    "type": "Point",
    "coordinates": [
     126.920301399217,
     37.5487558645913
    ]
   },
   "properties": {
    "pid": "12437276",
    "name": "겐로쿠우동 홍대본점",
    "phone": "02-325-8555",
    "source": "상수동 - 상수역 - 겐로쿠우동",
    "address": "서울 마포구 어울마당로 39",
    "website": "http://place.map.daum.net/12437276",
    "category": "우동"
   }
  },
  {
   "type": "Feature",
   "geometry": {
    "type": "Point",
    "coordinates": [
     126.921288265113,
     37.5486772386944
    ]
   },
   "properties": {
    "pid": "21960086",
    "name": "히메시야",
    "phone": "070-8245-4562",
    "source": "상수동 - 상수역 - 히메시야",
    "address": "서울 마포구 독막로15길 3-18",
    "website": "http://place.map.daum.net/21960086",
    "category": "우동"
   }
  },
  {
   "type": "Feature",
   "geometry": {
    "type": "Point",
    "coordinates": [
     126.913219594114,
     37.5468479633888
    ]
   },
   "properties": {
    "pid": "14615296",
    "name": "교다이야",
    "phone": "02-2654-2645",
    "source": "합정동 - 합정역 - 교다이야",
    "address": "서울 마포구 성지길 39",
    "website": "http://place.map.daum.net/14615296",
    "category": "우동"
   }
  },
  {
   "type": "Feature",
   "geometry": {
    "type": "Point",
    "coordinates": [
     126.915060893207,
     37.5516750493151
    ]
   },
   "properties": {
    "pid": "24065719",
    "name": "우동카덴 서교점",
    "phone": "02-6463-6362",
    "source": "서교동 - 합정역 - 우동카덴",
    "address": "서울 마포구 양화로7안길 2-1",
    "website": "http://place.map.daum.net/24065719",
    "category": "우동"
   }
  },
  {
   "type": "Feature",
   "geometry": {
    "type": "Point",
    "coordinates": [
     126.945918927893,
     37.5586525203611
    ]
   },
   "properties": {
    "pid": "8107752",
    "name": "가미",
    "phone": "02-364-3948",
    "source": "대현동 - 이대역 - 가미",
    "address": "서울 서대문구 이화여대8길 2",
    "website": "http://place.map.daum.net/8107752",
    "category": "우동"
   }
  },
  {
   "type": "Feature",
   "geometry": {
    "type": "Point",
    "coordinates": [
     126.974303717077,
     37.5199695620956
    ]
   },
   "properties": {
    "pid": "16558563",
    "name": "스즈란테이",
    "phone": "02-749-5324",
    "source": "이촌동 - 동부이촌동역 - 스즈란테이",
    "address": "서울 용산구 이촌로 245",
    "website": "http://place.map.daum.net/16558563",
    "category": "우동"
   }
  },
  {
   "type": "Feature",
   "geometry": {
    "type": "Point",
    "coordinates": [
     126.976132031743,
     37.5190292984527
    ]
   },
   "properties": {
    "pid": "2072270827",
    "name": "미타니야 동부이촌점",
    "phone": "02-797-4060",
    "source": "이촌동 - 동부이촌동역 - 미타니야",
    "address": "서울 용산구 이촌로 264",
    "website": "http://place.map.daum.net/2072270827",
    "category": "우동"
   }
  },
  {
   "type": "Feature",
   "geometry": {
    "type": "Point",
    "coordinates": [
     126.978575598804,
     37.5182909442996
    ]
   },
   "properties": {
    "pid": "7843760",
    "name": "동문우동전문점",
    "phone": "02-798-6895",
    "source": "이촌동 - 동부이촌동역 - 동문",
    "address": "서울 용산구 이촌로 290",
    "website": "http://place.map.daum.net/7843760",
    "category": "우동"
   }
  },
  {
   "type": "Feature",
   "geometry": {
    "type": "Point",
    "coordinates": [
     126.979942067266,
     37.5182443320853
    ]
   },
   "properties": {
    "pid": "433253049",
    "name": "수락",
    "phone": "02-790-5933",
    "source": "이촌동 - 동부이촌동역 - 보천",
    "address": "서울 용산구 이촌로 303",
    "website": "http://place.map.daum.net/433253049",
    "category": "우동"
   }
  },
  {
   "type": "Feature",
   "geometry": {
    "type": "Point",
    "coordinates": [
     126.980856182674,
     37.5177399219007
    ]
   },
   "properties": {
    "pid": "7915535",
    "name": "사누끼 이촌본점",
    "phone": "02-794-0470",
    "source": "이촌동 - 동부이촌동역 - 사누끼",
    "address": "서울 용산구 이촌로 300",
    "website": "http://place.map.daum.net/7915535",
    "category": "우동"
   }
  },
  {
   "type": "Feature",
   "geometry": {
    "type": "Point",
    "coordinates": [
     126.9750275537072,
     37.520358950660466
    ]
   },
   "properties": {
    "pid": "15922423",
    "name": "이꼬이",
    "phone": "070-8279-9408",
    "source": "이촌동 - 동부이촌동역 - 이꼬이",
    "address": "서울 용산구 이촌로77길 19",
    "website": "http://place.map.daum.net/15922423",
    "category": "우동"
   }
  },
  {
   "type": "Feature",
   "geometry": {
    "type": "Point",
    "coordinates": [
     126.97184997998933,
     37.52042130628225
    ]
   },
   "properties": {
    "pid": "11893173",
    "name": "한강초밥",
    "phone": "02-794-3842",
    "source": "이촌동 - 동부이촌동역 - 한강초밥",
    "address": "서울 용산구 이촌로 224",
    "website": "http://place.map.daum.net/11893173",
    "category": "우동"
   }
  },
  {
   "type": "Feature",
   "geometry": {
    "type": "Point",
    "coordinates": [
     126.98004286172093,
     37.564489965120416
    ]
   },
   "properties": {
    "pid": "21306205",
    "name": "스시조",
    "phone": "02-317-0373",
    "source": "소공동 - 을지로입구역 - 스시조",
    "address": "서울 중구 소공로 106",
    "website": "http://place.map.daum.net/21306205",
    "category": "우동"
   }
  },
  {
   "type": "Feature",
   "geometry": {
    "type": "Point",
    "coordinates": [
     127.006215566999,
     37.5564843290598
    ]
   },
   "properties": {
    "pid": "8550495",
    "name": "아리아께",
    "phone": "02-2230-3356",
    "source": "장충동 - 동대입구역 - 아리아께",
    "address": "서울 중구 동호로 249",
    "website": "http://place.map.daum.net/8550495",
    "category": "우동"
   }
  },
  {
   "type": "Feature",
   "geometry": {
    "type": "Point",
    "coordinates": [
     126.841213506496,
     37.5638848207371
    ]
   },
   "properties": {
    "pid": "15762437",
    "name": "인생역전포장마차",
    "phone": "02-3663-2442",
    "source": "등촌동 - 양천향교역 - 인생역전포장마차",
    "address": "서울 강서구 강서로56가길 96",
    "website": "http://place.map.daum.net/15762437",
    "category": "우동"
   }
  },
  {
   "type": "Feature",
   "geometry": {
    "type": "Point",
    "coordinates": [
     127.042884423889,
     37.5568010637512
    ]
   },
   "properties": {
    "pid": "19036760",
    "name": "우동가조쿠",
    "phone": "02-762-2177",
    "source": "행당동 - 한양대역 - 우동가조쿠",
    "address": "서울 성동구 왕십리로 215-1",
    "website": "http://place.map.daum.net/19036760",
    "category": "우동"
   }
  },
  {
   "type": "Feature",
   "geometry": {
    "type": "Point",
    "coordinates": [
     126.993061714898,
     37.4903362860425
    ]
   },
   "properties": {
    "pid": "23122567",
    "name": "묘오또",
    "phone": "02-536-5980",
    "source": "방배동 - 내방역 - 묘오또",
    "address": "서울 서초구 방배로28길 16",
    "website": "http://place.map.daum.net/23122567",
    "category": "우동"
   }
  },
  {
   "type": "Feature",
   "geometry": {
    "type": "Point",
    "coordinates": [
     126.992941581337,
     37.5652852185384
    ]
   },
   "properties": {
    "pid": "8264592",
    "name": "동경우동",
    "phone": "02-2274-3440",
    "source": "초동 - 충무로역 - 동경우동",
    "address": "서울 중구 을지로16길 26",
    "website": "http://place.map.daum.net/8264592",
    "category": "우동"
   }
  },
  {
   "type": "Feature",
   "geometry": {
    "type": "Point",
    "coordinates": [
     126.97907374358543,
     37.5653376347315
    ]
   },
   "properties": {
    "pid": "220828644",
    "name": "이나니와요스케 서울시청점",
    "phone": "02-772-9994",
    "source": "을지로1가 - 시청역 - 이나니와요스케",
    "address": "서울 중구 을지로 6",
    "website": "http://place.map.daum.net/220828644",
    "category": "우동"
   }
  },
  {
   "type": "Feature",
   "geometry": {
    "type": "Point",
    "coordinates": [
     126.977372533762,
     37.561560344017
    ]
   },
   "properties": {
    "pid": "10553650",
    "name": "송옥",
    "phone": "02-752-3297",
    "source": "남대문로 - 시청역 - 송옥",
    "address": "서울 중구 남대문로1길 11",
    "website": "http://place.map.daum.net/10553650",
    "category": "우동"
   }
  },
  {
   "type": "Feature",
   "geometry": {
    "type": "Point",
    "coordinates": [
     126.976104033432,
     37.5642378556465
    ]
   },
   "properties": {
    "pid": "10679979",
    "name": "유림면",
    "phone": "02-755-0659",
    "source": "서소문동 - 시청역 - 유림면",
    "address": "서울 중구 서소문로 139-1",
    "website": "http://place.map.daum.net/10679979",
    "category": "우동"
   }
  },
  {
   "type": "Feature",
   "geometry": {
    "type": "Point",
    "coordinates": [
     127.068639629347,
     37.5430973297435
    ]
   },
   "properties": {
    "pid": "18533625",
    "name": "땡초포차",
    "phone": "02-3409-0409",
    "source": "화양동 - 건대입구역 - 땡초포차",
    "address": "서울 광진구 동일로24길 63",
    "website": "http://place.map.daum.net/18533625",
    "category": "우동"
   }
  },
  {
   "type": "Feature",
   "geometry": {
    "type": "Point",
    "coordinates": [
     127.090397984404,
     37.5064046862716
    ]
   },
   "properties": {
    "pid": "411009593",
    "name": "미타우동",
    "phone": "070-4212-5212",
    "source": "삼전동 - 신천역 - 미타",
    "address": "서울 송파구 삼전로12길 4",
    "website": "http://place.map.daum.net/411009593",
    "category": "우동"
   }
  },
  {
   "type": "Feature",
   "geometry": {
    "type": "Point",
    "coordinates": [
     126.998192851458,
     37.5927729417877
    ]
   },
   "properties": {
    "pid": "21329928",
    "name": "성북면사무소",
    "phone": "02-3672-0111",
    "source": "성북동 - 한성대입구역 - 성북면사무소",
    "address": "서울 성북구 혜화로 88",
    "website": "http://place.map.daum.net/21329928",
    "category": "우동"
   }
  },
  {
   "type": "Feature",
   "geometry": {
    "type": "Point",
    "coordinates": [
     126.97338655227,
     37.5415933924309
    ]
   },
   "properties": {
    "pid": "10767289",
    "name": "쯔쿠시",
    "phone": "02-790-5602",
    "source": "남영동 - 숙대입구역 - 쯔쿠시",
    "address": "서울 용산구 한강대로76길 5",
    "website": "http://place.map.daum.net/10767289",
    "category": "우동"
   }
  },
  {
   "type": "Feature",
   "geometry": {
    "type": "Point",
    "coordinates": [
     127.001068106092,
     37.5378986823505
    ]
   },
   "properties": {
    "pid": "26572915",
    "name": "라운드어바웃",
    "phone": "070-5055-2258",
    "source": "한남동 - 한강진역 - 라운드어바웃",
    "address": "서울 용산구 이태원로 259-1",
    "website": "http://place.map.daum.net/26572915",
    "category": "우동"
   }
  },
  {
   "type": "Feature",
   "geometry": {
    "type": "Point",
    "coordinates": [
     127.020724130049,
     37.5221077180446
    ]
   },
   "properties": {
    "pid": "8016418",
    "name": "와라쿠",
    "phone": "02-517-2292",
    "source": "신사동 - 신사역 - 와라쿠",
    "address": "서울 강남구 압구정로4길 13-7",
    "website": "http://place.map.daum.net/8016418",
    "category": "우동"
   }
  },
  {
   "type": "Feature",
   "geometry": {
    "type": "Point",
    "coordinates": [
     126.9152033260173,
     37.59808673277044
    ]
   },
   "properties": {
    "pid": "16555937",
    "name": "하루",
    "phone": "02-307-0513",
    "source": "신사동 - 압구정역 - 하루",
    "address": "서울 은평구 증산로 469",
    "website": "http://place.map.daum.net/16555937",
    "category": "우동"
   }
  },
  {
   "type": "Feature",
   "geometry": {
    "type": "Point",
    "coordinates": [
     127.023373321271,
     37.4998668302341
    ]
   },
   "properties": {
    "pid": "16037534",
    "name": "아소산 강남점",
    "phone": "02-535-6659",
    "source": "역삼동 - 강남역 - 아소산우동",
    "address": "서울 서초구 서운로 184",
    "website": "http://place.map.daum.net/16037534",
    "category": "우동"
   }
  },
  {
   "type": "Feature",
   "geometry": {
    "type": "Point",
    "coordinates": [
     127.030329437322,
     37.4970360892476
    ]
   },
   "properties": {
    "pid": "19637934",
    "name": "우동명가 기리야마본진",
    "phone": "",
    "source": "역삼동 - 강남역 - 기리야마본진",
    "address": "서울 강남구 강남대로84길 23",
    "website": "http://place.map.daum.net/19637934",
    "category": "우동"
   }
  },
  {
   "type": "Feature",
   "geometry": {
    "type": "Point",
    "coordinates": [
     127.027291861258,
     37.5029510340829
    ]
   },
   "properties": {
    "pid": "26497176",
    "name": "토끼정 강남점",
    "phone": "070-4230-2233",
    "source": "역삼동 - 강남역 - 토끼정",
    "address": "서울 강남구 봉은사로6길 32",
    "website": "http://place.map.daum.net/26497176",
    "category": "우동"
   }
  },
  {
   "type": "Feature",
   "geometry": {
    "type": "Point",
    "coordinates": [
     127.026345950419,
     37.5016862367647
    ]
   },
   "properties": {
    "pid": "17165921",
    "name": "오모야",
    "phone": "02-538-4911",
    "source": "역삼동 - 강남역 - 오모야",
    "address": "서울 강남구 강남대로 438",
    "website": "http://place.map.daum.net/17165921",
    "category": "우동"
   }
  },
  {
   "type": "Feature",
   "geometry": {
    "type": "Point",
    "coordinates": [
     127.060808955586,
     37.5091915107454
    ]
   },
   "properties": {
    "pid": "27220312",
    "name": "코나야 파르나스몰점",
    "phone": "02-3453-3403",
    "source": "역삼동 - 강남역 - 코나야",
    "address": "서울 강남구 테헤란로 521",
    "website": "http://place.map.daum.net/27220312",
    "category": "우동"
   }
  },
  {
   "type": "Feature",
   "geometry": {
    "type": "Point",
    "coordinates": [
     127.028229620768,
     37.4944957706587
    ]
   },
   "properties": {
    "pid": "12973153",
    "name": "하나우동",
    "phone": "02-523-9920",
    "source": "서초동 - 강남역 - 하나우동",
    "address": "서울 서초구 서초대로78길 38",
    "website": "http://place.map.daum.net/12973153",
    "category": "우동"
   }
  },
  {
   "type": "Feature",
   "geometry": {
    "type": "Point",
    "coordinates": [
     127.035357676143,
     37.4740481677891
    ]
   },
   "properties": {
    "pid": "17462492",
    "name": "미우야",
    "phone": "02-577-6348",
    "source": "양재동 - 양재시민의숲역 - 미우야",
    "address": "서울 서초구 강남대로23길 90",
    "website": "http://place.map.daum.net/17462492",
    "category": "우동"
   }
  }
 ]
}