{"type": "FeatureCollection","features": [
  {"type": "Feature", "geometry": {"type": "Point", "coordinates": [127.032719268754, 37.500412423073]}, "properties": {"name": "\ub3d9\uacbd\uc804\ud1b5\uc721\uac1c\uc7a5", "address": "\uc11c\uc6b8 \uac15\ub0a8\uad6c \ud14c\ud5e4\ub780\ub85c13\uae38 8-3", "website": "http://place.map.daum.net/8257781", "source": "\uc5ed\uc0bc\ub3d9 - \uac15\ub0a8\uc5ed - \ub3d9\uacbd\uc721\uac1c\uc7a5"}}
  ,{"type": "Feature", "geometry": {"type": "Point", "coordinates": [126.993380571526, 37.5673214948889]}, "properties": {"name": "\uc548\uc131\uc9d1", "address": "\uc11c\uc6b8 \uc911\uad6c \uc744\uc9c0\ub85c15\uae38 19", "website": "http://place.map.daum.net/25732495", "source": "\uc744\uc9c0\ub85c 3\uac00 - \uc744\uc9c0\ub85c 3\uac00\uc5ed - \uc548\uc131\uc9d1"}}
  ,{"type": "Feature", "geometry": {"type": "Point", "coordinates": [126.970324359239, 37.5366119339674]}, "properties": {"name": "\ubb38\ubc30\ub3d9\uc721\uce7c \ubcf8\uc810", "address": "\uc11c\uc6b8 \uc6a9\uc0b0\uad6c \ubc31\ubc94\ub85c90\uae38 50", "website": "http://place.map.daum.net/24188406", "source": "\ubb38\ubc30\ub3d9 - \uc0bc\uac01\uc9c0\uc5ed - \uc721\uce7c"}}
  ,{"type": "Feature", "geometry": {"type": "Point", "coordinates": [126.992815020959, 37.5630939878878]}, "properties": {"name": "\uc9c4\uace0\uac1c", "address": "\uc11c\uc6b8 \uc911\uad6c \ucda9\ubb34\ub85c 19-1", "website": "http://place.map.daum.net/8588563", "source": "\ucda9\ubb34\ub85c3\uac00 - \ucda9\ubb34\ub85c\uc5ed - \uc9c4\uace0\uac1c"}}
  ,{"type": "Feature", "geometry": {"type": "Point", "coordinates": [126.99875940309, 37.5685290082279]}, "properties": {"name": "\ubcf4\uac74\uc625", "address": "\uc11c\uc6b8 \uc911\uad6c \ucc3d\uacbd\uad81\ub85c8\uae38 12", "website": "http://place.map.daum.net/10375797", "source": "\uc8fc\uad50\ub3d9 - \uc744\uc9c0\ub85c 4\uac00\uc5ed - \ubcf4\uac74\uc625"}}
  ,{"type": "Feature", "geometry": {"type": "Point", "coordinates": [126.99036546529, 37.564910222013]}, "properties": {"name": "\ud3c9\ub798\uc625", "address": "\uc11c\uc6b8 \uc911\uad6c \ub9c8\ub978\ub0b4\ub85c 21-1", "website": "http://place.map.daum.net/12106466", "source": "\uc800\ub3d9 - \uc744\uc9c0\ub85c 3\uac00\uc5ed - \ud3c9\ub798\uc625"}}
  ,{"type": "Feature", "geometry": {"type": "Point", "coordinates": [127.006082566071, 37.6466446620218]}, "properties": {"name": "\uc0d8\ud130\ub9c8\ub8e8", "address": "\uc11c\uc6b8 \uac15\ubd81\uad6c 4.19\ub85c12\uae38 35", "website": "http://place.map.daum.net/8362137", "source": "\uc218\uc720\ub3d9 - \uc218\uc720\uc5ed - \uc0d8\ud130\ub9c8\ub8e8"}}
  ,{"type": "Feature", "geometry": {"type": "Point", "coordinates": [127.053901906685, 37.5110148935604]}, "properties": {"name": "\uc678\uace0\uc9d1\uc124\ub801\ud0d5", "address": "\uc11c\uc6b8 \uac15\ub0a8\uad6c \uc0bc\uc131\ub85c 555", "website": "http://place.map.daum.net/8024422", "source": "\ub300\uce58\ub3d9 - \ud55c\ud2f0\uc5ed - \uc678\uace0\uc9d1 \uc124\ub801\ud0d5"}}
  ,{"type": "Feature", "geometry": {"type": "Point", "coordinates": [126.967605277527, 37.544943666016]}, "properties": {"name": "\ub354\ud568", "address": "\uc11c\uc6b8 \uc6a9\uc0b0\uad6c \uccad\ud30c\ub85c47\uae38 52", "website": "http://place.map.daum.net/13123075", "source": "\uccad\ud30c\ub3d9 - \uc219\ub300\uc785\uad6c\uc5ed - \ub354\ud568"}}
  ,{"type": "Feature", "geometry": {"type": "Point", "coordinates": [126.947007522969, 37.5429215843826]}, "properties": {"name": "\uc5ed\uc804\ud68c\uad00", "address": "\uc11c\uc6b8 \ub9c8\ud3ec\uad6c \ud1a0\uc815\ub85c37\uae38 47", "website": "http://place.map.daum.net/18279130", "source": "\uc6a9\uac15\ub3d9 - \ub9c8\ud3ec\uc5ed - \uc5ed\uc804\ud68c\uad00"}}
  ,{"type": "Feature", "geometry": {"type": "Point", "coordinates": [127.032491399045, 37.5278246295028]}, "properties": {"name": "\ud55c\uc77c\uad00 \uc555\uad6c\uc815\uc810", "address": "\uc11c\uc6b8 \uac15\ub0a8\uad6c \uc555\uad6c\uc815\ub85c38\uae38 14", "website": "http://place.map.daum.net/8475048", "source": "\uc2e0\uc0ac\ub3d9 - \uc555\uad6c\uc815\uc5ed - \ud55c\uc77c\uad00"}}
  ,{"type": "Feature", "geometry": {"type": "Point", "coordinates": [127.098024588236, 37.5057859203678]}, "properties": {"name": "\uc0ac\uacc4\uc9c4\ubbf8 \uc7a0\uc2e4\uc11d\ucd0c\uc810", "address": "\uc11c\uc6b8 \uc1a1\ud30c\uad6c \uc1a1\ud30c\ub300\ub85c49\uae38 63", "website": "http://place.map.daum.net/19927945", "source": "\uc11d\ucd0c\ub3d9 - \uc11d\ucd0c\uc5ed - \uc0ac\uacc4\uc9c4\ubbf8"}}
  ,{"type": "Feature", "geometry": {"type": "Point", "coordinates": [126.97998737313, 37.4841250472035]}, "properties": {"name": "\ubd80\uc5cc\uc7c1\uc774", "address": "\uc11c\uc6b8 \ub3d9\uc791\uad6c \ub3d9\uc791\ub300\ub85c23\uae38 31", "website": "http://place.map.daum.net/26550397", "source": "\uc0ac\ub2f9\ub3d9 - \uc774\uc218\uc5ed - \ubd80\uc5cc\uc7c1\uc774"}}
  ,{"type": "Feature", "geometry": {"type": "Point", "coordinates": [126.985283903137, 37.5735484431037]}, "properties": {"name": "\uc778\uc0ac\uba74\uc625", "address": "\uc11c\uc6b8 \uc885\ub85c\uad6c \uc778\uc0ac\ub3d9\uae38 35-3", "website": "http://place.map.daum.net/13559590", "source": "\uad00\ud6c8\ub3d9 - \uc885\ub85c 3\uac00\uc5ed - \uc778\uc0ac\uba74\uc625"}}
  ,{"type": "Feature", "geometry": {"type": "Point", "coordinates": [127.042072006691, 37.5047559137365]}, "properties": {"name": "\uc11c\uc6b8\uc804\ud1b5\uc721\uac1c\uc7a5 \uc120\ub989\ubcf8\uc810", "address": "\uc11c\uc6b8 \uac15\ub0a8\uad6c \uc5b8\uc8fc\ub85c 516", "website": "http://place.map.daum.net/27512477", "source": "\uc5ed\uc0bc\ub3d9 - \uc120\ub989\uc5ed - \uc11c\uc6b8\uc804\ud1b5\uc721\uac1c\uc7a5"}}
  ,{"type": "Feature", "geometry": {"type": "Point", "coordinates": [127.123092309058, 37.5281974330101]}, "properties": {"name": "\uc11c\uc6b8\uc721\uac1c\uc7a5 \uc9da\ubd88\uace0\uae30", "address": "\uc11c\uc6b8 \uac15\ub3d9\uad6c \uc131\uc548\ub85c3\uae38 127", "website": "http://place.map.daum.net/22758295", "source": "\uc131\ub0b4\ub3d9 - \uac15\ub3d9\uad6c\uccad\uc5ed - \uc11c\uc6b8\uc721\uac1c\uc7a5 \uc9da\ubd88\uace0\uae30"}}
  ,{"type": "Feature", "geometry": {"type": "Point", "coordinates": [127.126680713643, 37.5334626913613]}, "properties": {"name": "\uc218\ud5a5\ubcf4\uc308\uce7c\uad6d\uc218", "address": "\uc11c\uc6b8 \uac15\ub3d9\uad6c \ud48d\uc131\ub85c37\uac00\uae38 5", "website": "http://place.map.daum.net/16330182", "source": "\uc131\ub0b4\ub3d9 - \ub454\ucd0c\ub3d9\uc5ed - \uc218\ud5a5\uc2dd\ub2f9"}}
  ,{"type": "Feature", "geometry": {"type": "Point", "coordinates": [126.883872147891, 37.4814387278239]}, "properties": {"name": "\uc721\uac1c\uc7a5\uc778", "address": "\uc11c\uc6b8 \uae08\ucc9c\uad6c \ubc9a\uaf43\ub85c 298", "website": "http://place.map.daum.net/27504725", "source": "\uac00\uc0b0\ub3d9 - \uac00\uc0b0\ub514\uc9c0\ud138\ub2e8\uc9c0\uc5ed - \uc721\uac1c\uc7a5\uc778"}}
]}
