{
 "type": "FeatureCollection",
 "features": [
  {
   "type": "Feature",
   "geometry": {
    "type": "Point",
    "coordinates": [
     127.032719268754,
     37.500412423073
    ]
   },
   "properties": {
    "pid": "8257781",
    "name": "동경전통육개장",
    "phone": "02-566-9779",
    "source": "역삼동 - 강남역 - 동경육개장",
    "address": "서울 강남구 테헤란로13길 8-3",
    "website": "http://place.map.daum.net/8257781",
    "category": "육개장"
   }
  },
  {
   "type": "Feature",
   "geometry": {
    "type": "Point",
    "coordinates": [
     126.993380571526,
     37.5673214948889
    ]
   },
   "properties": {
    "pid": "25732495",
    "name": "안성집",
    "phone": "02-2279-4522",
    "source": "을지로 3가 - 을지로 3가역 - 안성집",
    "address": "서울 중구 을지로15길 19",
    "website": "http://place.map.daum.net/25732495",
    "category": "육개장"
   }
  },
  {
   "type": "Feature",
   "geometry": {
    "type": "Point",
    "coordinates": [
     126.970324359239,
     37.5366119339674
    ]
   },
   "properties": {
    "pid": "24188406",
    "name": "문배동육칼 본점",
    "phone": "02-713-6204",
    "source": "문배동 - 삼각지역 - 육칼",
    "address": "서울 용산구 백범로90길 50",
    "website": "http://place.map.daum.net/24188406",
    "category": "육개장"
   }
  },
  {
   "type": "Feature",
   "geometry": {
    "type": "Point",
    "coordinates": [
     126.992815020959,
     37.5630939878878
    ]
   },
   "properties": {
    "pid": "8588563",
    "name": "진고개",
    "phone": "02-2267-0955",
    "source": "충무로3가 - 충무로역 - 진고개",
    "address": "서울 중구 충무로 19-1",
    "website": "http://place.map.daum.net/8588563",
    "category": "육개장"
   }
  },
  {
   "type": "Feature",
   "geometry": {
    "type": "Point",
    "coordinates": [
     126.99875940309,
     37.5685290082279
    ]
   },
   "properties": {
    "pid": "10375797",
    "name": "보건옥",
    "phone": "02-2275-3743",
    "source": "주교동 - 을지로 4가역 - 보건옥",
    "address": "서울 중구 창경궁로8길 12",
    "website": "http://place.map.daum.net/10375797",
    "category": "육개장"
   }
  },
  {
   "type": "Feature",
   "geometry": {
    "type": "Point",
    "coordinates": [
     126.99036546529,
     37.564910222013
    ]
   },
   "properties": {
    "pid": "12106466",
    "name": "평래옥",
    "phone": "02-2267-5892",
    "source": "저동 - 을지로 3가역 - 평래옥",
    "address": "서울 중구 마른내로 21-1",
    "website": "http://place.map.daum.net/12106466",
    "category": "육개장"
   }
  },
  {
   "type": "Feature",
   "geometry": {
    "type": "Point",
    "coordinates": [
     127.006082566071,
     37.6466446620218
    ]
   },
   "properties": {
    "pid": "8362137",
    "name": "샘터마루",
    "phone": "02-902-6456",
    "source": "수유동 - 수유역 - 샘터마루",
    "address": "서울 강북구 4.19로12길 35",
    "website": "http://place.map.daum.net/8362137",
    "category": "육개장"
   }
  },
  {
   "type": "Feature",
   "geometry": {
    "type": "Point",
    "coordinates": [
     127.053901906685,
     37.5110148935604
    ]
   },
   "properties": {
    "pid": "8024422",
    "name": "외고집설렁탕",
    "phone": "02-567-5225",
    "source": "대치동 - 한티역 - 외고집 설렁탕",
    "address": "서울 강남구 삼성로 555",
    "website": "http://place.map.daum.net/8024422",
    "category": "육개장"
   }
  },
  {
   "type": "Feature",
   "geometry": {
    "type": "Point",
    "coordinates": [
     126.967605277527,
     37.544943666016
    ]
   },
   "properties": {
    "pid": "13123075",
    "name": "더함",
    "phone": "02-707-3692",
    "source": "청파동 - 숙대입구역 - 더함",
    "address": "서울 용산구 청파로47길 52",
    "website": "http://place.map.daum.net/13123075",
    "category": "육개장"
   }
  },
  {
   "type": "Feature",
   "geometry": {
    "type": "Point",
    "coordinates": [
     126.947007522969,
     37.5429215843826
    ]
   },
   "properties": {
    "pid": "18279130",
    "name": "역전회관",
    "phone": "02-703-0019",
    "source": "용강동 - 마포역 - 역전회관",
    "address": "서울 마포구 토정로37길 47",
    "website": "http://place.map.daum.net/18279130",
    "category": "육개장"
   }
  },
  {
   "type": "Feature",
   "geometry": {
    "type": "Point",
    "coordinates": [
     127.032491399045,
     37.5278246295028
    ]
   },
   "properties": {
    "pid": "8475048",
    "name": "한일관 압구정점",
    "phone": "02-732-3735",
    "source": "신사동 - 압구정역 - 한일관",
    "address": "서울 강남구 압구정로38길 14",
    "website": "http://place.map.daum.net/8475048",
    "category": "육개장"
   }
  },
  {
   "type": "Feature",
   "geometry": {
    "type": "Point",
    "coordinates": [
     127.098024588236,
     37.5057859203678
    ]
   },
   "properties": {
    "pid": "19927945",
    "name": "사계진미 잠실석촌점",
    "phone": "02-420-9199",
    "source": "석촌동 - 석촌역 - 사계진미",
    "address": "서울 송파구 송파대로49길 63",
    "website": "http://place.map.daum.net/19927945",
    "category": "육개장"
   }
  },
  {
   "type": "Feature",
   "geometry": {
    "type": "Point",
    "coordinates": [
     126.97998737313,
     37.4841250472035
    ]
   },
   "properties": {
    "pid": "26550397",
    "name": "부엌쟁이",
    "phone": "02-6205-3340",
    "source": "사당동 - 이수역 - 부엌쟁이",
    "address": "서울 동작구 동작대로23길 31",
    "website": "http://place.map.daum.net/26550397",
    "category": "육개장"
   }
  },
  {
   "type": "Feature",
   "geometry": {
    "type": "Point",
    "coordinates": [
     126.985283903137,
     37.5735484431037
    ]
   },
   "properties": {
    "pid": "13559590",
    "name": "인사면옥",
    "phone": "",
    "source": "관훈동 - 종로 3가역 - 인사면옥",
    "address": "서울 종로구 인사동길 35-3",
    "website": "http://place.map.daum.net/13559590",
    "category": "육개장"
   }
  },
  {
   "type": "Feature",
   "geometry": {
    "type": "Point",
    "coordinates": [
     127.042072006691,
     37.5047559137365
    ]
   },
   "properties": {
    "pid": "27512477",
    "name": "서울전통육개장 선릉본점",
    "phone": "02-565-1089",
    "source": "역삼동 - 선릉역 - 서울전통육개장",
    "address": "서울 강남구 언주로 516",
    "website": "http://place.map.daum.net/27512477",
    "category": "육개장"
   }
  },
  {
   "type": "Feature",
   "geometry": {
    "type": "Point",
    "coordinates": [
     127.123092309058,
     37.5281974330101
    ]
   },
   "properties": {
    "pid": "22758295",
    "name": "서울육개장 짚불고기",
    "phone": "02-3444-0221",
    "source": "성내동 - 강동구청역 - 서울육개장 짚불고기",
    "address": "서울 강동구 성안로3길 127",
    "website": "http://place.map.daum.net/22758295",
    "category": "육개장"
   }
  },
  {
   "type": "Feature",
   "geometry": {
    "type": "Point",
    "coordinates": [
     127.126680713643,
     37.5334626913613
    ]
   },
   "properties": {
    "pid": "16330182",
    "name": "수향보쌈칼국수",
    "phone": "02-478-8308",
    "source": "성내동 - 둔촌동역 - 수향식당",
    "address": "서울 강동구 풍성로37가길 5",
    "website": "http://place.map.daum.net/16330182",
    "category": "육개장"
   }
  },
  {
   "type": "Feature",
   "geometry": {
    "type": "Point",
    "coordinates": [
     126.883872147891,
     37.4814387278239
    ]
   },
   "properties": {
    "pid": "27504725",
    "name": "육개장인",
    "phone": "02-852-7776",
    "source": "가산동 - 가산디지털단지역 - 육개장인",
    "address": "서울 금천구 벚꽃로 298",
    "website": "http://place.map.daum.net/27504725",
    "category": "육개장"
   }
  }
 ]
}