{"type": "FeatureCollection","features": [
  {"type": "Feature", "geometry": {"type": "Point", "coordinates": [127.69972484599, 34.7469341826717]}, "properties": {"name": "\ub9db\uae54\ucc38\uc8fd \uc5ec\uc218\uc5ec\ubb38\uc810", "address": "\uc804\ub0a8 \uc5ec\uc218\uc2dc \ub300\uce583\uae38 13", "website": "http://place.map.daum.net/21654826", "phone": "061-653-6233", "source": "\uc11c\uad50\ub3d9 - \ud569\uc815\uc5ed - \ub9db\uae54\ucc38\uc8fd", "pid": "21654826"}}
  ,{"type": "Feature", "geometry": {"type": "Point", "coordinates": [126.974526019536, 37.5714490954993]}, "properties": {"name": "\ucd08\uc6d0\uc8fd\uc9d1", "address": "\uc11c\uc6b8 \uc885\ub85c\uad6c \uc0c8\ubb38\uc548\ub85c5\uae38 13", "website": "http://place.map.daum.net/8588121", "phone": "02-735-5904", "source": "\ub2f9\uc8fc\ub3d9 - \uad11\ud654\ubb38\uc5ed - \ucd08\uc6d0", "pid": "8588121"}}
  ,{"type": "Feature", "geometry": {"type": "Point", "coordinates": [126.981109994696, 37.5698465609494]}, "properties": {"name": "\uc57d\uc218\ud130", "address": "\uc11c\uc6b8 \uc885\ub85c\uad6c \uc885\ub85c 34", "website": "http://place.map.daum.net/13557708", "phone": "02-739-9678", "source": "\uc11c\ub9b0\ub3d9 - \uc885\uac01\uc5ed - \uc8fd\uc9d1 \uc57d\uc218\ud130", "pid": "13557708"}}
  ,{"type": "Feature", "geometry": {"type": "Point", "coordinates": [126.989173402924, 37.5740858568012]}, "properties": {"name": "\uc5f0\uc8fd", "address": "\uc11c\uc6b8 \uc885\ub85c\uad6c \uc0bc\uc77c\ub300\ub85c30\uae38 28", "website": "http://place.map.daum.net/8443876", "phone": "02-741-8004", "source": "\uc775\uc120\ub3d9 - \uc885\ub85c 3\uac00\uc5ed - \uc5f0\uc8fd", "pid": "8443876"}}
  ,{"type": "Feature", "geometry": {"type": "Point", "coordinates": [127.018757521345, 37.5651505920209]}, "properties": {"name": "\uc2e0\ub2f9\ub3d9\ucc9c\ud325\uc8fd", "address": "\uc11c\uc6b8 \uc911\uad6c \ub2e4\uc0b0\ub85c44\uae38 33", "website": "http://place.map.daum.net/9842753", "phone": "02-2237-6385", "source": "\uc2e0\ub2f9\ub3d9 - \uc2e0\ub2f9\uc5ed - \uc2e0\ub2f9\ub3d9\ucc9c\ud325\uc8fd", "pid": "9842753"}}
  ,{"type": "Feature", "geometry": {"type": "Point", "coordinates": [126.991995666987, 37.5621136509372]}, "properties": {"name": "\uc1a1\uc8fd", "address": "\uc11c\uc6b8 \uc911\uad6c \uc218\ud45c\ub85c2\uae38 26", "website": "http://place.map.daum.net/23105939", "phone": "02-2265-5129", "source": "\ud544\ub3d9 - \ucda9\ubb34\ub85c\uc5ed - \uc1a1\uc8fd", "pid": "23105939"}}
  ,{"type": "Feature", "geometry": {"type": "Point", "coordinates": [127.060945037516, 37.5151957321229]}, "properties": {"name": "\uc6d0\uc8fd \uc0bc\uc131\uc810", "address": "\uc11c\uc6b8 \uac15\ub0a8\uad6c \uc601\ub3d9\ub300\ub85c112\uae38 9", "website": "http://place.map.daum.net/16820419", "phone": "02-543-8266", "source": "\uc0bc\uc131\ub3d9 - \ubd09\uc740\uc0ac\uc5ed - \uc6d0\uc8fd", "pid": "16820419"}}
  ,{"type": "Feature", "geometry": {"type": "Point", "coordinates": [126.981821394796, 37.5862735984118]}, "properties": {"name": "\uc11c\uc6b8\uc11c \ub458\uc9f8\ub85c\uc798\ud558\ub294\uc9d1", "address": "\uc11c\uc6b8 \uc885\ub85c\uad6c \uc0bc\uccad\ub85c 122-1", "website": "http://place.map.daum.net/7941905", "phone": "02-734-5302", "source": "\uc0bc\uccad\ub3d9 - \uc548\uad6d\uc5ed - \uc11c\uc6b8\uc5d0\uc11c\ub450\ubc88\uc9f8\ub85c\uc798\ud558\ub294\uc9d1", "pid": "7941905"}}
  ,{"type": "Feature", "geometry": {"type": "Point", "coordinates": [126.921602493815, 37.5295726453777]}, "properties": {"name": "\ub2e4\ud654", "address": "\uc11c\uc6b8 \uc601\ub4f1\ud3ec\uad6c \uad6d\ud68c\ub300\ub85c74\uae38 20", "website": "http://place.map.daum.net/8220939", "phone": "02-784-9810", "source": "\uc5ec\uc758\ub3c4\ub3d9 - \uc5ec\uc758\ub3c4\uc5ed - \ub2e4\ud654", "pid": "8220939"}}
  ,{"type": "Feature", "geometry": {"type": "Point", "coordinates": [126.930014392196, 37.5207012570397]}, "properties": {"name": "\ub300\uc5ec\uc8fd\uc9d1", "address": "\uc11c\uc6b8 \uc601\ub4f1\ud3ec\uad6c \uc5ec\uc758\ub300\ubc29\ub85c67\uae38 22", "website": "http://place.map.daum.net/11010649", "phone": "02-783-6023", "source": "\uc5ec\uc758\ub3c4\ub3d9 - \uc5ec\uc758\ub3c4\uc5ed \u2013 \ub300\uc5ec", "pid": "11010649"}}
  ,{"type": "Feature", "geometry": {"type": "Point", "coordinates": [126.921298328114, 37.5520217507367]}, "properties": {"name": "\ud64d\ub300\ub3c8\ubd80\ub9ac \ud64d\ub300\ubcf8\uc810", "address": "\uc11c\uc6b8 \ub9c8\ud3ec\uad6c \uc794\ub2e4\ub9ac\ub85c6\uae38 40-8", "website": "http://place.map.daum.net/13333463", "phone": "02-3141-8398", "source": "\uc11c\uad50\ub3d9 - \ud64d\ub300\uc785\uad6c\uc5ed - \ud64d\ub300\ub3c8\ubd80\ub9ac", "pid": "13333463"}}
  ,{"type": "Feature", "geometry": {"type": "Point", "coordinates": [126.926940066612, 37.5551860764204]}, "properties": {"name": "\uc18c\ub144\uc2dd\ub2f9 \ud64d\ub300\ubcf8\uc810", "address": "\uc11c\uc6b8 \ub9c8\ud3ec\uad6c \uc640\uc6b0\uc0b0\ub85c29\ub77c\uae38 16", "website": "http://place.map.daum.net/27224287", "phone": "070-4111-7179", "source": "\uc11c\uad50\ub3d9 - \ud64d\ub300\uc785\uad6c\uc5ed - \uc18c\ub144\uc2dd\ub2f9", "pid": "27224287"}}
  ,{"type": "Feature", "geometry": {"type": "Point", "coordinates": [126.917343083039, 37.5510135344182]}, "properties": {"name": "\uc624\uc790\uc640", "address": "\uc11c\uc6b8 \ub9c8\ud3ec\uad6c \uc591\ud654\ub85c10\uae38 15", "website": "http://place.map.daum.net/8025723", "phone": "02-335-5551", "source": "\uc11c\uad50\ub3d9 - \ud569\uc815\uc5ed - \uc624\uc790\uc640", "pid": "8025723"}}
  ,{"type": "Feature", "geometry": {"type": "Point", "coordinates": [126.921288265113, 37.5486772386944]}, "properties": {"name": "\ud788\uba54\uc2dc\uc57c", "address": "\uc11c\uc6b8 \ub9c8\ud3ec\uad6c \ub3c5\ub9c9\ub85c15\uae38 3-18", "website": "http://place.map.daum.net/21960086", "phone": "070-8245-4562", "source": "\uc0c1\uc218\ub3d9 - \uc0c1\uc218\uc5ed - \ud788\uba54\uc2dc\uc57c", "pid": "21960086"}}
  ,{"type": "Feature", "geometry": {"type": "Point", "coordinates": [126.921117408099, 37.5475851144441]}, "properties": {"name": "\ub9cc\ubf40\uc2a4\ud0a4\uc57c\ud0a4 \ubcf8\uc810", "address": "\uc11c\uc6b8 \ub9c8\ud3ec\uad6c \ub3c5\ub9c9\ub85c14\uae38 4", "website": "http://place.map.daum.net/25019151", "phone": "02-322-8688", "source": "\uc0c1\uc218\ub3d9 - \uc0c1\uc218\uc5ed - \ub9cc\ubf40", "pid": "25019151"}}
  ,{"type": "Feature", "geometry": {"type": "Point", "coordinates": [126.920795408253, 37.5481723499708]}, "properties": {"name": "\ud64d\ub300\uac1c\ubbf8 \uc0c1\uc218\ubcf8\uc810", "address": "\uc11c\uc6b8 \ub9c8\ud3ec\uad6c \ub3c5\ub9c9\ub85c 67-9", "website": "http://place.map.daum.net/19009165", "phone": "02-586-9289", "source": "\uc0c1\uc218\ub3d9 - \uc0c1\uc218\uc5ed - \uac1c\ubbf8", "pid": "19009165"}}
  ,{"type": "Feature", "geometry": {"type": "Point", "coordinates": [126.925145179218, 37.5619388254365]}, "properties": {"name": "\ub3d9\ucc28\ubc25", "address": "\uc11c\uc6b8 \ub9c8\ud3ec\uad6c \ub3d9\uad50\ub85c38\uae38 16", "website": "http://place.map.daum.net/26089191", "phone": "02-333-1066", "source": "\uc5f0\ub0a8\ub3d9 - \ud64d\ub300\uc785\uad6c\uc5ed - \ub3d9\ucc28\ubc25", "pid": "26089191"}}
  ,{"type": "Feature", "geometry": {"type": "Point", "coordinates": [126.987667118337, 37.5371520148732]}, "properties": {"name": "\uad6c\ub8e8\ub9dd", "address": "\uc11c\uc6b8 \uc6a9\uc0b0\uad6c \ub179\uc0ac\ud3c9\ub300\ub85c46\uae38 16", "website": "http://place.map.daum.net/27477811", "phone": "02-749-2082", "source": "\uc774\ud0dc\uc6d0\ub3d9 - \ub179\uc0ac\ud3c9\uc5ed - \uad6c\ub8e8\ub9dd", "pid": "27477811"}}
  ,{"type": "Feature", "geometry": {"type": "Point", "coordinates": [126.988296181398, 37.5373250709752]}, "properties": {"name": "\ub9c8\ub8e8\ucfe0\uc2dd\ub2f9", "address": "\uc11c\uc6b8 \uc6a9\uc0b0\uad6c \ub179\uc0ac\ud3c9\ub300\ub85c46\uae38 27", "website": "http://place.map.daum.net/26350675", "phone": "02-797-8984", "source": "\uc774\ud0dc\uc6d0\ub3d9 - \ub179\uc0ac\ud3c9\uc5ed - \ub9c8\ub8e8\ucfe0\uc2dd\ub2f9", "pid": "26350675"}}
  ,{"type": "Feature", "geometry": {"type": "Point", "coordinates": [126.976132031743, 37.5190292984527]}, "properties": {"name": "\ubbf8\ud0c0\ub2c8\uc57c \ub3d9\ubd80\uc774\ucd0c\uc810", "address": "\uc11c\uc6b8 \uc6a9\uc0b0\uad6c \uc774\ucd0c\ub85c 264", "website": "http://place.map.daum.net/2072270827", "phone": "02-797-4060", "source": "\uc774\ucd0c\ub3d9 - \ub3d9\ubd80\uc774\ucd0c\ub3d9\uc5ed - \ubbf8\ud0c0\ub2c8\uc57c", "pid": "2072270827"}}
  ,{"type": "Feature", "geometry": {"type": "Point", "coordinates": [126.933314579938, 37.5544978825665]}, "properties": {"name": "\ud788\ub178\ud0a4\uacf5\ubc29", "address": "\uc11c\uc6b8 \ub9c8\ud3ec\uad6c \uc2e0\ucd0c\ub85c14\uc548\uae38 3", "website": "http://place.map.daum.net/12273254", "phone": "02-3143-2979", "source": "\ub178\uace0\uc0b0\ub3d9 - \uc2e0\ucd0c\uc5ed - \ud788\ub178\ud0a4\uacf5\ubc29", "pid": "12273254"}}
  ,{"type": "Feature", "geometry": {"type": "Point", "coordinates": [127.062449582195, 37.6590258106654]}, "properties": {"name": "\ucbd4\uc774\ucf54", "address": "\uc11c\uc6b8 \ub178\uc6d0\uad6c \uc0c1\uacc4\ub85c1\uae38 62-57", "website": "http://place.map.daum.net/27515234", "phone": "02-931-3322", "source": "\uc0c1\uacc4\ub3d9 - \ub178\uc6d0\uc5ed - \ucbd4\uc774\ucf54", "pid": "27515234"}}
  ,{"type": "Feature", "geometry": {"type": "Point", "coordinates": [127.004188820075, 37.580555418]}, "properties": {"name": "\ub3c8\ud150\ub3d9\uc2dd\ub2f9", "address": "\uc11c\uc6b8 \uc885\ub85c\uad6c \ub3d9\uc22d\uae38 51", "website": "http://place.map.daum.net/21329976", "phone": "070-4103-4132", "source": "\ub3d9\uc22d\ub3d9 - \ub300\ud559\ub85c\uc5ed - \ub3c8\ud150\ub3d9\uc2dd\ub2f9", "pid": "21329976"}}
  ,{"type": "Feature", "geometry": {"type": "Point", "coordinates": [126.999284481172, 37.5829665490762]}, "properties": {"name": "\uc138\uc774\uce58\uc988\ud1a0\uc2a4\ud2b8 \ub300\ud559\ub85c\uc810", "address": "\uc11c\uc6b8 \uc885\ub85c\uad6c \ub300\uba85\uae38 42", "website": "http://place.map.daum.net/1518943689", "phone": "", "source": "\ub2f9\uc8fc\ub3d9 - \uad11\ud654\ubb38\uc5ed - \uc138\uc774", "pid": "1518943689"}}
  ,{"type": "Feature", "geometry": {"type": "Point", "coordinates": [126.99953384138, 37.5368823578011]}, "properties": {"name": "\uc9c4\ub3c8\ubd80\ub9ac", "address": "\uc11c\uc6b8 \uc6a9\uc0b0\uad6c \uc774\ud0dc\uc6d0\ub85c55\uac00\uae38 38", "website": "http://place.map.daum.net/16094203", "phone": "02-797-1179", "source": "\ud55c\ub0a8\ub3d9 - \ud55c\ub0a8\uc5ed - \uc9c4\ub3c8\ubd80\ub9ac", "pid": "16094203"}}
  ,{"type": "Feature", "geometry": {"type": "Point", "coordinates": [127.051065727063, 37.5847719079397]}, "properties": {"name": "\ub9c8\uce74\ub098\uc774 \uc2dc\ub9bd\ub300\ubcf8\uc810", "address": "\uc11c\uc6b8 \ub3d9\ub300\ubb38\uad6c \uc655\uc0b0\ub85c 272", "website": "http://place.map.daum.net/16448965", "phone": "02-969-2972", "source": "\uc804\ub18d\ub3d9 - \uccad\ub7c9\ub9ac\uc5ed - \ub9c8\uce74\ub098\uc774", "pid": "16448965"}}
  ,{"type": "Feature", "geometry": {"type": "Point", "coordinates": [127.023280752901, 37.5222477981955]}, "properties": {"name": "\uc9c0\uad6c\ub2f9 \uac00\ub85c\uc218\uae38\uc810", "address": "\uc11c\uc6b8 \uac15\ub0a8\uad6c \uc555\uad6c\uc815\ub85c14\uae38 32", "website": "http://place.map.daum.net/27345296", "phone": "", "source": "\uc2e0\uc0ac\ub3d9 - \uac00\ub85c\uc218\uae38\uc5ed - \uc9c0\uad6c\ub2f9", "pid": "27345296"}}
  ,{"type": "Feature", "geometry": {"type": "Point", "coordinates": [127.021044019692, 37.5171953925538]}, "properties": {"name": "\ub2dd\uad50\ucd08\ub3c8\ubd80\ub9ac \uc2e0\uc0ac\uc810", "address": "\uc11c\uc6b8 \uac15\ub0a8\uad6c \ub3c4\uc0b0\ub300\ub85c 115", "website": "http://place.map.daum.net/17446101", "phone": "02-3448-0333", "source": "\uc2e0\uc0ac\ub3d9 - \uac00\ub85c\uc218\uae38\uc5ed - \ub2dd\uad50\ucd08\ub3c8\ubd80\ub9ac", "pid": "17446101"}}
  ,{"type": "Feature", "geometry": {"type": "Point", "coordinates": [127.021760234956, 37.5217579426294]}, "properties": {"name": "\ub2e4\uc774\uce78\uc57c\ub9c8\ud0a4\uce5c", "address": "\uc11c\uc6b8 \uac15\ub0a8\uad6c \uc555\uad6c\uc815\ub85c10\uae38 30-3", "website": "http://place.map.daum.net/27315740", "phone": "02-547-9776", "source": "\uc2e0\uc0ac\ub3d9 - \uac00\ub85c\uc218\uae38\uc5ed - \ub2e4\uc774\uce78\uc57c\ub9c8\ud0a4\uce5c", "pid": "27315740"}}
  ,{"type": "Feature", "geometry": {"type": "Point", "coordinates": [127.010481410861, 37.5018941389855]}, "properties": {"name": "\ub9c8\ub8e8\uc2ec \ubcf8\uc810", "address": "\uc11c\uc6b8 \uc11c\ucd08\uad6c \uace0\ubb34\ub798\ub85c10\uae38 10", "website": "http://place.map.daum.net/13582855", "phone": "02-592-8998", "source": "\ubc18\ud3ec\ub3d9 - \uace0\uc18d\ud130\ubbf8\ub110\uc5ed - \ub9c8\ub8e8\uc2ec", "pid": "13582855"}}
  ,{"type": "Feature", "geometry": {"type": "Point", "coordinates": [127.110309385989, 37.5104386863379]}, "properties": {"name": "\ub9cc\ud478\ucfe0", "address": "\uc11c\uc6b8 \uc1a1\ud30c\uad6c \uc624\uae08\ub85c18\uae38 4-9", "website": "http://place.map.daum.net/23372407", "phone": "02-424-4702", "source": "\uc1a1\ud30c\ub3d9 - \uc7a0\uc2e4\uc5ed - \ub9cc\ud478\ucfe0", "pid": "23372407"}}
  ,{"type": "Feature", "geometry": {"type": "Point", "coordinates": [127.126694105736, 37.5360287256748]}, "properties": {"name": "\ubbf8\ub3c4\ub9ac", "address": "\uc11c\uc6b8 \uac15\ub3d9\uad6c \ucc9c\ud638\uc61b14\uae38 22", "website": "http://place.map.daum.net/19332214", "phone": "02-482-8246", "source": "\uc131\ub0b4\ub3d9 - \ucc9c\ud638\uc5ed - \ubbf8\ub3c4\ub9ac", "pid": "19332214"}}
  ,{"type": "Feature", "geometry": {"type": "Point", "coordinates": [127.102452348525, 37.4883747234024]}, "properties": {"name": "\uc640\ud6c4\uc9c4", "address": "\uc11c\uc6b8 \uac15\ub0a8\uad6c \uad11\ud3c9\ub85c51\uae38 8", "website": "http://place.map.daum.net/17193131", "phone": "02-3412-8155", "source": "\uc218\uc11c\ub3d9 - \uc218\uc11c\uc5ed - \uc640\ud6c4\uc9c4", "pid": "17193131"}}
  ,{"type": "Feature", "geometry": {"type": "Point", "coordinates": [127.00212704210077, 37.53373244102722]}, "properties": {"name": "\uc77c\ud638\uc2dd \uc0ac\uc6b4\uc988\ud55c\ub0a8\uc810", "address": "\uc11c\uc6b8 \uc6a9\uc0b0\uad6c \ub300\uc0ac\uad00\ub85c 35", "website": "http://place.map.daum.net/24264865", "phone": "02-794-2648", "source": "\ud55c\ub0a8\ub3d9 - \ud55c\ub0a8\uc5ed - \uc77c\ud638\uc2dd", "pid": "24264865"}}
  ,{"type": "Feature", "geometry": {"type": "Point", "coordinates": [127.043421494335, 37.5227466723821]}, "properties": {"name": "\uccad\ub2f4\uace8", "address": "\uc11c\uc6b8 \uac15\ub0a8\uad6c \uc120\ub989\ub85c148\uae38 48", "website": "http://place.map.daum.net/13294017", "phone": "02-543-1252", "source": "\uccad\ub2f4\ub3d9 - \uac15\ub0a8\uad6c\uccad\uc5ed - \uccad\ub2f4\uace8", "pid": "13294017"}}
  ,{"type": "Feature", "geometry": {"type": "Point", "coordinates": [127.031098664335, 37.4976341575722]}, "properties": {"name": "\uc11c\uc9c4\uc2dd\ub2f9", "address": "\uc11c\uc6b8 \uac15\ub0a8\uad6c \uac15\ub0a8\ub300\ub85c84\uae38 33", "website": "http://place.map.daum.net/27504286", "phone": "02-553-9576", "source": "\uc5ed\uc0bc\ub3d9 - \uac15\ub0a8\uc5ed - \uc11c\uc9c4\uc2dd\ub2f9", "pid": "27504286"}}
  ,{"type": "Feature", "geometry": {"type": "Point", "coordinates": [126.987801646366, 37.5725756555685]}, "properties": {"name": "\uc77c\ubbf8\uc2dd\ub2f9", "address": "\uc11c\uc6b8 \uc885\ub85c\uad6c \uc0bc\uc77c\ub300\ub85c 428", "website": "http://place.map.daum.net/15700115", "phone": "02-766-6588", "source": "\ub099\uc6d0\ub3d9 - \uc885\ub85c3\uac00\uc5ed - \uc77c\ubbf8\uc2dd\ub2f9", "pid": "15700115"}}
  ,{"type": "Feature", "geometry": {"type": "Point", "coordinates": [126.920177999979, 37.5456203058257]}, "properties": {"name": "\ub2f9\uc778\uc2dd\ub2f9", "address": "\uc11c\uc6b8 \ub9c8\ud3ec\uad6c \uc640\uc6b0\uc0b0\ub85c3\uae38 50", "website": "http://place.map.daum.net/27120754", "phone": "02-335-0255", "source": "\ub2f9\uc778\ub3d9 - \uc0c1\uc218\uc5ed - \ub2f9\uc778\uc2dd\ub2f9", "pid": "27120754"}}
  ,{"type": "Feature", "geometry": {"type": "Point", "coordinates": [126.990305417094, 37.5740967671284]}, "properties": {"name": "\uc775\uc120\ub3d9121", "address": "\uc11c\uc6b8 \uc885\ub85c\uad6c \ub3c8\ud654\ubb38\ub85c11\ub098\uae38 30", "website": "http://place.map.daum.net/25549560", "phone": "02-765-0121", "source": "\uc775\uc120\ub3d9 - \uc885\ub85c3\uac15\uaca8 - \uc775\uc120\ub3d9 121", "pid": "25549560"}}
  ,{"type": "Feature", "geometry": {"type": "Point", "coordinates": [127.043785621446, 37.5805545797471]}, "properties": {"name": "\uad11\uc8fc\uc2dd\ub2f9", "address": "\uc11c\uc6b8 \ub3d9\ub300\ubb38\uad6c \uacbd\ub3d9\uc2dc\uc7a5\ub85c2\uae38 49-4", "website": "http://place.map.daum.net/18829150", "phone": "02-969-4403", "source": "\uccad\ub7c9\ub9ac\ub3d9 - \uccad\ub7c9\ub9ac\uc5ed - \uad11\uc8fc\uc2dd\ub2f9", "pid": "18829150"}}
  ,{"type": "Feature", "geometry": {"type": "Point", "coordinates": [126.921148855133, 37.5521081468158]}, "properties": {"name": "\ubb38\uc219\uc774\ubbf8\ub098\ub9ac\uc2dd\ub2f9 \ubcf8\uc810", "address": "\uc11c\uc6b8 \ub9c8\ud3ec\uad6c \uc794\ub2e4\ub9ac\ub85c6\uae38 34-5", "website": "http://place.map.daum.net/26858884", "phone": "02-322-2827", "source": "\uc11c\uad50\ub3d9 - \ud64d\ub300\uc785\uad6c\uc5ed - \ubbf8\ub098\ub9ac\uc2dd\ub2f9", "pid": "26858884"}}
  ,{"type": "Feature", "geometry": {"type": "Point", "coordinates": [126.919713291109, 37.5484383147205]}, "properties": {"name": "\uc639\ub2ec\uc0d8 \ubcf8\uc810", "address": "\uc11c\uc6b8 \ub9c8\ud3ec\uad6c \uc591\ud654\ub85c6\uae38 99", "website": "http://place.map.daum.net/26871332", "phone": "02-333-2440", "source": "\uc11c\uad50\ub3d9 - \ud64d\ub300\uc785\uad6c\uc5ed - \uc639\ub2ec\uc0d8", "pid": "26871332"}}
  ,{"type": "Feature", "geometry": {"type": "Point", "coordinates": [127.043363499971, 37.5476287283931]}, "properties": {"name": "\ud560\uba38\ub2c8\uc758\ub808\uc2dc\ud53c", "address": "\uc11c\uc6b8 \uc131\ub3d9\uad6c \uc11c\uc6b8\uc2326\uae38 15-1", "website": "http://place.map.daum.net/27373628", "phone": "02-467-5101", "source": "\uc131\uc218\ub3d9 - \ub69d\uc12c\uc5ed - \ud560\uba38\ub2c8\uc758 \ub808\uc2dc\ud53c", "pid": "27373628"}}
  ,{"type": "Feature", "geometry": {"type": "Point", "coordinates": [126.921148208727, 37.548424865676]}, "properties": {"name": "\uacbd\uc8fc\uc2dd\ub2f9", "address": "\uc11c\uc6b8 \ub9c8\ud3ec\uad6c \uc640\uc6b0\uc0b0\ub85c13\uae38 49-7", "website": "http://place.map.daum.net/27315733", "phone": "02-322-1674", "source": "\uc0c1\uc218\ub3d9 - \uc0c1\uc218\uc5ed - \uacbd\uc8fc\uc2dd\ub2f9", "pid": "27315733"}}
  ,{"type": "Feature", "geometry": {"type": "Point", "coordinates": [126.904858352266, 37.5547234533578]}, "properties": {"name": "\ud64d\ud0c0\ud558\uc6b0\uc2a4", "address": "\uc11c\uc6b8 \ub9c8\ud3ec\uad6c \ud76c\uc6b0\uc815\ub85c16\uae38 54", "website": "http://place.map.daum.net/26857065", "phone": "", "source": "\uc0c1\uc218\ub3d9 - \uc0c1\uc218\uc5ed - \ud64d\ud0c0\ud558\uc6b0\uc2a4", "pid": "26857065"}}
  ,{"type": "Feature", "geometry": {"type": "Point", "coordinates": [126.920900635432, 37.5513979943797]}, "properties": {"name": "\ucc28\uc6c5\uac00", "address": "\uc11c\uc6b8 \ub9c8\ud3ec\uad6c \uc794\ub2e4\ub9ac\ub85c 20-12", "website": "http://place.map.daum.net/8229224", "phone": "02-323-9930", "source": "\uc11c\uad50\ub3d9 - \ud569\uc815\uc5ed - \ub098\ubb3c\uba39\ub294\uacf0", "pid": "8229224"}}
  ,{"type": "Feature", "geometry": {"type": "Point", "coordinates": [126.924497306653, 37.5489388217845]}, "properties": {"name": "\ubaa8 \ud64d\ub300\ubcf8\uc810", "address": "\uc11c\uc6b8 \ub9c8\ud3ec\uad6c \ub3c5\ub9c9\ub85c19\uae38 32", "website": "http://place.map.daum.net/24768825", "phone": "02-6203-6911", "source": "\uc11c\uad50\ub3d9 - \ud569\uc815\uc5ed - \ubaa8", "pid": "24768825"}}
  ,{"type": "Feature", "geometry": {"type": "Point", "coordinates": [126.922008475305, 37.5525484047186]}, "properties": {"name": "\uadf8\ub140\uc758\ubc25\uc0c1", "address": "\uc11c\uc6b8 \ub9c8\ud3ec\uad6c \uc640\uc6b0\uc0b0\ub85c21\uae38 36-4", "website": "http://place.map.daum.net/27282036", "phone": "02-324-4074", "source": "\uc11c\uad50\ub3d9 - \ud64d\ub300\uc785\uad6c\uc5ed - \uadf8\ub140\uc758\ubc25\uc0c1", "pid": "27282036"}}
  ,{"type": "Feature", "geometry": {"type": "Point", "coordinates": [126.93990629230946, 37.54813677050913]}, "properties": {"name": "\ub3c4\uaf2d\uc9c0", "address": "\uc11c\uc6b8 \ub9c8\ud3ec\uad6c \ubc31\ubc94\ub85c10\uae38 30", "website": "http://place.map.daum.net/2019896158", "phone": "02-711-0431", "source": "\uc11c\uad50\ub3d9 - \ud64d\ub300\uc785\uad6c\uc5ed - \ub3c4\uaf2d\uc9c0", "pid": "2019896158"}}
  ,{"type": "Feature", "geometry": {"type": "Point", "coordinates": [126.927436330501, 37.5662722452299]}, "properties": {"name": "\ubd09\uc96c\ub974\ubc25\uc0c1", "address": "\uc11c\uc6b8 \uc11c\ub300\ubb38\uad6c \uc5f0\ud76c\ub85c11\uac00\uae38 53", "website": "http://place.map.daum.net/19313939", "phone": "02-337-9850", "source": "\uc5f0\ud76c\ub3d9 - \uc2e0\ucd0c\uc5ed - \ubd09\uc96c\ub974\ubc25\uc0c1", "pid": "19313939"}}
  ,{"type": "Feature", "geometry": {"type": "Point", "coordinates": [126.974540361268, 37.6091105764207]}, "properties": {"name": "\uc6b0\ub178\uc57c", "address": "\uc11c\uc6b8 \uc885\ub85c\uad6c \ud3c9\ucc3d\ubb38\ud654\ub85c 130", "website": "http://place.map.daum.net/16418501", "phone": "02-379-5929", "source": "\ud3c9\ucc3d\ub3d9 - \ud64d\uc81c\uc5ed - \uc6b0\ub178\uc57c", "pid": "16418501"}}
  ,{"type": "Feature", "geometry": {"type": "Point", "coordinates": [126.93868087764662, 37.55764347037842]}, "properties": {"name": "\uc720\ud0c0\uce74\ub098 \ubcf8\uc810", "address": "\uc11c\uc6b8 \uc11c\ub300\ubb38\uad6c \uc5f0\uc138\ub85c4\uae38 36", "website": "http://place.map.daum.net/18618208", "phone": "", "source": "\ucc3d\ucc9c\ub3d9 - \uc2e0\ucd0c\uc5ed - \uc720\ud0c0\uce74\ub098", "pid": "18618208"}}
  ,{"type": "Feature", "geometry": {"type": "Point", "coordinates": [126.92137439078, 37.5528705414174]}, "properties": {"name": "\ub9cc\ub9cc\ucf54\ucf54\ub85c \ud64d\ub300\uc810", "address": "\uc11c\uc6b8 \ub9c8\ud3ec\uad6c \uc591\ud654\ub85c16\uae38 34", "website": "http://place.map.daum.net/1792643631", "phone": "02-335-0004", "source": "\uc11c\uad50\ub3d9 - \ud64d\ub300\uc785\uad6c\uc5ed - \ucf54\ucf54\ub85c", "pid": "1792643631"}}
  ,{"type": "Feature", "geometry": {"type": "Point", "coordinates": [126.922538206065, 37.5611983266779]}, "properties": {"name": "\uc591\uac31\uc2dd\ub2f9", "address": "\uc11c\uc6b8 \ub9c8\ud3ec\uad6c \uc5f0\ub0a8\ub85c 17", "website": "http://place.map.daum.net/26568377", "phone": "02-332-5115", "source": "\uc5f0\ub0a8\ub3d9 - \ud64d\ub300\uc785\uad6c\uc5ed - \uc591\uac31\uc2dd\ub2f9", "pid": "26568377"}}
  ,{"type": "Feature", "geometry": {"type": "Point", "coordinates": [126.969575594508, 37.5749581996164]}, "properties": {"name": "\ucf54\uc5d4", "address": "\uc11c\uc6b8 \uc885\ub85c\uad6c \uc0ac\uc9c1\ub85c8\uae38 4", "website": "http://place.map.daum.net/11831530", "phone": "02-738-1717", "source": "\uc0ac\uc9c1\ub3d9 - \uad11\ud654\ubb38\uc5ed - \ucf54\uc5d4", "pid": "11831530"}}
  ,{"type": "Feature", "geometry": {"type": "Point", "coordinates": [126.969569142182, 37.5796866158588]}, "properties": {"name": "\uc26c\ub294\uc2dc\uac04", "address": "\uc11c\uc6b8 \uc885\ub85c\uad6c \uc790\ud558\ubb38\ub85c7\uae38 52", "website": "http://place.map.daum.net/20616390", "phone": "02-3210-3370", "source": "\ud1b5\uc778\ub3d9 - \uacbd\ubcf5\uad81\uc5ed - \uc26c\ub294\uc2dc\uac04", "pid": "20616390"}}
  ,{"type": "Feature", "geometry": {"type": "Point", "coordinates": [126.985220217273, 37.5750332745031]}, "properties": {"name": "\ub204\ub9ac", "address": "\uc11c\uc6b8 \uc885\ub85c\uad6c \uc778\uc0ac\ub3d914\uae38 23", "website": "http://place.map.daum.net/8850738", "phone": "02-736-7848", "source": "\uad00\ud6c8\ub3d9 - \uc548\uad6d\uc5ed - \ub204\ub9ac", "pid": "8850738"}}
  ,{"type": "Feature", "geometry": {"type": "Point", "coordinates": [126.971609532027, 37.5728143386711]}, "properties": {"name": "\ud14c\uc774\uc5d4", "address": "\uc11c\uc6b8 \uc885\ub85c\uad6c \uacbd\ud76c\uad812\uae38 14-6", "website": "http://place.map.daum.net/14714818", "phone": "02-733-5327", "source": "\ub0b4\uc218\ub3d9 - \uad11\ud654\ubb38\uc5ed - \ud14c\uc774\uc5d4", "pid": "14714818"}}
  ,{"type": "Feature", "geometry": {"type": "Point", "coordinates": [126.92291919841148, 37.608939955046026]}, "properties": {"name": "\ubca4\ub610\uc0ac\ub9c8", "address": "\uc11c\uc6b8 \uc740\ud3c9\uad6c \uc5ed\ub9d0\ub85c8\uae38 25", "website": "http://place.map.daum.net/16378318", "phone": "", "source": "\ub300\uc870\ub3d9 - \ubd88\uad11\uc5ed - \ubca4\ub610\uc0ac\ub9c8", "pid": "16378318"}}
  ,{"type": "Feature", "geometry": {"type": "Point", "coordinates": [126.974303717077, 37.5199695620956]}, "properties": {"name": "\uc2a4\uc988\ub780\ud14c\uc774", "address": "\uc11c\uc6b8 \uc6a9\uc0b0\uad6c \uc774\ucd0c\ub85c 245", "website": "http://place.map.daum.net/16558563", "phone": "02-749-5324", "source": "\uc774\ucd0c\ub3d9 - \uc774\ucd0c\uc5ed - \uc2a4\uc988\ub780\ud14c\uc774", "pid": "16558563"}}
  ,{"type": "Feature", "geometry": {"type": "Point", "coordinates": [126.954174562438, 37.5468817715916]}, "properties": {"name": "\ud0c0\ud0c0\ubbf8\uacf5\ub355\uc810", "address": "\uc11c\uc6b8 \ub9c8\ud3ec\uad6c \ub9c8\ud3ec\ub300\ub85c8\uc548\uae38 13", "website": "http://place.map.daum.net/24062170", "phone": "02-716-3228", "source": "\uccad\ud30c\ub3d9 - \uc219\ub300\uc785\uad6c\uc5ed - \ud0c0\ud0c0\ubbf8", "pid": "24062170"}}
  ,{"type": "Feature", "geometry": {"type": "Point", "coordinates": [126.969687647704, 37.5442702714706]}, "properties": {"name": "\ud1a0\ub3c4\ub9c8\ub8e8", "address": "\uc11c\uc6b8 \uc6a9\uc0b0\uad6c \uccad\ud30c\ub85c45\uae38 15", "website": "http://place.map.daum.net/13314733", "phone": "02-714-0323", "source": "\uccad\ud30c\ub3d9 - \uc219\ub300\uc785\uad6c\uc5ed - \ud1a0\ub3c4\ub9c8\ub8e8", "pid": "13314733"}}
  ,{"type": "Feature", "geometry": {"type": "Point", "coordinates": [126.953340686734, 37.5485104507813]}, "properties": {"name": "\ucf54\uc774\ud0a4", "address": "\uc11c\uc6b8 \ub9c8\ud3ec\uad6c \ub9c8\ud3ec\ub300\ub85c11\uae38 7-8", "website": "http://place.map.daum.net/19039864", "phone": "02-704-0104", "source": "\uacf5\ub355\ub3d9 - \uacf5\ub355\uc5ed - \ucf54\uc774\ud0a4", "pid": "19039864"}}
  ,{"type": "Feature", "geometry": {"type": "Point", "coordinates": [127.006028161462, 37.5341503707633]}, "properties": {"name": "\ud558\uc988\ubca4", "address": "\uc11c\uc6b8 \uc6a9\uc0b0\uad6c \ub300\uc0ac\uad00\ub85c31\uae38 20", "website": "http://place.map.daum.net/22301604", "phone": "02-797-7272", "source": "\ud55c\ub0a8\ub3d9 - \ud55c\ub0a8\uc5ed - \ud558\uc988\ubca4", "pid": "22301604"}}
  ,{"type": "Feature", "geometry": {"type": "Point", "coordinates": [126.889493069405, 37.5799343395231]}, "properties": {"name": "\ub9c8\uce58\ub798\ube57 \uc0c1\uc554\uc810", "address": "\uc11c\uc6b8 \ub9c8\ud3ec\uad6c \uc6d4\ub4dc\ucef5\ubd81\ub85c 402", "website": "http://place.map.daum.net/25577208", "phone": "02-6393-5205", "source": "\uc2e0\uc0ac\ub3d9 - \uc2e0\uc0ac\uc5ed - \ub9c8\uce58\ub798\ube57", "pid": "25577208"}}
  ,{"type": "Feature", "geometry": {"type": "Point", "coordinates": [127.038594109959, 37.524193556462]}, "properties": {"name": "\uc6b4\uc6b0", "address": "\uc11c\uc6b8 \uac15\ub0a8\uad6c \ub3c4\uc0b0\ub300\ub85c53\uae38 16", "website": "http://place.map.daum.net/26787508", "phone": "02-540-4009", "source": "\uc2e0\uc0ac\ub3d9 - \uc555\uad6c\uc815\ub85c\ub370\uc624\uc5ed - \uc6b4\uc6b0", "pid": "26787508"}}
  ,{"type": "Feature", "geometry": {"type": "Point", "coordinates": [127.032757557239, 37.5155709183164]}, "properties": {"name": "\ud558\ucf54", "address": "\uc11c\uc6b8 \uac15\ub0a8\uad6c \ub17c\ud604\ub85c132\uae38 29", "website": "http://place.map.daum.net/19141901", "phone": "", "source": "\ub17c\ud604\ub3d9 - \ud559\ub3d9\uc5ed - \ud558\ucf54", "pid": "19141901"}}
  ,{"type": "Feature", "geometry": {"type": "Point", "coordinates": [127.028320605236, 37.57964028931]}, "properties": {"name": "\uc5b4\uba38\ub2c8\ub300\uc131\uc9d1", "address": "\uc11c\uc6b8 \ub3d9\ub300\ubb38\uad6c \ubb34\ud559\ub85c43\uae38 44", "website": "http://place.map.daum.net/11110457", "phone": "02-923-1718", "source": "\uc6a9\ub450\ub3d9 - \uc2e0\uc124\ub3d9\uc5ed - \uc5b4\uba38\ub2c8\ub300\uc131\uc9d1", "pid": "11110457"}}
  ,{"type": "Feature", "geometry": {"type": "Point", "coordinates": [127.065472540919, 37.508273597184]}, "properties": {"name": "\uc911\uc559\ud574\uc7a5", "address": "\uc11c\uc6b8 \uac15\ub0a8\uad6c \uc601\ub3d9\ub300\ub85c86\uae38 17", "website": "http://place.map.daum.net/27531028", "phone": "02-558-7905", "source": "\ub300\uce58\ub3d9 - \uc0bc\uc131\uc5ed - \uc911\uc559\ud574\uc7a5", "pid": "27531028"}}
  ,{"type": "Feature", "geometry": {"type": "Point", "coordinates": [126.98502310323119, 37.564430335182415]}, "properties": {"name": "\ud558\ub3d9\uad00 \uba85\ub3d9\ubcf8\uc810", "address": "\uc11c\uc6b8 \uc911\uad6c \uba85\ub3d99\uae38 12", "website": "http://place.map.daum.net/1822111964", "phone": "02-776-5656", "source": "\uba85\ub3d9 - \uba85\ub3d9\uc5ed - \ud558\ub3d9\uad00 (\ub300\uce58\ub3d9\uc5d0\ub3c4 \ubd84\uc810)", "pid": "1822111964"}}
  ,{"type": "Feature", "geometry": {"type": "Point", "coordinates": [126.98658716122, 37.578089610761]}, "properties": {"name": "\ud130\uc90f\uace8\uba85\uac00", "address": "\uc11c\uc6b8 \uc885\ub85c\uad6c \uacc4\ub3d9\uae38 17", "website": "http://place.map.daum.net/1437474739", "phone": "02-747-5655", "source": "\ubb34\uad50\ub3d9 - \uc744\uc9c0\ub85c \uc785\uad6c\uc5ed - \ud130\uc90f\uace8", "pid": "1437474739"}}
  ,{"type": "Feature", "geometry": {"type": "Point", "coordinates": [126.97944890786793, 37.571717650682224]}, "properties": {"name": "\uccad\uc9c4\uc625 \ubcf8\uc810", "address": "\uc11c\uc6b8 \uc885\ub85c\uad6c \uc885\ub85c3\uae38 32", "website": "http://place.map.daum.net/27540102", "phone": "02-735-1690", "source": "\uc885\ub85c1\uac00 - \uad11\ud654\ubb38\uc5ed - \uccad\uc9c4\uc625", "pid": "27540102"}}
  ,{"type": "Feature", "geometry": {"type": "Point", "coordinates": [126.980271942886, 37.5713925318325]}, "properties": {"name": "\ud765\uc9c4\uc625", "address": "\uc11c\uc6b8 \uc885\ub85c\uad6c \uc885\ub85c5\uae38 19-12", "website": "http://place.map.daum.net/16445173", "phone": "02-732-2214", "source": "\uc885\ub85c1\uac00 - \uad11\ud654\ubb38\uc5ed - \ud765\uc9c4\uc625", "pid": "16445173"}}
  ,{"type": "Feature", "geometry": {"type": "Point", "coordinates": [126.988322446293, 37.5720423191573]}, "properties": {"name": "\uc720\uc9c4\uc2dd\ub2f9", "address": "\uc11c\uc6b8 \uc885\ub85c\uad6c \uc885\ub85c17\uae38 40", "website": "http://place.map.daum.net/8041476", "phone": "02-764-2835", "source": "\ub099\uc6d0\ub3d9 - \uc885\ub85c 3\uac00\uc5ed - \uc720\uc9c4\uc2dd\ub2f9", "pid": "8041476"}}
  ,{"type": "Feature", "geometry": {"type": "Point", "coordinates": [126.973977275672, 37.5348864781984]}, "properties": {"name": "\ud3c9\uc591\uc9d1", "address": "\uc11c\uc6b8 \uc6a9\uc0b0\uad6c \ud55c\uac15\ub300\ub85c 186", "website": "http://place.map.daum.net/8122347", "phone": "02-793-6866", "source": "\ud55c\uac15\ub85c1\uac00 - \uc0bc\uac01\uc9c0\uc5ed - \ud3c9\uc591\uc9d1", "pid": "8122347"}}
  ,{"type": "Feature", "geometry": {"type": "Point", "coordinates": [126.960412992937, 37.5363747672842]}, "properties": {"name": "\ucc3d\uc131\uc625 \uc6a9\ubb38\ubcf8\uc810", "address": "\uc11c\uc6b8 \uc6a9\uc0b0\uad6c \uc0c8\ucc3d\ub85c 124-10", "website": "http://place.map.daum.net/10469081", "phone": "02-718-2878", "source": "\uc6a9\ubb38\ub3d9 - \ud6a8\ucc3d\uacf5\uc6d0\uc5ed - \ucc3d\uc131\uc625", "pid": "10469081"}}
  ,{"type": "Feature", "geometry": {"type": "Point", "coordinates": [126.960882841969, 37.5379678925348]}, "properties": {"name": "\uc6a9\ubb38\ud574\uc7a5\uad6d", "address": "\uc11c\uc6b8 \uc6a9\uc0b0\uad6c \ud6a8\ucc3d\uc6d0\ub85c 110", "website": "http://place.map.daum.net/10617612", "phone": "02-712-6290", "source": "\uc6a9\ubb38\ub3d9 - \ud6a8\ucc3d\uacf5\uc6d0\uc5ed - \uc6a9\ubb38\ud574\uc7a5\uad6d", "pid": "10617612"}}
  ,{"type": "Feature", "geometry": {"type": "Point", "coordinates": [126.96087289948, 37.5396725814949]}, "properties": {"name": "\ud55c\uc131\uc625\ud574\uc7a5\uad6d", "address": "\uc11c\uc6b8 \uc6a9\uc0b0\uad6c \ubc31\ubc94\ub85c 283", "website": "http://place.map.daum.net/15888481", "phone": "02-718-9031", "source": "\uc6a9\ubb38\ub3d9 - \ud6a8\ucc3d\uacf5\uc6d0\uc5ed - \ud55c\uc131\uc625", "pid": "15888481"}}
  ,{"type": "Feature", "geometry": {"type": "Point", "coordinates": [127.05579495970723, 37.50447271946909]}, "properties": {"name": "\ubc18\ub8e1\uc0b0", "address": "\uc11c\uc6b8 \uac15\ub0a8\uad6c \ud14c\ud5e4\ub780\ub85c78\uae38 26", "website": "http://place.map.daum.net/10406623", "phone": "02-3446-8966", "source": "\ub300\uce58\ub3d9 - \uc120\ub989\uc5ed - \ubc18\ub8e1\uc0b0", "pid": "10406623"}}
  ,{"type": "Feature", "geometry": {"type": "Point", "coordinates": [127.043469060789, 37.6280044396834]}, "properties": {"name": "\ud560\uba38\ub2c8\ud574\uc7a5\uad6d", "address": "\uc11c\uc6b8 \uac15\ubd81\uad6c \uc6d4\uacc4\ub85c37\uae38 137-6", "website": "http://place.map.daum.net/8154336", "phone": "02-915-1541", "source": "\uc7a5\uc704\ub3d9 - \ub3cc\uacf6\uc774\uc5ed - \ud560\uba38\ub2c8 \ud574\uc7a5\uad6d", "pid": "8154336"}}
  ,{"type": "Feature", "geometry": {"type": "Point", "coordinates": [126.952868556886, 37.5435007087768]}, "properties": {"name": "\uc9c4\uc2dc\ud669\ubd81\uc5b4\uad6d", "address": "\uc11c\uc6b8 \ub9c8\ud3ec\uad6c \ubc31\ubc94\ub85c 199", "website": "http://place.map.daum.net/27113128", "phone": "02-703-5970", "source": "\uacf5\ub355\ub3d9 - \uacf5\ub355\uc5ed - \uc9c4\uc2dc\ud669\ubd81\uc5b4\uad6d", "pid": "27113128"}}
  ,{"type": "Feature", "geometry": {"type": "Point", "coordinates": [126.924526028882, 37.5563666665857]}, "properties": {"name": "\ub3c8\uc218\ubc31 \ud64d\ub300\ubcf8\uc810", "address": "\uc11c\uc6b8 \ub9c8\ud3ec\uad6c \ud64d\uc775\ub85c6\uae38 56", "website": "http://place.map.daum.net/8431668", "phone": "02-324-3131", "source": "\uc11c\uad50\ub3d9 - \ud64d\ub300\uc785\uad6c\uc5ed - \ub3c8\uc218\ubc31", "pid": "8431668"}}
  ,{"type": "Feature", "geometry": {"type": "Point", "coordinates": [126.941364709741, 37.5412250380936]}, "properties": {"name": "\uc11c\uc528\ub124\ud574\uc7a5\uad6d", "address": "\uc11c\uc6b8 \ub9c8\ud3ec\uad6c \ud1a0\uc815\ub85c 290", "website": "http://place.map.daum.net/13290723", "phone": "02-712-6134", "source": "\uc6a9\uac15\ub3d9 - \ub9c8\ud3ec\uc5ed - \uc11c\uc528\ub124\ud574\uc7a5\uad6d", "pid": "13290723"}}
  ,{"type": "Feature", "geometry": {"type": "Point", "coordinates": [126.95562695718121, 37.608913970869004]}, "properties": {"name": "\uc7a5\ubaa8\ub2d8\ud574\uc7a5\uad6d", "address": "\uc11c\uc6b8 \uc885\ub85c\uad6c \uc9c4\ud765\ub85c 421", "website": "http://place.map.daum.net/8072537", "phone": "02-379-4294", "source": "\uad6c\uae30\ub3d9 - \ud64d\uc81c\uc5ed - \uc7a5\ubaa8\ub2d8 \ud574\uc7a5\uad6d", "pid": "8072537"}}
  ,{"type": "Feature", "geometry": {"type": "Point", "coordinates": [126.928280236177, 37.6021863442287]}, "properties": {"name": "\uc6b0\uc8fc\ubbf8", "address": "\uc11c\uc6b8 \uc740\ud3c9\uad6c \uc740\ud3c9\ub85c 185", "website": "http://place.map.daum.net/10188825", "phone": "02-354-7788", "source": "\ub179\ubc88\ub3d9 - \ub179\ubc88\uc5ed - \uc6b0\uc8fc\ubbf8", "pid": "10188825"}}
  ,{"type": "Feature", "geometry": {"type": "Point", "coordinates": [126.985709984841, 37.5712095123052]}, "properties": {"name": "\uc2dc\uace8\uc9d1", "address": "\uc11c\uc6b8 \uc885\ub85c\uad6c \uc885\ub85c11\uae38 22", "website": "http://place.map.daum.net/11120041", "phone": "02-734-0525", "source": "\uc778\uc0ac\ub3d9 - \uc885\uac01\uc5ed - \uc2dc\uace8\uc9d1", "pid": "11120041"}}
  ,{"type": "Feature", "geometry": {"type": "Point", "coordinates": [126.97840505445268, 37.56261716273881]}, "properties": {"name": "\uae40\uba85\uc790\uad74\uad6d\ubc25 \ubd81\ucc3d\uc810", "address": "\uc11c\uc6b8 \uc911\uad6c \uc138\uc885\ub300\ub85c14\uae38 28-3", "website": "http://place.map.daum.net/13320663", "phone": "02-777-9003", "source": "\ubd81\ucc3d\ub3d9 - \uc2dc\uccad\uc5ed - \uae40\uba85\uc790\uad74\uad6d\ubc25", "pid": "13320663"}}
  ,{"type": "Feature", "geometry": {"type": "Point", "coordinates": [126.973066389355, 37.563444324974]}, "properties": {"name": "\uccad\uc1a1\uc625", "address": "\uc11c\uc6b8 \uc911\uad6c \uc11c\uc18c\ubb38\ub85c11\uae38 14", "website": "http://place.map.daum.net/10854191", "phone": "02-754-1547", "source": "\uc11c\uc18c\ubb38\ub3d9 - \uc2dc\uccad\uc5ed - \uccad\uc1a1\uc625", "pid": "10854191"}}
  ,{"type": "Feature", "geometry": {"type": "Point", "coordinates": [126.97808302486, 37.5625695942553]}, "properties": {"name": "\ub9c8\uc0b0\uc9d1", "address": "\uc11c\uc6b8 \uc911\uad6c \uc138\uc885\ub300\ub85c14\uae38 22-5", "website": "http://place.map.daum.net/7863695", "phone": "02-752-2415", "source": "\ubd81\ucc3d\ub3d9 - \uc2dc\uccad\uc5ed - \ub9c8\uc0b0\uc9d1", "pid": "7863695"}}
  ,{"type": "Feature", "geometry": {"type": "Point", "coordinates": [126.99867747746863, 37.59264771033254]}, "properties": {"name": "\ub9c8\uc804\ud130", "address": "\uc11c\uc6b8 \uc131\ubd81\uad6c \ud61c\ud654\ub85c 82-2", "website": "http://place.map.daum.net/12178605", "phone": "02-765-7575", "source": "\uc131\ubd81\ub3d9 - \ud55c\uc131\ub300\uc785\uad6c\uc5ed - \ub9c8\uc804\ud130", "pid": "12178605"}}
  ,{"type": "Feature", "geometry": {"type": "Point", "coordinates": [127.018496264135, 37.5156028446266]}, "properties": {"name": "\uac15\ub0a8\ub530\ub85c\uad6d\ubc25", "address": "\uc11c\uc6b8 \uc11c\ucd08\uad6c \uc2e0\ubc18\ud3ec\ub85c47\uae38 119", "website": "http://place.map.daum.net/11044398", "phone": "02-543-2527", "source": "\uc7a0\uc6d0\ub3d9 - \uc2e0\uc0ac\uc5ed - \uac15\ub0a8\ub530\ub85c\uad6d\ubc25", "pid": "11044398"}}
  ,{"type": "Feature", "geometry": {"type": "Point", "coordinates": [126.955145715438, 37.5578166567904]}, "properties": {"name": "\ubd81\uc131\ud574\uc7a5\uad6d", "address": "\uc11c\uc6b8 \uc11c\ub300\ubb38\uad6c \uc2e0\ucd0c\ub85c35\uae38 7", "website": "http://place.map.daum.net/20616798", "phone": "02-364-3779", "source": "\uc544\ud604\ub3d9 - \uc544\ud604\uc5ed - \ubd81\uc131\ud574\uc7a5\uad6d", "pid": "20616798"}}
  ,{"type": "Feature", "geometry": {"type": "Point", "coordinates": [126.894407527456, 37.5374298110161]}, "properties": {"name": "\uc6d0\uc870\ubd81\uc5b4\uad6d", "address": "\uc11c\uc6b8 \uc601\ub4f1\ud3ec\uad6c \uc591\ud3c9\ub85c 117-1", "website": "http://place.map.daum.net/13499678", "phone": "02-2676-2849", "source": "\uc591\ud3c9\ub3d9 - \uc120\uc720\ub3c4\uc5ed - \uc6d0\uc870\ubd81\uc5b4\uad6d", "pid": "13499678"}}
  ,{"type": "Feature", "geometry": {"type": "Point", "coordinates": [127.008073730463, 37.5339340084116]}, "properties": {"name": "\ud55c\ub0a8\ubd81\uc5c7\uad6d", "address": "\uc11c\uc6b8 \uc6a9\uc0b0\uad6c \ub3c5\uc11c\ub2f9\ub85c 65-7", "website": "http://place.map.daum.net/11911367", "phone": "02-2297-1988", "source": "\ud55c\ub0a8\ub3d9 - \ud55c\ub0a8\uc5ed - \ud55c\ub0a8\ubd81\uc5c7\uad6d", "pid": "11911367"}}
  ,{"type": "Feature", "geometry": {"type": "Point", "coordinates": [127.043921623659, 37.5036524098749]}, "properties": {"name": "\uac00\ubd95\ud669\ud0dc\ub9c8\uc744", "address": "", "website": "http://place.map.daum.net/9444940", "phone": "02-560-3466", "source": "\uc5ed\uc0bc\ub3d9 - \uc5ed\uc0bc\uc5ed - \uac00\ubd95\ud669\ud0dc\ub9c8\uc744", "pid": "9444940"}}
  ,{"type": "Feature", "geometry": {"type": "Point", "coordinates": [126.910268347444, 37.6034750540259]}, "properties": {"name": "\ub300\uad00\ub839\ud669\ud0dc\ub9c8\uc744 \uc5ed\ucd0c\uc810", "address": "\uc11c\uc6b8 \uc740\ud3c9\uad6c \uac08\ud604\ub85c 61", "website": "http://place.map.daum.net/16705141", "phone": "02-382-5671", "source": "\uc5ed\ucd0c\ub3d9 - \uc751\uc554\uc5ed - \ub300\uad00\ub839\ud669\ud0dc\ub9c8\uc744", "pid": "16705141"}}
  ,{"type": "Feature", "geometry": {"type": "Point", "coordinates": [127.018663904071, 37.5165362580438]}, "properties": {"name": "\uc720\uba85\uad6d\uc591\ud3c9\ud574\uc7a5\uad6d", "address": "\uc11c\uc6b8 \uc11c\ucd08\uad6c \uac15\ub0a8\ub300\ub85c101\uae38 11", "website": "http://place.map.daum.net/9957512", "phone": "02-544-7777", "source": "\uc7a0\uc6d0\ub3d9 - \uc2e0\uc0ac\uc5ed - \uc720\uba85\uad6d \uc591\ud3c9 \ud574\uc7a5\uad6d", "pid": "9957512"}}
  ,{"type": "Feature", "geometry": {"type": "Point", "coordinates": [126.918742624626, 37.6169383649968]}, "properties": {"name": "\uc6d0\uc870\uc591\ud3c9\ud574\uc7a5\uad6d \uc9c1\uc601\uc810", "address": "\uc11c\uc6b8 \uc740\ud3c9\uad6c \uc5f0\uc11c\ub85c 203", "website": "http://place.map.daum.net/16414674", "phone": "02-354-5058", "source": "\ubd88\uad11\ub3d9 - \uc5f0\uc2e0\ub0b4\uc5ed - \ubbf8\uc18c\ubcf5 \uc591\ud3c9 \ud574\uc7a5\uad6d", "pid": "16414674"}}
  ,{"type": "Feature", "geometry": {"type": "Point", "coordinates": [127.080314226667, 37.510787250902]}, "properties": {"name": "\uc6d0\uc870\uc591\ud3c9\ud574\uc7a5\uad6d \uc7a0\uc2e4\uc810", "address": "\uc11c\uc6b8 \uc1a1\ud30c\uad6c \uc62c\ub9bc\ud53d\ub85c8\uae38 11", "website": "http://place.map.daum.net/21233965", "phone": "02-415-1126", "source": "\uc7a0\uc2e4\ub3d9 - \uc2e0\ucc9c\uc5ed - \uc6d0\uc870 \uc591\ud3c9 \ud574\uc7a5\uad6d", "pid": "21233965"}}
  ,{"type": "Feature", "geometry": {"type": "Point", "coordinates": [127.002939430541, 37.5923512547806]}, "properties": {"name": "\uc131\ubd81\ub3d9\uc62c\ub808\uad6d\uc218", "address": "\uc11c\uc6b8 \uc131\ubd81\uad6c \uc131\ubd81\ub85c 50-2", "website": "http://place.map.daum.net/15800636", "phone": "02-6348-1974", "source": "\uc131\ubd81\ub3d9 - \ud55c\uc131\ub300\uc785\uad6c\uc5ed - \uc62c\ub808\uad6d\uc218", "pid": "15800636"}}
  ,{"type": "Feature", "geometry": {"type": "Point", "coordinates": [126.816053348725, 37.5551554935147]}, "properties": {"name": "\uc804\uc8fc\ub730\ucf69\ub098\ubb3c\uad6d\ubc25", "address": "\uc11c\uc6b8 \uac15\uc11c\uad6c \ubc29\ud654\ub300\ub85c5\ub098\uae38 6", "website": "http://place.map.daum.net/25506306", "phone": "02-6371-0056", "source": "\uacf5\ud56d\ub3d9 - \uc1a1\uc815\uc5ed - \uc804\uc8fc\ub730\ucf69\ub098\ubb3c\uad6d\ubc25", "pid": "25506306"}}
  ,{"type": "Feature", "geometry": {"type": "Point", "coordinates": [127.04505561731874, 37.546334260489225]}, "properties": {"name": "\ube44\uc0ac\ubc8c \uc804\uc8fc\ucf69\ub098\ubb3c\uad6d\ubc25", "address": "\uc11c\uc6b8 \uc131\ub3d9\uad6c \uc655\uc2ed\ub9ac\ub85c6\uae38 1-2", "website": "http://place.map.daum.net/21237863", "phone": "02-464-8704", "source": "\uc131\uc218\ub3d9 - \uc11c\uc6b8\uc232\uc5ed, \ub69d\uc12c\uc5ed - \ube44\uc0ac\ubc8c \uc804\uc8fc \ucf69\ub098\ubb3c\uad6d\ubc25", "pid": "21237863"}}
  ,{"type": "Feature", "geometry": {"type": "Point", "coordinates": [126.978259472704, 37.5629804812858]}, "properties": {"name": "\uc804\uc8fc\uc720\ud560\uba38\ub2c8 \ube44\ube54\ubc25\uc9d1", "address": "\uc11c\uc6b8 \uc911\uad6c \uc138\uc885\ub300\ub85c14\uae38 27-2", "website": "http://place.map.daum.net/15571438", "phone": "02-752-9282", "source": "\ubd81\ucc3d\ub3d9 - \uc2dc\uccad\uc5ed - \uc804\uc8fc \uc720\ud560\uba38\ub2c8 \ube44\ube54\ubc25", "pid": "15571438"}}
  ,{"type": "Feature", "geometry": {"type": "Point", "coordinates": [127.018197331926, 37.5887855632428]}, "properties": {"name": "\uc77c\ud765\ucf69\ub098\ubb3c\ud574\uc7a5\uad6d", "address": "\uc11c\uc6b8 \uc131\ubd81\uad6c \uc778\ucd0c\ub85c5\uae38 81", "website": "http://place.map.daum.net/15995938", "phone": "02-923-9476", "source": "\uc0bc\uc120\ub3d9 - \uc131\uc2e0\uc5ec\ub300\uc785\uad6c\uc5ed - \uc77c\ud765\ucf69\ub098\ubb3c \ud574\uc7a5\uad6d", "pid": "15995938"}}
  ,{"type": "Feature", "geometry": {"type": "Point", "coordinates": [126.953594844657, 37.4816596773221]}, "properties": {"name": "\uc644\uc0b0\uc815", "address": "\uc11c\uc6b8 \uad00\uc545\uad6c \ubd09\ucc9c\ub85c 484", "website": "http://place.map.daum.net/16502330", "phone": "02-878-3400", "source": "\ud589\uc6b4\ub3d9 - \uc11c\uc6b8\ub300\uc785\uad6c\uc5ed - \uc644\uc0b0\uc815", "pid": "16502330"}}
  ,{"type": "Feature", "geometry": {"type": "Point", "coordinates": [127.087080125696, 37.5048646581852]}, "properties": {"name": "24\uc2dc\ube44\uc0ac\ubc8c \uc804\uc8fc\ucf69\ub098\ubb3c\uad6d\ubc25", "address": "\uc11c\uc6b8 \uc1a1\ud30c\uad6c \ubc31\uc81c\uace0\ubd84\ub85c 181", "website": "http://place.map.daum.net/20533320", "phone": "02-418-7651", "source": "\uc0bc\uc804\ub3d9 - \uc2e0\ucc9c\uc5ed - \uc804\uc8fc \ube44\uc0ac\ubc8c \ucf69\ub098\ubb3c\uad6d\ubc25", "pid": "20533320"}}
  ,{"type": "Feature", "geometry": {"type": "Point", "coordinates": [127.037106463104, 37.498983932782]}, "properties": {"name": "\ubd80\uc0b0\uc544\uc9c0\ub9e4\uad6d\ubc25 \uc5ed\uc0bc\uc810", "address": "\uc11c\uc6b8 \uac15\ub0a8\uad6c \ub17c\ud604\ub85c85\uae38 5-3", "website": "http://place.map.daum.net/21339867", "phone": "02-566-9882", "source": "\uc5ed\uc0bc\ub3d9 - \uac15\ub0a8\uc5ed - \ubd80\uc0b0\uc544\uc9c0\ub9e4\uad6d\ubc25", "pid": "21339867"}}
  ,{"type": "Feature", "geometry": {"type": "Point", "coordinates": [127.031199147296, 37.4890853756541]}, "properties": {"name": "\ubc84\ub4dc\ub098\ubb34\uc9d1 \uc11c\ucd08\ubcf8\uc810", "address": "\uc11c\uc6b8 \uc11c\ucd08\uad6c \ud6a8\ub839\ub85c 434", "website": "http://place.map.daum.net/8323721", "phone": "02-3473-4167", "source": "\uc11c\ucd08\ub3d9 - \uac15\ub0a8\uc5ed - \ubc84\ub4dc\ub098\ubb34\uc9d1", "pid": "8323721"}}
  ,{"type": "Feature", "geometry": {"type": "Point", "coordinates": [126.907033544547, 37.5528835469881]}, "properties": {"name": "\ubd09\uae38\uc774\ud574\uc7a5\uad6d", "address": "\uc11c\uc6b8 \ub9c8\ud3ec\uad6c \ub3d9\uad50\ub85c 43", "website": "http://place.map.daum.net/25968699", "phone": "", "source": "\ub9dd\uc6d0\ub3d9 - \ud569\uc815\uc5ed, \ub9dd\uc6d0\uc5ed - \ubd09\uae38\uc774 \ud574\uc7a5\uad6d", "pid": "25968699"}}
  ,{"type": "Feature", "geometry": {"type": "Point", "coordinates": [126.849017684584, 37.528536283763]}, "properties": {"name": "\uc6d0\uc870 \uc591\ud3c9\uc2e0\ub0b4\uc11c\uc6b8\ud574\uc7a5\uad6d \uac15\uc11c\uc591\ucc9c\uc9c1\uc601\uc810", "address": "\uc11c\uc6b8 \uac15\uc11c\uad6c \uad6d\ud68c\ub300\ub85c7\uae38 213", "website": "http://place.map.daum.net/10696677", "phone": "02-2699-9876", "source": "\ud654\uace1\ub3d9 - \uae4c\uce58\uc0b0\uc5ed, \uc2e0\uc815\uc5ed - \uc591\ud3c9\uc2e0\ub0b4\uc11c\uc6b8\ud574\uc7a5\uad6d", "pid": "10696677"}}
  ,{"type": "Feature", "geometry": {"type": "Point", "coordinates": [127.049003369974, 37.5474751547531]}, "properties": {"name": "\uc8fd\ubcc0\ud56d", "address": "\uc11c\uc6b8 \uc131\ub3d9\uad6c \uc0c1\uc6d0\uae38 40", "website": "http://place.map.daum.net/16379177", "phone": "02-465-7487", "source": "\uc131\uc218\ub3d9 - \ub69d\uc12c\uc5ed - \uc8fd\ubcc0\ud56d", "pid": "16379177"}}
  ,{"type": "Feature", "geometry": {"type": "Point", "coordinates": [127.041330575758, 37.6674043140638]}, "properties": {"name": "\uacf0\uce58\uc9d1", "address": "\uc11c\uc6b8 \ub3c4\ubd09\uad6c \ub3c4\ub2f9\ub85c 135", "website": "http://place.map.daum.net/714228475", "phone": "02-955-9450", "source": "\ubc29\ud559\ub3d9 - \ucc3d\ub3d9\uc5ed - \ubc29\ud559\uacf0\uce58\uc9d1", "pid": "714228475"}}
  ,{"type": "Feature", "geometry": {"type": "Point", "coordinates": [126.920372249444, 37.528955537335]}, "properties": {"name": "\ud55c\uc591\uacf0\uce58\uad6d\uacfc\uba54\uae30", "address": "\uc11c\uc6b8 \uc601\ub4f1\ud3ec\uad6c \uad6d\ud68c\ub300\ub85c70\uae38 18", "website": "http://place.map.daum.net/8637631", "phone": "02-780-7894", "source": "\uc5ec\uc758\ub3c4\ub3d9 - \uad6d\ud68c\uc758\uc0ac\ub2f9\uc5ed - \ud55c\uc591\uacf0\uce58\uad6d", "pid": "8637631"}}
  ,{"type": "Feature", "geometry": {"type": "Point", "coordinates": [126.929896234062, 37.521248996634]}, "properties": {"name": "\uc7a5\uc6d0\ubd81\uc5b4\uad6d", "address": "\uc11c\uc6b8 \uc601\ub4f1\ud3ec\uad6c \uad6d\uc81c\uae08\uc735\ub85c8\uae38 11", "website": "http://place.map.daum.net/13089625", "phone": "02-784-0639", "source": "\uc5ec\uc758\ub3c4\ub3d9 - \uc5ec\uc758\ub3c4\uc5ed - \uc7a5\uc6d0\ubd81\uc5b4\uad6d", "pid": "13089625"}}
  ,{"type": "Feature", "geometry": {"type": "Point", "coordinates": [126.929082225872, 37.5207547611772]}, "properties": {"name": "\uc0c1\uc740\ubd81\uc5b4\uad6d", "address": "\uc11c\uc6b8 \uc601\ub4f1\ud3ec\uad6c \uad6d\uc81c\uae08\uc735\ub85c8\uae38 19", "website": "http://place.map.daum.net/7922943", "phone": "02-780-1157", "source": "\uc5ec\uc758\ub3c4\ub3d9 - \uc5ec\uc758\ub3c4\uc5ed, \uc0db\uac15\uc5ed - \uc0c1\uc740\ubd81\uc5b4\uad6d", "pid": "7922943"}}
  ,{"type": "Feature", "geometry": {"type": "Point", "coordinates": [126.930239999577, 37.5213825485736]}, "properties": {"name": "\uc5ec\uc758\ub3c4\ub530\ub85c\uad6d\ubc25", "address": "\uc11c\uc6b8 \uc601\ub4f1\ud3ec\uad6c \uc5ec\uc758\ub300\ubc29\ub85c69\uae38 28", "website": "http://place.map.daum.net/8271460", "phone": "02-782-0047", "source": "\uc5ec\uc758\ub3c4\ub3d9 - \uc5ec\uc758\ub3c4\uc5ed - \uc5ec\uc758\ub3c4 \ub530\ub85c\uad6d\ubc25", "pid": "8271460"}}
  ,{"type": "Feature", "geometry": {"type": "Point", "coordinates": [126.930309689447, 37.5194292155759]}, "properties": {"name": "\uc6d0\ud574\uc7a5\uad6d", "address": "\uc11c\uc6b8 \uc601\ub4f1\ud3ec\uad6c \uc5ec\uc758\ub300\ubc29\ub85c65\uae38 10", "website": "http://place.map.daum.net/16935729", "phone": "02-786-1954", "source": "\uc5ec\uc758\ub3c4\ub3d9 - \uc0db\uac15\uc5ed - \uc5ec\uc758\ub3c4\uc6d0\ud574\uc7a5\uad6d", "pid": "16935729"}}
  ,{"type": "Feature", "geometry": {"type": "Point", "coordinates": [127.032817780264, 37.4981094238993]}, "properties": {"name": "\uc6b0\ubc00\uac00\uc548\ub3d9\uad6d\uc2dc \uc5ed\uc0bc\uc810", "address": "\uc11c\uc6b8 \uac15\ub0a8\uad6c \ud14c\ud5e4\ub780\ub85c10\uae38 21", "website": "http://place.map.daum.net/27204005", "phone": "02-554-1855", "source": "\uc5ed\uc0bc\ub3d9 - \uac15\ub0a8\uc5ed - \uc6b0\ubc00\uac00", "pid": "27204005"}}
  ,{"type": "Feature", "geometry": {"type": "Point", "coordinates": [127.001981289571, 37.4984635561412]}, "properties": {"name": "\ud1a0\ubc15\uc774 \ubcf8\ub2f9", "address": "\uc11c\uc6b8 \uc11c\ucd08\uad6c \ubc18\ud3ec\ub300\ub85c39\uae38 38", "website": "http://place.map.daum.net/10905508", "phone": "02-532-4837", "source": "\ubc18\ud3ec\ub3d9 - \uace0\uc18d\ud130\ubbf8\ub110\uc5ed - \ud1a0\ubc15\uc774 - \uace0\ucd94\uc7a5\ucc0c\uac1c", "pid": "10905508"}}
  ,{"type": "Feature", "geometry": {"type": "Point", "coordinates": [127.008756219748, 37.4876619741271]}, "properties": {"name": "\uc544\ub530\ub9f5\uc18c", "address": "\uc11c\uc6b8 \uc11c\ucd08\uad6c \uc11c\ucd08\ub300\ub85c40\uae38 88", "website": "http://place.map.daum.net/19015248", "phone": "02-598-0955", "source": "\uc11c\ucd08\ub3d9 - \uc11c\ucd08\uc5ed - \uc544\ub530\ub9f5\uc18c - \uace0\ucd94\uc7a5\ucc0c\uac1c", "pid": "19015248"}}
  ,{"type": "Feature", "geometry": {"type": "Point", "coordinates": [126.924122347757, 37.5615993978453]}, "properties": {"name": "\uc6d4\uac15 \ubd80\uc0b0\ub3fc\uc9c0\uad6d\ubc25", "address": "\uc11c\uc6b8 \ub9c8\ud3ec\uad6c \ub3d9\uad50\ub85c 241-1", "website": "http://place.map.daum.net/14822702", "phone": "02-326-5800", "source": "\uc5f0\ub0a8\ub3d9 - \ud64d\ub300\uc785\uad6c\uc5ed - \uc6d4\uac15\ubd80\uc0b0\ub3fc\uc9c0\uad6d\ubc25", "pid": "14822702"}}
  ,{"type": "Feature", "geometry": {"type": "Point", "coordinates": [127.060801230316, 37.4996660865208]}, "properties": {"name": "\ud560\ub9e4\uc7ac\ucca9\uad6d", "address": "\uc11c\uc6b8 \uac15\ub0a8\uad6c \uc0bc\uc131\ub85c 308", "website": "http://place.map.daum.net/8598605", "phone": "02-501-6667", "source": "\ub300\uce58\ub3d9 - \ub300\uce58\uc5ed - \ud560\ub9e4\uc7ac\ucca9\uad6d", "pid": "8598605"}}
  ,{"type": "Feature", "geometry": {"type": "Point", "coordinates": [127.048754583906, 37.4781808360462]}, "properties": {"name": "\uc601\ub3d9\uc62c\ubc45\uc774\uc9d1", "address": "\uc11c\uc6b8 \uac15\ub0a8\uad6c \uac1c\ud3ec\ub85c24\uae38 13", "website": "http://place.map.daum.net/10648588", "phone": "02-572-3731", "source": "\uac1c\ud3ec\ub3d9 - \ub9e4\ubd09\uc5ed - \uc601\ub3d9\uc62c\ubc45\uc774\uc9d1", "pid": "10648588"}}
  ,{"type": "Feature", "geometry": {"type": "Point", "coordinates": [126.971439034479, 37.5805700570469]}, "properties": {"name": "\ud574\uc7a5\uad6d\uc0ac\ub78c\ub4e4", "address": "\uc11c\uc6b8 \uc885\ub85c\uad6c \uc790\ud558\ubb38\ub85c 50-1", "website": "http://place.map.daum.net/8215335", "phone": "02-736-6088", "source": "\ucc3d\uc131\ub3d9 - \uacbd\ubcf5\uad81\uc5ed - \ud574\uc7a5\uad6d\uc0ac\ub78c\ub4e4", "pid": "8215335"}}
  ,{"type": "Feature", "geometry": {"type": "Point", "coordinates": [126.917012144167, 37.4983515312696]}, "properties": {"name": "\uc62c\uac31\uc774\ub098\ub77c", "address": "\uc11c\uc6b8 \uc601\ub4f1\ud3ec\uad6c \ub300\ubc29\ucc9c\ub85c 234", "website": "http://place.map.daum.net/12819412", "phone": "02-835-7189", "source": "\uc2e0\uae38\ub3d9 - \ubcf4\ub77c\ub9e4\uc5ed - \uc62c\uac31\uc774\ub098\ub77c", "pid": "12819412"}}
  ,{"type": "Feature", "geometry": {"type": "Point", "coordinates": [126.709280422357, 37.512356105202]}, "properties": {"name": "\uc11c\uc624\ub989\ub2e4\uc2ac\uae30 \uccad\ucc9c\uc810", "address": "\uc778\ucc9c \ubd80\ud3c9\uad6c \uc548\ub0a8\ub85c 329", "website": "http://place.map.daum.net/27148853", "phone": "032-514-3399", "source": "\uccad\ucc9c\ub3d9 - \uae4c\uce58\uc0b0\uc5ed - \uccad\ucc9c\uc62c\uac31\uc774 \ud574\uc7a5\uad6d", "pid": "27148853"}}
  ,{"type": "Feature", "geometry": {"type": "Point", "coordinates": [126.98221382416551, 37.57862242136911]}, "properties": {"name": "\uc870\uc120\uae40\ubc25", "address": "\uc11c\uc6b8 \uc885\ub85c\uad6c \uc728\uace1\ub85c3\uae38 68", "website": "http://place.map.daum.net/20945113", "phone": "02-723-7496", "source": "\uc18c\uaca9\ub3d9 - \uc548\uad6d\uc5ed - \uc870\uc120\uae40\ubc25", "pid": "20945113"}}
  ,{"type": "Feature", "geometry": {"type": "Point", "coordinates": [127.029146767663, 37.5266397837502]}, "properties": {"name": "\ub9ac\uae40\ubc25 \uc555\uad6c\uc815\ubcf8\uc810", "address": "\uc11c\uc6b8 \uac15\ub0a8\uad6c \uc555\uad6c\uc815\ub85c30\uae38 12", "website": "http://place.map.daum.net/21444589", "phone": "02-548-5552", "source": "\uc2e0\uc0ac\ub3d9 - \uc555\uad6c\uc815\uc5ed - \ub9ac\uae40\ubc25", "pid": "21444589"}}
  ,{"type": "Feature", "geometry": {"type": "Point", "coordinates": [126.986693090331, 37.4916764395268]}, "properties": {"name": "\uc11c\ud638\uae40\ubc25 \ubcf8\uc810", "address": "\uc11c\uc6b8 \uc11c\ucd08\uad6c \ubc29\ubc30\uc911\uc559\ub85c 141-1", "website": "http://place.map.daum.net/16532780", "phone": "02-594-4434", "source": "\ubc29\ubc30\ub3d9 - \uc774\uc218\uc5ed - \uc11c\ud638\uae40\ubc25", "pid": "16532780"}}
  ,{"type": "Feature", "geometry": {"type": "Point", "coordinates": [127.01554370062382, 37.54350677720921]}, "properties": {"name": "\uc625\uc815\uae40\ubc25", "address": "\uc11c\uc6b8 \uc131\ub3d9\uad6c \ud55c\ub9bc\ub9d03\uae38 28-9", "website": "http://place.map.daum.net/10079417", "phone": "02-2297-5646", "source": "\uc625\uc218\ub3d9 - \uc625\uc218\uc5ed - \uc625\uc815\uae40\ubc25", "pid": "10079417"}}
  ,{"type": "Feature", "geometry": {"type": "Point", "coordinates": [127.06113822068161, 37.59758787506783]}, "properties": {"name": "\ud48d\ub144\uae40\ubc25", "address": "\uc11c\uc6b8 \ub3d9\ub300\ubb38\uad6c \uc774\ubb38\ub85c 124", "website": "http://place.map.daum.net/10871035", "phone": "02-964-3696", "source": "\uc774\ubb38\ub3d9 - \uc678\ub300\uc55e\uc5ed - \ud48d\ub144\uae40\ubc25", "pid": "10871035"}}
  ,{"type": "Feature", "geometry": {"type": "Point", "coordinates": [126.998016821731, 37.5698228276915]}, "properties": {"name": "\uc6d0\uc870\ub204\ub4dc\uce58\uc988\uae40\ubc25", "address": "\uc11c\uc6b8 \uc885\ub85c\uad6c \ucc3d\uacbd\uad81\ub85c 84", "website": "http://place.map.daum.net/27581940", "phone": "010-3164-1145", "source": "\uc608\uc9c0\ub3d9 - \uc885\ub85c5\uac00\uc5ed - \uc6d0\uc870\ub204\ub4dc\uae40\ubc25", "pid": "27581940"}}
  ,{"type": "Feature", "geometry": {"type": "Point", "coordinates": [127.015811218167, 37.5918312609669]}, "properties": {"name": "\ub3c8\uc554\uc21c\ub300\uae40\ubc25", "address": "\uc11c\uc6b8 \uc131\ubd81\uad6c \ub3d9\uc18c\ubb38\ub85c18\uae38 12", "website": "http://place.map.daum.net/21367852", "phone": "02-922-9210", "source": "\ub3d9\uc18c\ubb38\ub3d9 - \uc131\uc2e0\uc5ec\ub300\uc785\uad6c\uc5ed - \ub3c8\uc554\uc21c\ub300\uae40\ubc25", "pid": "21367852"}}
  ,{"type": "Feature", "geometry": {"type": "Point", "coordinates": [126.940475221314, 37.5043483621683]}, "properties": {"name": "\uc601\ub3c4\ubd84\uc2dd", "address": "\uc11c\uc6b8 \ub3d9\uc791\uad6c \uc7a5\uc2b9\ubc30\uae30\ub85c10\uae38 26", "website": "http://place.map.daum.net/14101253", "phone": "02-813-6920", "source": "\uc0c1\ub3c4\ub3d9 - \uc7a5\uc2b9\ubc30\uae30\uc5ed - \uc601\ub3c4\ubd84\uc2dd", "pid": "14101253"}}
  ,{"type": "Feature", "geometry": {"type": "Point", "coordinates": [126.929386087003, 37.5680033392128]}, "properties": {"name": "\uc5f0\ud76c\uae40\ubc25", "address": "\uc11c\uc6b8 \uc11c\ub300\ubb38\uad6c \uc5f0\ud76c\ub85c11\uac00\uae38 2", "website": "http://place.map.daum.net/18521778", "phone": "02-323-8090", "source": "\uc5f0\ud76c\ub3d9 - \ud64d\ub300\uc785\uad6c\uc5ed - \uc5f0\ud76c\uae40\ubc25", "pid": "18521778"}}
  ,{"type": "Feature", "geometry": {"type": "Point", "coordinates": [127.026990177903, 37.5319886418813]}, "properties": {"name": "\ubd81\ucd0c\uae40\ubc25", "address": "\uc11c\uc6b8 \uac15\ub0a8\uad6c \uc555\uad6c\uc815\ub85c29\uae38 67", "website": "http://place.map.daum.net/17148905", "phone": "02-511-1524", "source": "\uc555\uad6c\uc815\ub3d9 - \uc555\uad6c\uc815\uc5ed - \ubd81\ucd0c\uae40\ubc25", "pid": "17148905"}}
  ,{"type": "Feature", "geometry": {"type": "Point", "coordinates": [126.985240756701, 37.4938314763009]}, "properties": {"name": "\ud574\ub0a8\uc6d0\uc870\uae40\ubc25", "address": "\uc11c\uc6b8 \uc11c\ucd08\uad6c \ubc29\ubc30\uc911\uc559\ub85c25\uae38 15", "website": "http://place.map.daum.net/15273957", "phone": "02-535-6949", "source": "\ubc29\ubc30\ub3d9 - \uc774\uc218\uc5ed - \ud574\ub0a8\uc6d0\uc870\uae40\ubc25", "pid": "15273957"}}
  ,{"type": "Feature", "geometry": {"type": "Point", "coordinates": [126.978525367887, 37.4883054686457]}, "properties": {"name": "\ubc29\ubc30\uae40\ubc25", "address": "\uc11c\uc6b8 \ub3d9\uc791\uad6c \ub3d9\uc791\ub300\ub85c29\uae38 63-5", "website": "http://place.map.daum.net/9008598", "phone": "02-599-0566", "source": "\uc0ac\ub2f9\ub3d9 - \uc774\uc218\uc5ed - \ubc29\ubc30\uae40\ubc25", "pid": "9008598"}}
  ,{"type": "Feature", "geometry": {"type": "Point", "coordinates": [127.035565175609, 37.5301879721867]}, "properties": {"name": "\ud6c4\ub79c\ub4dc", "address": "\uc11c\uc6b8 \uac15\ub0a8\uad6c \uc555\uad6c\uc815\ub85c 309", "website": "http://place.map.daum.net/26855131", "phone": "02-543-5452", "source": "\uc555\uad6c\uc815\ub3d9 - \uc555\uad6c\uc815 - \ud6c4\ub80c\ub4dc", "pid": "26855131"}}
  ,{"type": "Feature", "geometry": {"type": "Point", "coordinates": [126.999375160091, 37.5701724289178]}, "properties": {"name": "\uc6d0\uc870\ub9c8\uc57d\uae40\ubc25", "address": "\uc11c\uc6b8 \uc885\ub85c\uad6c \ucc3d\uacbd\uad81\ub85c 88", "website": "http://place.map.daum.net/7863817", "phone": "02-2264-7668", "source": "\uc608\uc9c0\ub3d9 - \uc885\ub85c5\uac00\uc5ed - \ub9c8\uc57d\uae40\ubc25", "pid": "7863817"}}
  ,{"type": "Feature", "geometry": {"type": "Point", "coordinates": [126.94754406746, 37.4812318697285]}, "properties": {"name": "\ubd09\ucc9c\ub3d9\uc9c4\uc21c\uc790\uae40\ubc25 \ubd09\ucc9c\ubcf8\uc810", "address": "\uc11c\uc6b8 \uad00\uc545\uad6c \uccad\ub8e11\uae38 19", "website": "http://place.map.daum.net/21330816", "phone": "02-883-1824", "source": "\ubd09\ucc9c\ub3d9 - \uc11c\uc6b8\ub300\uc785\uad6c\uc5ed - \uc9c4\uc21c\uc790\uae40\ubc25", "pid": "21330816"}}
  ,{"type": "Feature", "geometry": {"type": "Point", "coordinates": [126.929543024183, 37.4878395116812]}, "properties": {"name": "\uc815\ud1b5\uacc4\ub780\ub9d0\uc774\uae40\ubc25", "address": "\uc11c\uc6b8 \uad00\uc545\uad6c \uc2e0\ub9bc\ub85c70\uae38 11", "website": "http://place.map.daum.net/10675160", "phone": "02-871-8777", "source": "\uc2e0\ub9bc\ub3d9 - \uc2e0\ub9bc\uc5ed - \uc815\ud1b5\uacc4\ub780\ub9d0\uc774\uae40\ubc25", "pid": "10675160"}}
  ,{"type": "Feature", "geometry": {"type": "Point", "coordinates": [127.073577533068, 37.5383226618044]}, "properties": {"name": "\ub3c4\ub3c4\ud55c\uae40\ubc25", "address": "\uc11c\uc6b8 \uad11\uc9c4\uad6c \uc544\ucc28\uc0b0\ub85c 272", "website": "http://place.map.daum.net/25039019", "phone": "02-3437-1111", "source": "\uc790\uc591\ub3d9 - \uac74\ub300\uc785\uad6c\uc5ed - \ub3c4\ub3c4\ud55c\uae40\ubc25", "pid": "25039019"}}
  ,{"type": "Feature", "geometry": {"type": "Point", "coordinates": [126.991977488462, 37.5627587632503]}, "properties": {"name": "\uae40\ubc25\uc655 \ucda9\ubb34\ub85c\uc810", "address": "\uc11c\uc6b8 \uc911\uad6c \uc218\ud45c\ub85c6\uae38 30", "website": "http://place.map.daum.net/19584151", "phone": "02-2275-7697", "source": "\ucda9\ubb34\ub85c - \ucda9\ubb34\ub85c\uc5ed - \uae40\ubc25\uc655", "pid": "19584151"}}
  ,{"type": "Feature", "geometry": {"type": "Point", "coordinates": [127.053407958011, 37.5923536241163]}, "properties": {"name": "\ud638\uc57c\ubd84\uc2dd \uacbd\ud76c\ub300\ubcf8\uc810", "address": "\uc11c\uc6b8 \ub3d9\ub300\ubb38\uad6c \uacbd\ud76c\ub300\ub85c4\uae38 16", "website": "http://place.map.daum.net/11316329", "phone": "02-969-5331", "source": "\ud68c\uae30\ub3d9 - \ud68c\uae30\uc5ed - \ud638\uc57c\uae40\ubc25", "pid": "11316329"}}
  ,{"type": "Feature", "geometry": {"type": "Point", "coordinates": [127.031377503319, 37.5261995231605]}, "properties": {"name": "\uc18c\ub9dd\uae40\ubc25", "address": "\uc11c\uc6b8 \uac15\ub0a8\uad6c \uc555\uad6c\uc815\ub85c36\uae38 34", "website": "http://place.map.daum.net/11916310", "phone": "02-518-5529", "source": "\uc2e0\uc0ac\ub3d9 - \uc555\uad6c\uc815\uc5ed - \uc18c\ub9dd\uae40\ubc25", "pid": "11916310"}}
  ,{"type": "Feature", "geometry": {"type": "Point", "coordinates": [127.030675341171, 37.524340039023]}, "properties": {"name": "\uc2e0\uc601\uae40\ubc25", "address": "\uc11c\uc6b8 \uac15\ub0a8\uad6c \uc5b8\uc8fc\ub85c159\uae38 27", "website": "http://place.map.daum.net/11114160", "phone": "02-542-4810", "source": "\uc2e0\uc0ac\ub3d9 - \uc555\uad6c\uc815\uc5ed - \uc2e0\uc601\uae40\ubc25", "pid": "11114160"}}
  ,{"type": "Feature", "geometry": {"type": "Point", "coordinates": [126.928916332643, 37.6096793597453]}, "properties": {"name": "\ucda9\ubb34\uae40\ubc25", "address": "\uc11c\uc6b8 \uc740\ud3c9\uad6c \ubd88\uad11\ub85c 20", "website": "http://place.map.daum.net/21231405", "phone": "02-350-8755", "source": "\uc2e0\uc0ac\ub3d9 - \uc555\uad6c\uc815\uc5ed - \ucda9\ubb34\uae40\ubc25", "pid": "21231405"}}
  ,{"type": "Feature", "geometry": {"type": "Point", "coordinates": [127.088270469371, 37.5015012226981]}, "properties": {"name": "\uc2e0\uc131\uae40\ubc25", "address": "\uc11c\uc6b8 \uc1a1\ud30c\uad6c \ubc31\uc81c\uace0\ubd84\ub85c22\uae38 28", "website": "http://place.map.daum.net/15541829", "phone": "02-420-9563", "source": "\uc0bc\uc804\ub3d9 - \uc2e0\ucc9c\uc5ed - \uc2e0\uc131\uae40\ubc25", "pid": "15541829"}}
  ,{"type": "Feature", "geometry": {"type": "Point", "coordinates": [126.985091215779, 37.5634248318877]}, "properties": {"name": "\uba85\ub3d9\ucda9\ubb34\uae40\ubc25 \uba85\ub3d9\uc810", "address": "\uc11c\uc6b8 \uc911\uad6c \uba85\ub3d910\uae38 8", "website": "http://place.map.daum.net/9510289", "phone": "02-755-8488", "source": "\uba85\ub3d9 - \uba85\ub3d9\uc5ed - \ucda9\ubb34\uae40\ubc25", "pid": "9510289"}}
  ,{"type": "Feature", "geometry": {"type": "Point", "coordinates": [126.979806410218, 37.5179343638194]}, "properties": {"name": "\uc624\ud1b5\uc601", "address": "\uc11c\uc6b8 \uc6a9\uc0b0\uad6c \uc774\ucd0c\ub85c 300", "website": "http://place.map.daum.net/16710165", "phone": "02-794-2377", "source": "\ub3d9\ubd80\uc774\ucd0c\ub3d9 - \uc774\ucd0c\ub3d9\uc5ed - \uc624\ud1b5\uc601", "pid": "16710165"}}
  ,{"type": "Feature", "geometry": {"type": "Point", "coordinates": [126.98388263612587, 37.56230761762366]}, "properties": {"name": "\uba85\ud654\ub2f9 \uba85\ub3d91\ud638\uc810", "address": "\uc11c\uc6b8 \uc911\uad6c \uba85\ub3d94\uae38 32", "website": "http://place.map.daum.net/8995971", "phone": "", "source": "\uba85\ub3d9 - \uba85\ub3d9\uc5ed - \uba85\ud654\ub2f9", "pid": "8995971"}}
  ,{"type": "Feature", "geometry": {"type": "Point", "coordinates": [127.016572011708, 37.5913734526139]}, "properties": {"name": "\ub530\ub048\ud558\ub2c8\ucac4\uae43\ud558\ub2c8", "address": "\uc11c\uc6b8 \uc131\ubd81\uad6c \ub3d9\uc18c\ubb38\ub85c20\uae38 28-4", "website": "http://place.map.daum.net/15799397", "phone": "02-929-0314", "source": "\ub3d9\uc18c\ubb38\ub3d9 - \uc131\uc2e0\uc5ec\ub300\uc785\uad6c\uc5ed - \ub530\ub048\ub530\ub048\ud558\ub2c8 \ucac4\uae43\ucac4\uae43\ud558\ub2c8", "pid": "15799397"}}
  ,{"type": "Feature", "geometry": {"type": "Point", "coordinates": [127.06695764760495, 37.59654325499688]}, "properties": {"name": "\uc5c4\ub9c8\uc190\uc989\uc11d\uae40\ubc25", "address": "\uc11c\uc6b8 \ub3d9\ub300\ubb38\uad6c \ud718\uacbd\ub85c31\uae38 57", "website": "http://place.map.daum.net/24691355", "phone": "02-957-7546", "source": "\ud68c\uae30\ub3d9 - \ud68c\uae30\uc5ed - \uc989\uc11d\uae40\ubc25", "pid": "24691355"}}
  ,{"type": "Feature", "geometry": {"type": "Point", "coordinates": [127.125778146793, 37.5026349443063]}, "properties": {"name": "\ub864\ud558\uc6b0\uc2a4\uc774\ub808", "address": "\uc11c\uc6b8 \uc1a1\ud30c\uad6c \uc911\ub300\ub85c23\uae38 20", "website": "http://place.map.daum.net/14665504", "phone": "02-401-6588", "source": "\uac00\ub77d\ub3d9 - \uac00\ub77d\uc2dc\uc7a5\uc5ed - \uc774\ub808", "pid": "14665504"}}
  ,{"type": "Feature", "geometry": {"type": "Point", "coordinates": [126.964185104603, 37.4750859935728]}, "properties": {"name": "\uc774\ub808\uae40\ubc25 \ubd09\ucc9c1\ud638\uc810", "address": "\uc11c\uc6b8 \uad00\uc545\uad6c \ub0a8\ubd80\uc21c\ud658\ub85c246\uae38 31", "website": "http://place.map.daum.net/15284014", "phone": "02-878-1144", "source": "\uc778\ud5cc\ub3d9 - \ub099\uc131\ub300\uc5ed - \uc774\ub808\uae40\ubc25", "pid": "15284014"}}
  ,{"type": "Feature", "geometry": {"type": "Point", "coordinates": [127.02913424733, 37.5874895450479]}, "properties": {"name": "\uace0\ub978\ud587\uc0b4", "address": "\uc11c\uc6b8 \uc131\ubd81\uad6c \uac1c\uc6b4\uc0ac\uae38 27", "website": "http://place.map.daum.net/13086789", "phone": "02-953-3394", "source": "\uc548\uc554\ub3d9 - \uc548\uc554\uc5ed - \uace0\ub978\ud587\uc0b4", "pid": "13086789"}}
  ,{"type": "Feature", "geometry": {"type": "Point", "coordinates": [126.9858567956722, 37.573036748020826]}, "properties": {"name": "\uc608\uc220\uae40\ubc25 \uc778\uc0ac\ub3d9\uc810", "address": "\uc11c\uc6b8 \uc885\ub85c\uad6c \uc778\uc0ac\ub3d95\uae38 4", "website": "http://place.map.daum.net/27316408", "phone": "02-733-2587", "source": "\uc778\uc0ac\ub3d9 - \uc885\uac01\uc5ed - \uc608\uc220\uae40\ubc25", "pid": "27316408"}}
  ,{"type": "Feature", "geometry": {"type": "Point", "coordinates": [126.966964763954, 37.5809256832267]}, "properties": {"name": "\ub0a8\ub3c4\ubd84\uc2dd", "address": "\uc11c\uc6b8 \uc885\ub85c\uad6c \uc625\uc7782\uae38 2", "website": "http://place.map.daum.net/18643183", "phone": "02-723-7775", "source": "\ub204\uc0c1\ub3d9 - \uacbd\ubcf5\uad81\uc5ed - \ub0a8\ub3c4\ubd84\uc2dd", "pid": "18643183"}}
  ,{"type": "Feature", "geometry": {"type": "Point", "coordinates": [126.903136812067, 37.569732651542]}, "properties": {"name": "\uc131\uc0b0\uc655\uac08\ube44", "address": "\uc11c\uc6b8 \ub9c8\ud3ec\uad6c \uc6d4\ub4dc\ucef5\ubd81\ub85c 233", "website": "http://place.map.daum.net/16044741", "phone": "02-306-2001", "source": "\uc131\uc0b0\ub3d9 - \ub9c8\ud3ec\uad6c\uccad\uc5ed - \uc131\uc0b0\uc655\uac08\ube44", "pid": "16044741"}}
  ,{"type": "Feature", "geometry": {"type": "Point", "coordinates": [126.945425171433, 37.546647396251]}, "properties": {"name": "\ubc84\uadf8\ub124\ucc28\ub3cc\ubd88\uace0\uae30", "address": "\uc11c\uc6b8 \ub9c8\ud3ec\uad6c \ubc31\ubc94\ub85c 127", "website": "http://place.map.daum.net/18539594", "phone": "02-703-6304", "source": "\uc0c1\uc218\ub3d9 - \uc0c1\uc218\uc5ed - \ubc84\uadf8\ub124\ucc28\ub3cc\ubd88\uace0\uae30", "pid": "18539594"}}
  ,{"type": "Feature", "geometry": {"type": "Point", "coordinates": [126.919713291109, 37.5484383147205]}, "properties": {"name": "\uc639\ub2ec\uc0d8 \ubcf8\uc810", "address": "\uc11c\uc6b8 \ub9c8\ud3ec\uad6c \uc591\ud654\ub85c6\uae38 99", "website": "http://place.map.daum.net/26871332", "phone": "02-333-2440", "source": "\uc11c\uad50\ub3d9 - \uc0c1\uc218\uc5ed - \uc639\ub2ec\uc0d8", "pid": "26871332"}}
  ,{"type": "Feature", "geometry": {"type": "Point", "coordinates": [126.934379303691, 37.5586250468317]}, "properties": {"name": "\uc30d\ud310\ub301", "address": "\uc11c\uc6b8 \uc11c\ub300\ubb38\uad6c \uc5f0\uc138\ub85c9\uae38 43", "website": "http://place.map.daum.net/13586409", "phone": "02-334-5392", "source": "\ucc3d\ucc9c\ub3d9 - \uc2e0\ucd0c\uc5ed - \uc30d\ud310\ub301", "pid": "13586409"}}
  ,{"type": "Feature", "geometry": {"type": "Point", "coordinates": [126.89533653489688, 37.535754777781094]}, "properties": {"name": "\ub610\uc21c\uc774\ub124", "address": "\uc11c\uc6b8 \uc601\ub4f1\ud3ec\uad6c \uc120\uc720\ub85c47\uae38 16", "website": "http://place.map.daum.net/7851288", "phone": "02-2672-2255", "source": "\uc591\ud3c9\ub3d9 - \uc120\uc720\ub3c4\uc5ed - \ub610\uc21c\uc774\ub124", "pid": "7851288"}}
  ,{"type": "Feature", "geometry": {"type": "Point", "coordinates": [126.893904107658, 37.5381717837607]}, "properties": {"name": "\ub108\ub3c4\ub098\ub3c4\uc2dd\ub2f9", "address": "\uc11c\uc6b8 \uc601\ub4f1\ud3ec\uad6c \uc591\ud3c9\ub85c 126", "website": "http://place.map.daum.net/25036332", "phone": "02-2634-5469", "source": "\uc591\ud3c9\ub3d9 - \uc120\uc720\ub3c4\uc5ed - \ub108\ub3c4\ub098\ub3c4\uc2dd\ub2f9", "pid": "25036332"}}
  ,{"type": "Feature", "geometry": {"type": "Point", "coordinates": [126.887828816158, 37.5271199009117]}, "properties": {"name": "\ud574\ub0a8\uc9c4\uc131\uc625 \uc591\ud3c9\ub3d91\ud638\uc810", "address": "\uc11c\uc6b8 \uc601\ub4f1\ud3ec\uad6c \uc120\uc720\ub85c33\uae38 30", "website": "http://place.map.daum.net/27163891", "phone": "02-2631-0600", "source": "\uc591\ud3c9\ub3d9 - \uc591\ud3c9\uc5ed - \ud574\ub0a8\uc9c4\uc131\uc625", "pid": "27163891"}}
  ,{"type": "Feature", "geometry": {"type": "Point", "coordinates": [126.89426082204483, 37.51391353276547]}, "properties": {"name": "\uc62c\ub4dc\ubb38\ub798", "address": "\uc11c\uc6b8 \uc601\ub4f1\ud3ec\uad6c \ub3c4\ub9bc\ub85c 433-6", "website": "http://place.map.daum.net/266428861", "phone": "02-6326-4336", "source": "\ubb38\ub798\ub3d9 - \uc591\ud3c9\uc5ed - \ubb38\ub798", "pid": "266428861"}}
  ,{"type": "Feature", "geometry": {"type": "Point", "coordinates": [126.872966349956, 37.5254217789037]}, "properties": {"name": "\uc77c\ubbf8\ub77d \ubaa9\ub3d9\ubcf8\uc810", "address": "\uc11c\uc6b8 \uc591\ucc9c\uad6c \ubaa9\ub3d9\ub3d9\ub85c 226-16", "website": "http://place.map.daum.net/25490987", "phone": "02-2642-9292", "source": "\ubaa9\ub3d9 - \uc624\ubaa9\uad50\uc5ed - \uc77c\ubbf8\ub77d", "pid": "25490987"}}
  ,{"type": "Feature", "geometry": {"type": "Point", "coordinates": [126.98850847385, 37.5695555904063]}, "properties": {"name": "\ub69d\ubc30\uae30\uc9d1", "address": "\uc11c\uc6b8 \uc885\ub85c\uad6c \uc885\ub85c16\uae38 12", "website": "http://place.map.daum.net/10374336", "phone": "02-2265-5744", "source": "\uad00\ucca0\ub3d9 - \uc885\uac01\uc5ed - \ub69d\ubc30\uae30\uc9d1", "pid": "10374336"}}
  ,{"type": "Feature", "geometry": {"type": "Point", "coordinates": [126.970953942409, 37.5819790927727]}, "properties": {"name": "\ud1a0\ubc29", "address": "\uc11c\uc6b8 \uc885\ub85c\uad6c \uc790\ud558\ubb38\ub85c 66-1", "website": "http://place.map.daum.net/12318725", "phone": "02-722-8255", "source": "\uad00\ud6c8\ub3d9 - \uc548\uad6d\uc5ed - \ud1a0\ubc29", "pid": "12318725"}}
  ,{"type": "Feature", "geometry": {"type": "Point", "coordinates": [126.97303007647, 37.5637038036408]}, "properties": {"name": "\uc18c\uacf5\ub3d9\ub69d\ubc30\uae30\uc9d1 \uc2dc\uccad\uc810", "address": "\uc11c\uc6b8 \uc911\uad6c \uc11c\uc18c\ubb38\ub85c11\uae38 18", "website": "http://place.map.daum.net/10557415", "phone": "02-773-9292", "source": "\uc11c\uc18c\ubb38\ub3d9 - \uc2dc\uccad\uc5ed - \uc18c\uacf5\ub3d9\ub69d\ubc30\uae30\uc9d1", "pid": "10557415"}}
  ,{"type": "Feature", "geometry": {"type": "Point", "coordinates": [126.986456695457, 37.573368384498]}, "properties": {"name": "\ud207\ub9c8\ub8e8\uc9d1\ub41c\uc7a5\uc608\uc220", "address": "\uc11c\uc6b8 \uc885\ub85c\uad6c \uc778\uc0ac\ub3d94\uae38 5-26", "website": "http://place.map.daum.net/20534822", "phone": "02-739-5683", "source": "\uc778\uc0ac\ub3d9 - \uc885\ub85c 3\uac00\uc5ed - \ud207\ub9c8\ub8e8\uc9d1 \ub41c\uc7a5\uc608\uc220", "pid": "20534822"}}
  ,{"type": "Feature", "geometry": {"type": "Point", "coordinates": [126.99893171716084, 37.57008318697087]}, "properties": {"name": "\ub300\ub3d9\uc2dd\ub2f9", "address": "\uc11c\uc6b8 \uc885\ub85c\uad6c \ucc3d\uacbd\uad81\ub85c 88", "website": "http://place.map.daum.net/17079039", "phone": "02-2279-5810", "source": "\uc608\uc9c0\ub3d9 - \uc885\ub85c 5\uac00\uc5ed - \ub300\ub3d9\uc2dd\ub2f9", "pid": "17079039"}}
  ,{"type": "Feature", "geometry": {"type": "Point", "coordinates": [127.001910580317, 37.5638294041331]}, "properties": {"name": "\uace8\ubaa9\uc9d1", "address": "\uc11c\uc6b8 \uc911\uad6c \ud1f4\uacc4\ub85c51\uae38 14-1", "website": "http://place.map.daum.net/15804443", "phone": "02-2264-9368", "source": "\uad11\ud76c\ub3d9 - \ub3d9\ub300\ubb38\uc5ed\uc0ac\ubb38\ud654\uacf5\uc6d0\uc5ed - \uace8\ubaa9\uc9d1", "pid": "15804443"}}
  ,{"type": "Feature", "geometry": {"type": "Point", "coordinates": [127.00111402297, 37.5821160081242]}, "properties": {"name": "\uc194\ub098\ubb34\uae38\ub41c\uc7a5\uc608\uc220", "address": "\uc11c\uc6b8 \uc885\ub85c\uad6c \ub300\ud559\ub85c11\uae38 9-2", "website": "http://place.map.daum.net/13092178", "phone": "02-741-4516", "source": "\uba85\ub95c4\uac00 - \ud61c\ud654\uc5ed - \uc194\ub098\ubb34\uae38\ub41c\uc7a5\uc608\uc220", "pid": "13092178"}}
  ,{"type": "Feature", "geometry": {"type": "Point", "coordinates": [127.02198294337, 37.6021664447284]}, "properties": {"name": "\uac15\ucd0c\uc308\ubc25", "address": "\uc11c\uc6b8 \uc131\ubd81\uad6c \ub3d9\uc18c\ubb38\ub85c 225", "website": "http://place.map.daum.net/9742407", "phone": "02-942-6223", "source": "\uae38\uc74c\ub3d9 - \uae38\uc74c\uc5ed - \uac15\ucd0c\uc308\ubc25", "pid": "9742407"}}
  ,{"type": "Feature", "geometry": {"type": "Point", "coordinates": [126.981513567948, 37.56742474862]}, "properties": {"name": "\uc0b0\ubd88\ub4f1\uc2ec", "address": "\uc11c\uc6b8 \uc911\uad6c \uc744\uc9c0\ub85c3\uae38 30", "website": "http://place.map.daum.net/12448101", "phone": "02-754-7584", "source": "\ub2e4\ub3d9 - \uc744\uc9c0\ub85c\uc785\uad6c\uc5ed - \uc0b0\ubd88\ub4f1\uc2ec", "pid": "12448101"}}
  ,{"type": "Feature", "geometry": {"type": "Point", "coordinates": [127.002113262376, 37.5265424491706]}, "properties": {"name": "\ub300\uc131\uc2dd\ub2f9\uc815\uc721\uc810", "address": "\uc11c\uc6b8 \uc6a9\uc0b0\uad6c \uc11c\ube59\uace0\ub85c95\uae38 22", "website": "http://place.map.daum.net/25052223", "phone": "02-795-9935", "source": "\ud55c\ub0a8\ub3d9 - \ud55c\ub0a8\uc5ed - \ub300\uc131\uc815\uc721\uc2dd\ub2f9", "pid": "25052223"}}
  ,{"type": "Feature", "geometry": {"type": "Point", "coordinates": [127.000126722915, 37.5369904787104]}, "properties": {"name": "\ub098\ub9ac\uc758\uc9d1", "address": "\uc11c\uc6b8 \uc6a9\uc0b0\uad6c \uc774\ud0dc\uc6d0\ub85c 245", "website": "http://place.map.daum.net/8194939", "phone": "02-793-4860", "source": "\uc774\ud0dc\uc6d0\ub3d9 - \ud55c\uac15\uc9c4\uc5ed - \ub098\ub9ac\uc758\uc9d1", "pid": "8194939"}}
  ,{"type": "Feature", "geometry": {"type": "Point", "coordinates": [126.975000230969, 37.5344398027827]}, "properties": {"name": "\ubd09\uc0b0\uc9d1", "address": "\uc11c\uc6b8 \uc6a9\uc0b0\uad6c \ud55c\uac15\ub300\ub85c62\ub098\uae38 24", "website": "http://place.map.daum.net/10469584", "phone": "02-793-5022", "source": "\uc6a9\uc0b0\ub3d9 3\uac00 - \uc0bc\uac01\uc9c0\uc5ed - \ubd09\uc0b0\uc9d1", "pid": "10469584"}}
  ,{"type": "Feature", "geometry": {"type": "Point", "coordinates": [127.044268536244, 37.5471959131373]}, "properties": {"name": "\uc218\uc6d0\uc6d0\uc870\uac08\ube44", "address": "\uc11c\uc6b8 \uc131\ub3d9\uad6c \uc655\uc2ed\ub9ac\ub85c5\uae38 12-2", "website": "http://place.map.daum.net/11486949", "phone": "02-463-6975", "source": "\uc131\uc218\ub3d9 - \ub69d\uc12c\uc5ed - \uc218\uc6d0\uc6d0\uc870\uac08\ube44", "pid": "11486949"}}
  ,{"type": "Feature", "geometry": {"type": "Point", "coordinates": [127.068064170346, 37.5473792102844]}, "properties": {"name": "\uc6d0\uc870\ub9c8\ud3ec\uc22f\ubd88\uac08\ube44", "address": "\uc11c\uc6b8 \uad11\uc9c4\uad6c \uad11\ub098\ub8e8\ub85c12\uae38 5", "website": "http://place.map.daum.net/9367384", "phone": "02-467-9292", "source": "\ud654\uc591\ub3d9 - \uac74\ub300\uc785\uad6c\uc5ed - \uc6d0\uc870\uc22f\ubd88\uad6c\uc774", "pid": "9367384"}}
  ,{"type": "Feature", "geometry": {"type": "Point", "coordinates": [127.091617444513, 37.5898217888902]}, "properties": {"name": "\uc2dc\uace8\ubcf4\ub9ac\ubc25\uc9d1", "address": "\uc11c\uc6b8 \uc911\ub791\uad6c \uc0c1\ubd09\ub85c11\uae38 35", "website": "http://place.map.daum.net/16057001", "phone": "02-433-0481", "source": "\uba74\ubaa9\ub3d9 - \uba74\ubaa9\uc5ed - \uc2dc\uace8\ubcf4\ub9ac\ubc25\uc9d1", "pid": "16057001"}}
  ,{"type": "Feature", "geometry": {"type": "Point", "coordinates": [127.03672338537153, 37.52035588157126]}, "properties": {"name": "\uc655\uc18c\uae08\uad6c\uc774", "address": "", "website": "http://place.map.daum.net/16473181", "phone": "02-545-6844", "source": "\ub17c\ud604\ub3d9 - \uac15\ub0a8\uad6c\uccad\uc5ed - \uc655\uc18c\uae08\uad6c\uc774", "pid": "16473181"}}
  ,{"type": "Feature", "geometry": {"type": "Point", "coordinates": [127.024400711424, 37.5015208695042]}, "properties": {"name": "\uc2dc\uace8\uc57c\ucc44\ub41c\uc7a5\uc804\ubb38\uc810", "address": "\uc11c\uc6b8 \uc11c\ucd08\uad6c \uac15\ub0a8\ub300\ub85c69\uae38 11", "website": "http://place.map.daum.net/8409103", "phone": "02-3482-7626", "source": "\uc11c\ucd08\ub3d9 - \uac15\ub0a8\uc5ed - \uc2dc\uace8\uc57c\ucc44\ub41c\uc7a5", "pid": "8409103"}}
  ,{"type": "Feature", "geometry": {"type": "Point", "coordinates": [127.021141390541, 37.4934556876409]}, "properties": {"name": "\uc7a5\ud2f0\ud06c", "address": "\uc11c\uc6b8 \uc11c\ucd08\uad6c \uc11c\ucd08\ub300\ub85c64\uae38 50", "website": "http://place.map.daum.net/27596904", "phone": "02-598-7600", "source": "\uc11c\ucd08\ub3d9 - \uac15\ub0a8\uc5ed - \uc7a5\uc774\uc624", "pid": "27596904"}}
  ,{"type": "Feature", "geometry": {"type": "Point", "coordinates": [127.022208311567, 37.5068660664431]}, "properties": {"name": "\ubd80\ub69c\ub9c9", "address": "\uc11c\uc6b8 \uc11c\ucd08\uad6c \uc0ac\ud3c9\ub300\ub85c57\uae38 63-3", "website": "http://place.map.daum.net/26942050", "phone": "02-3474-2210", "source": "\uc11c\ucd08\ub3d9 - \ub0a8\ubd80\ud130\ubbf8\ub110\uc5ed - \ubd80\ub69c\ub9c9", "pid": "26942050"}}
  ,{"type": "Feature", "geometry": {"type": "Point", "coordinates": [127.020494612641, 37.5101460337074]}, "properties": {"name": "\uad11\uc8fc\uc2dd\ub2f9", "address": "\uc11c\uc6b8 \uc11c\ucd08\uad6c \uac15\ub0a8\ub300\ub85c 545-15", "website": "http://place.map.daum.net/1451950953", "phone": "02-545-9453", "source": "\ubc18\ud3ec\ub3d9 - \uad6c\ubc18\ud3ec\uc5ed - \uad11\uc8fc\uc2dd\ub2f9", "pid": "1451950953"}}
  ,{"type": "Feature", "geometry": {"type": "Point", "coordinates": [127.039751044249, 37.4702048634253]}, "properties": {"name": "\ubd80\uae30\uc2dd\ub2f9", "address": "\uc11c\uc6b8 \uc11c\ucd08\uad6c \uac15\ub0a8\ub300\ub85c12\uae38 23-15", "website": "http://place.map.daum.net/14714049", "phone": "02-577-5176", "source": "\uc591\uc7ac\ub3d9 - \uc591\uc7ac\uc2dc\ubbfc\uc758 \uc232\uc5ed - \ubd80\uae30\uc2dd\ub2f9", "pid": "14714049"}}
  ,{"type": "Feature", "geometry": {"type": "Point", "coordinates": [127.033449363745, 37.4942925825179]}, "properties": {"name": "\ud638\ub0a8\ub9c8\uc744", "address": "\uc11c\uc6b8 \uac15\ub0a8\uad6c \uc5ed\uc0bc\ub85c7\uae38 2", "website": "http://place.map.daum.net/13559752", "phone": "02-556-7701", "source": "\uc5ed\uc0bc\ub3d9 - \uac15\ub0a8\uc5ed - \ud638\ub0a8\ub9c8\uc744", "pid": "13559752"}}
  ,{"type": "Feature", "geometry": {"type": "Point", "coordinates": [127.052854313941, 37.5010646666143]}, "properties": {"name": "\uad11\uc8fc\uc2dd\ub2f9", "address": "\uc11c\uc6b8 \uac15\ub0a8\uad6c \uc5ed\uc0bc\ub85c 420", "website": "http://place.map.daum.net/10156037", "phone": "02-557-5181", "source": "\ub300\uce58\ub3d9 - \uc120\ub989\uc5ed - \uad11\uc8fc\uc2dd\ub2f9", "pid": "10156037"}}
  ,{"type": "Feature", "geometry": {"type": "Point", "coordinates": [127.01275968226, 37.4920621310479]}, "properties": {"name": "\uad50\ub300\uc774\uce35\uc9d1 \ubcf8\uc810", "address": "\uc11c\uc6b8 \uc11c\ucd08\uad6c \uc11c\ucd08\ub300\ub85c50\uae38 24", "website": "http://place.map.daum.net/25770215", "phone": "02-525-6692", "source": "\uc11c\ucd08\ub3d9 - \uad50\ub300\uc5ed - \uad50\ub300\uc774\uce35\uc9d1", "pid": "25770215"}}
  ,{"type": "Feature", "geometry": {"type": "Point", "coordinates": [127.082670031448, 37.5095890918816]}, "properties": {"name": "\ub298\ud478\ub978\ubaa9\uc7a5 \uc7a0\uc2e4\ubcf8\uc810", "address": "\uc11c\uc6b8 \uc1a1\ud30c\uad6c \ubc31\uc81c\uace0\ubd84\ub85c9\uae38 34", "website": "http://place.map.daum.net/16082320", "phone": "02-3431-4520", "source": "\uc7a0\uc2e4\ub3d9 - \uc2e0\ucc9c\uc5ed - \ub298\ud478\ub978\ubaa9\uc7a5", "pid": "16082320"}}
  ,{"type": "Feature", "geometry": {"type": "Point", "coordinates": [126.920708985009, 37.5485687313108]}, "properties": {"name": "\ubb34\ub77c", "address": "\uc11c\uc6b8 \ub9c8\ud3ec\uad6c \uc5b4\uc6b8\ub9c8\ub2f9\ub85c 40", "website": "http://place.map.daum.net/11085883", "phone": "02-326-2588", "source": "\uc0c1\uc218\ub3d9 - \uc0c1\uc218\uc5ed - \ubb34\ub77c", "pid": "11085883"}}
  ,{"type": "Feature", "geometry": {"type": "Point", "coordinates": [126.92379574116, 37.5488915191848]}, "properties": {"name": "\ud558\uce74\ud0c0\ubd84\ucf54", "address": "\uc11c\uc6b8 \ub9c8\ud3ec\uad6c \ub3c5\ub9c9\ub85c19\uae38 43", "website": "http://place.map.daum.net/21410206", "phone": "02-338-5536", "source": "\uc0c1\uc218\ub3d9 - \uc0c1\uc218\uc5ed - \ud558\uce74\ud0c0\ubd84\ucf54", "pid": "21410206"}}
  ,{"type": "Feature", "geometry": {"type": "Point", "coordinates": [126.922674932904, 37.5471752892662]}, "properties": {"name": "\ub77c\uba58\ud2b8\ub7ed", "address": "\uc11c\uc6b8 \ub9c8\ud3ec\uad6c \uc640\uc6b0\uc0b0\ub85c7\uae38 6", "website": "http://place.map.daum.net/26503114", "phone": "02-336-8455", "source": "\uc0c1\uc218\ub3d9 - \uc0c1\uc218\uc5ed - \ub77c\uba58\ud2b8\ub7ed", "pid": "26503114"}}
  ,{"type": "Feature", "geometry": {"type": "Point", "coordinates": [126.92056460886127, 37.55238886655884]}, "properties": {"name": "\ud0c4\ud0c4\uba74\uacf5\ubc29 \ud64d\ub300\uc810", "address": "\uc11c\uc6b8 \ub9c8\ud3ec\uad6c \uc794\ub2e4\ub9ac\ub85c6\uae38 25", "website": "http://place.map.daum.net/27281113", "phone": "", "source": "\uc11c\uad50\ub3d9 - \ud64d\ub300\uc785\uad6c\uc5ed - \ud0c4\ud0c4\uba74\uacf5\ubc29", "pid": "27281113"}}
  ,{"type": "Feature", "geometry": {"type": "Point", "coordinates": [126.921418812785, 37.5536760629849]}, "properties": {"name": "\uba58\uc57c\uc0b0\ub2e4\uc774\uba54 \ud64d\ub300\uc810", "address": "\uc11c\uc6b8 \ub9c8\ud3ec\uad6c \ud64d\uc775\ub85c5\uc548\uae38 24", "website": "http://place.map.daum.net/12887413", "phone": "02-332-4129", "source": "\uc11c\uad50\ub3d9 - \ud64d\ub300\uc785\uad6c\uc5ed - \uba58\uc57c\uc0b0\ub2e4\uc774\uba54", "pid": "12887413"}}
  ,{"type": "Feature", "geometry": {"type": "Point", "coordinates": [126.920342292029, 37.5528644436512]}, "properties": {"name": "\ub098\uace0\ubbf8\uc564\uac90\ub85c\ucfe0", "address": "\uc11c\uc6b8 \ub9c8\ud3ec\uad6c \ud64d\uc775\ub85c5\uc548\uae38 50", "website": "http://place.map.daum.net/18758380", "phone": "02-324-8545", "source": "\uc11c\uad50\ub3d9 - \ud64d\ub300\uc785\uad6c\uc5ed - \ub098\uace0\ubbf8\uc564\uac90\ub85c\ucfe0", "pid": "18758380"}}
  ,{"type": "Feature", "geometry": {"type": "Point", "coordinates": [126.925171531217, 37.5536965208231]}, "properties": {"name": "\uc9c0\ub85c\uc6b0\ub77c\uba58", "address": "\uc11c\uc6b8 \ub9c8\ud3ec\uad6c \uc640\uc6b0\uc0b0\ub85c29\uac00\uae38 79", "website": "http://place.map.daum.net/23734945", "phone": "02-323-3225", "source": "\uc11c\uad50\ub3d9 - \ud64d\ub300\uc785\uad6c\uc5ed - \uc9c0\ub85c\uc6b0\ub77c\uba58", "pid": "23734945"}}
  ,{"type": "Feature", "geometry": {"type": "Point", "coordinates": [126.91074661802, 37.5642831216488]}, "properties": {"name": "\uc9c0\uc0b0", "address": "\uc11c\uc6b8 \ub9c8\ud3ec\uad6c \uc131\uc0b0\ub85c4\uae38 80", "website": "http://place.map.daum.net/161210639", "phone": "", "source": "\uc11c\uad50\ub3d9 - \ud64d\ub300\uc785\uad6c\uc5ed - \uc9c0\uc0b0", "pid": "161210639"}}
  ,{"type": "Feature", "geometry": {"type": "Point", "coordinates": [126.926730635869, 37.5564040951311]}, "properties": {"name": "\ubd80\ud0c4\uce04 \ud64d\ub300\uc810", "address": "\uc11c\uc6b8 \ub9c8\ud3ec\uad6c \uc640\uc6b0\uc0b0\ub85c35\uae38 75", "website": "http://place.map.daum.net/18742750", "phone": "02-3144-3304", "source": "\uc11c\uad50\ub3d9 - \ud64d\ub300\uc785\uad6c\uc5ed - \ubd80\ud0c4\uce04", "pid": "18742750"}}
  ,{"type": "Feature", "geometry": {"type": "Point", "coordinates": [126.927646335027, 37.5551144315258]}, "properties": {"name": "\ucfe0\uc790\ucfe0", "address": "\uc11c\uc6b8 \ub9c8\ud3ec\uad6c \uc640\uc6b0\uc0b0\ub85c29\ub2e4\uae38 10", "website": "http://place.map.daum.net/25779760", "phone": "02-326-0082", "source": "\uc11c\uad50\ub3d9 - \ud64d\ub300\uc785\uad6c\uc5ed - \ucfe0\uc790\ucfe0", "pid": "25779760"}}
  ,{"type": "Feature", "geometry": {"type": "Point", "coordinates": [126.93853549124078, 37.55896578818826]}, "properties": {"name": "\uba58\uc57c\uc694\uc2dc", "address": "\uc11c\uc6b8 \uc11c\ub300\ubb38\uad6c \uc5f0\uc138\ub85c12\uae38 28", "website": "http://place.map.daum.net/15814593", "phone": "02-362-6238", "source": "\uc11c\uad50\ub3d9 - \ud64d\ub300\uc785\uad6c\uc5ed - \uba58\uc57c\uc694\uc2dc", "pid": "15814593"}}
  ,{"type": "Feature", "geometry": {"type": "Point", "coordinates": [126.918816310482, 37.5616319084292]}, "properties": {"name": "\ubb34\ud0c0\ud788\ub85c", "address": "\uc11c\uc6b8 \ub9c8\ud3ec\uad6c \uc131\ubbf8\uc0b0\ub85c 104", "website": "http://place.map.daum.net/1185180039", "phone": "070-4064-6958", "source": "\ub3d9\uad50\ub3d9 - \ud64d\ub300\uc785\uad6c\uc5ed - \ubb34\ud0c0\ud788\ub85c", "pid": "1185180039"}}
  ,{"type": "Feature", "geometry": {"type": "Point", "coordinates": [126.925814354687, 37.5628150162952]}, "properties": {"name": "\uba58\uc57c\ud788\uac00\uc2dc", "address": "\uc11c\uc6b8 \ub9c8\ud3ec\uad6c \ub3d9\uad50\ub85c 266-12", "website": "http://place.map.daum.net/1221120228", "phone": "02-3144-3758", "source": "\ub3d9\uad50\ub3d9 - \ud64d\ub300\uc785\uad6c\uc5ed - \uba58\uc57c\ud788\uac00\uc2dc", "pid": "1221120228"}}
  ,{"type": "Feature", "geometry": {"type": "Point", "coordinates": [126.923583046606, 37.5621396478926]}, "properties": {"name": "\uc0ac\uc774\ud1a0", "address": "\uc11c\uc6b8 \ub9c8\ud3ec\uad6c \uc131\ubbf8\uc0b0\ub85c26\uae38 43", "website": "http://place.map.daum.net/554372697", "phone": "02-323-0723", "source": "\uc5f0\ub0a8\ub3d9 - \ud64d\ub300\uc785\uad6c\uc5ed - \uc0ac\uc774\ud1a0", "pid": "554372697"}}
  ,{"type": "Feature", "geometry": {"type": "Point", "coordinates": [126.935273313668, 37.5561207681019]}, "properties": {"name": "\uc774\ucc0c\uba58 \uc2e0\ucd0c\uc810", "address": "\uc11c\uc6b8 \uc11c\ub300\ubb38\uad6c \uc5f0\uc138\ub85c5\uae38 38", "website": "http://place.map.daum.net/8040843", "phone": "02-333-9565", "source": "\ucc3d\ucc9c\ub3d9 - \uc2e0\ucd0c\uc5ed - \uc774\ucc0c\uba58", "pid": "8040843"}}
  ,{"type": "Feature", "geometry": {"type": "Point", "coordinates": [126.940169256066, 37.5589272538262]}, "properties": {"name": "\ub2e4\uc774\ubaac\ud0a4\uce5c", "address": "\uc11c\uc6b8 \uc11c\ub300\ubb38\uad6c \uba85\ubb3c\uae38 72", "website": "http://place.map.daum.net/27224530", "phone": "02-6369-6889", "source": "\ucc3d\ucc9c\ub3d9 - \uc2e0\ucd0c\uc5ed - \ub2e4\uc774\ubaac\ud0a4\uce5c", "pid": "27224530"}}
  ,{"type": "Feature", "geometry": {"type": "Point", "coordinates": [126.933404416442, 37.560372434905]}, "properties": {"name": "\uac00\ub9c8\ub9c8\ub8e8\uc774", "address": "\uc11c\uc6b8 \uc11c\ub300\ubb38\uad6c \uc131\uc0b0\ub85c22\uae38 4", "website": "http://place.map.daum.net/12342064", "phone": "02-3142-3929", "source": "\ucc3d\ucc9c\ub3d9 - \uc2e0\ucd0c\uc5ed - \uac00\ub9c8\ub9c8\ub8e8\uc774", "pid": "12342064"}}
  ,{"type": "Feature", "geometry": {"type": "Point", "coordinates": [126.94540770971, 37.5581765586318]}, "properties": {"name": "\uac00\uc57c\uac00\uc57c \uc774\ub300\uc810", "address": "\uc11c\uc6b8 \uc11c\ub300\ubb38\uad6c \uc774\ud654\uc5ec\ub3005\uae38 7-3", "website": "http://place.map.daum.net/21395214", "phone": "02-363-7877", "source": "\ub300\ud604\ub3d9 - \uc774\ub300\uc5ed - \uac00\uc57c\uac00\uc57c", "pid": "21395214"}}
  ,{"type": "Feature", "geometry": {"type": "Point", "coordinates": [126.94542061541, 37.5591027895666]}, "properties": {"name": "\uc18c\uc624", "address": "\uc11c\uc6b8 \uc11c\ub300\ubb38\uad6c \uc774\ud654\uc5ec\ub300\uae38 55", "website": "http://place.map.daum.net/15618872", "phone": "02-363-9861", "source": "\ub300\ud604\ub3d9 - \uc774\ub300\uc5ed - \uc18c\uc624", "pid": "15618872"}}
  ,{"type": "Feature", "geometry": {"type": "Point", "coordinates": [126.909671618277, 37.553743344396]}, "properties": {"name": "\ub77c\uba58\ubca0\ub77c\ubcf4", "address": "\uc11c\uc6b8 \ub9c8\ud3ec\uad6c \ub3d9\uad50\ub85c 67", "website": "http://place.map.daum.net/26818190", "phone": "02-338-3439", "source": "\ub9dd\uc6d0\ub3d9 - \ub9dd\uc6d0\uc5ed - \ubca0\ub77c\ubcf4", "pid": "26818190"}}
  ,{"type": "Feature", "geometry": {"type": "Point", "coordinates": [126.863564230363, 37.527317810762]}, "properties": {"name": "\uc2e0\uc138\uce74\uc774", "address": "\uc11c\uc6b8 \uc591\ucc9c\uad6c \uc2e0\uc815\uc911\uc559\ub85c23\uae38 10-1", "website": "http://place.map.daum.net/27332163", "phone": "02-6407-1542", "source": "\uc2e0\uc815\ub3d9 - \ubaa9\ub3d9\uc5ed - \uc2e0\uc138\uce74\uc774", "pid": "27332163"}}
  ,{"type": "Feature", "geometry": {"type": "Point", "coordinates": [127.071690225635, 37.5430414571614]}, "properties": {"name": "\uc6b0\ub9c8\uc774\ub3c4 \uac74\ub300\uc810", "address": "\uc11c\uc6b8 \uad11\uc9c4\uad6c \ub2a5\ub3d9\ub85c 135-2", "website": "http://place.map.daum.net/8029124", "phone": "02-467-8788", "source": "\ud654\uc591\ub3d9 - \uac74\ub300\uc785\uad6c\uc5ed - \uc6b0\ub9c8\uc774\ub3c4", "pid": "8029124"}}
  ,{"type": "Feature", "geometry": {"type": "Point", "coordinates": [127.031288947227, 37.5849950452124]}, "properties": {"name": "\ucfe0\uc774\ub3c4\ub77c\ucfe0", "address": "\uc11c\uc6b8 \uc131\ubd81\uad6c \uc548\uc554\ub85c 103", "website": "http://place.map.daum.net/16621049", "phone": "", "source": "\uc548\uc554\ub3d9 - \uc548\uc554\uc5ed - \ucfe0\uc774\ub3c4\ub77c\ucfe0", "pid": "16621049"}}
  ,{"type": "Feature", "geometry": {"type": "Point", "coordinates": [127.051065727063, 37.5847719079397]}, "properties": {"name": "\ub9c8\uce74\ub098\uc774 \uc2dc\ub9bd\ub300\ubcf8\uc810", "address": "\uc11c\uc6b8 \ub3d9\ub300\ubb38\uad6c \uc655\uc0b0\ub85c 272", "website": "http://place.map.daum.net/16448965", "phone": "02-969-2972", "source": "\uc804\ub18d\ub3d9 - \uccad\ub7c9\ub9ac\uc5ed - \ub9c8\uce74\ub098\uc774", "pid": "16448965"}}
  ,{"type": "Feature", "geometry": {"type": "Point", "coordinates": [127.018909294718, 37.5924110441654]}, "properties": {"name": "\ub098\uce74\ub178\ub77c\uba58 \uc131\uc2e0\uc5ec\ub300\uc810", "address": "\uc11c\uc6b8 \uc131\ubd81\uad6c \ub3d9\uc18c\ubb38\ub85c24\uae38 27", "website": "http://place.map.daum.net/26630480", "phone": "02-953-6256", "source": "\ub3d9\uc120\ub3d9 - \uc131\uc2e0\uc5ec\ub300\uc785\uad6c\uc5ed - \ub098\uce74\ub178\ub77c\uba58", "pid": "26630480"}}
  ,{"type": "Feature", "geometry": {"type": "Point", "coordinates": [126.97338655227, 37.5415933924309]}, "properties": {"name": "\ucbd4\ucfe0\uc2dc", "address": "\uc11c\uc6b8 \uc6a9\uc0b0\uad6c \ud55c\uac15\ub300\ub85c76\uae38 5", "website": "http://place.map.daum.net/10767289", "phone": "02-790-5602", "source": "\ub0a8\uc601\ub3d9 - \uc219\ub300\uc785\uad6c\uc5ed - \ucbd4\ucfe0\uc2dc", "pid": "10767289"}}
  ,{"type": "Feature", "geometry": {"type": "Point", "coordinates": [127.02412943184, 37.572188193968]}, "properties": {"name": "\ub9ac\ub3c4", "address": "\uc11c\uc6b8 \ub3d9\ub300\ubb38\uad6c \ub09c\uacc4\ub85c26\uae38 11", "website": "http://place.map.daum.net/22874198", "phone": "070-4249-2255", "source": "\uc2e0\uc124\ub3d9 - \uc2e0\uc124\ub3d9\uc5ed - \ub9ac\ub3c4", "pid": "22874198"}}
  ,{"type": "Feature", "geometry": {"type": "Point", "coordinates": [127.028396503521, 37.4932343208147]}, "properties": {"name": "\uc720\ud0c0\ub85c \uac15\ub0a8\uc810", "address": "\uc11c\uc6b8 \uc11c\ucd08\uad6c \uc11c\ucd08\ub300\ub85c74\uae38 51", "website": "http://place.map.daum.net/16793951", "phone": "02-582-5999", "source": "\uc11c\ucd08\ub3d9 - \uac15\ub0a8\uc5ed - \uc720\ud0c0\ub85c", "pid": "16793951"}}
  ,{"type": "Feature", "geometry": {"type": "Point", "coordinates": [127.001380384504, 37.5375274669656]}, "properties": {"name": "\ub77c\uba5881\ubc88\uc625 \uc774\ud0dc\uc6d0\uc810", "address": "\uc11c\uc6b8 \uc6a9\uc0b0\uad6c \uc774\ud0dc\uc6d0\ub85c 258", "website": "http://place.map.daum.net/26929788", "phone": "02-749-6848", "source": "\ud55c\ub0a8\ub3d9 - \ud55c\ub0a8\uc5ed - \ub77c\uba5881\ubc88\uc625", "pid": "26929788"}}
  ,{"type": "Feature", "geometry": {"type": "Point", "coordinates": [127.020257014033, 37.5182262780431]}, "properties": {"name": "\uc774\uce58\ub77c\ucfe0", "address": "\uc11c\uc6b8 \uac15\ub0a8\uad6c \uac15\ub0a8\ub300\ub85c156\uae38 13", "website": "http://place.map.daum.net/27440783", "phone": "", "source": "\uc2e0\uc0ac\ub3d9 - \uc2e0\uc0ac\uc5ed - \uc774\uce58\ub77c\ucfe0", "pid": "27440783"}}
  ,{"type": "Feature", "geometry": {"type": "Point", "coordinates": [126.997394462248, 37.4986437452916]}, "properties": {"name": "\uc0b0\ucabc\uba54 \uc11c\ub798\uc810", "address": "\uc11c\uc6b8 \uc11c\ucd08\uad6c \uc11c\ub798\ub85c7\uae38 15", "website": "http://place.map.daum.net/19156644", "phone": "02-6012-1259", "source": "\ubc18\ud3ec\ub3d9 - \uace0\uc18d\ud130\ubbf8\ub110\uc5ed - \uc0b0\ucabc\uba54", "pid": "19156644"}}
  ,{"type": "Feature", "geometry": {"type": "Point", "coordinates": [127.020246002789, 37.510964188664]}, "properties": {"name": "\ub77c\uba58\ubaa8\ud1a0 \ubcf8\uc810", "address": "\uc11c\uc6b8 \uc11c\ucd08\uad6c \uc2e0\ubc18\ud3ec\ub85c 333", "website": "http://place.map.daum.net/14557050", "phone": "070-4400-2370", "source": "\uc7a0\uc6d0\ub3d9 - \ub17c\ud604\uc5ed - \ub77c\uba58\ubaa8\ud1a0", "pid": "14557050"}}
  ,{"type": "Feature", "geometry": {"type": "Point", "coordinates": [127.107722223492, 37.5109168042197]}, "properties": {"name": "\uba58\uc57c\ud558\ub098\ube44 \uc11c\uc6b8\ubcf8\uc810", "address": "\uc11c\uc6b8 \uc1a1\ud30c\uad6c \ubc31\uc81c\uace0\ubd84\ub85c45\uae38 38", "website": "http://place.map.daum.net/27280302", "phone": "070-8959-1108", "source": "\uc1a1\ud30c\ub3d9 - \uc7a0\uc2e4\uc5ed - \uba58\uc57c\ud558\ub098\ube44", "pid": "27280302"}}
  ,{"type": "Feature", "geometry": {"type": "Point", "coordinates": [127.024334906848, 37.507838732866]}, "properties": {"name": "\uc6b8\ud2b8\ub77c\uba58", "address": "\uc11c\uc6b8 \uac15\ub0a8\uad6c \uac15\ub0a8\ub300\ub85c122\uae38 14", "website": "http://place.map.daum.net/12520269", "phone": "02-547-4433", "source": "\ub17c\ud604\ub3d9 - \ub17c\ud604\uc5ed - \uc6b8\ud2b8\ub77c\uba58", "pid": "12520269"}}
  ,{"type": "Feature", "geometry": {"type": "Point", "coordinates": [126.970109253696, 37.5766053538961]}, "properties": {"name": "\ub77c\uba74\uc810\ube75", "address": "\uc11c\uc6b8 \uc885\ub85c\uad6c \uc790\ud558\ubb38\ub85c1\uae38 39", "website": "http://place.map.daum.net/8931203", "phone": "02-738-7865", "source": "\ud544\uc6b4\ub3d9 - \uacbd\ubcf5\uad81\uc5ed - \ub77c\uba74\uc810\ube75", "pid": "8931203"}}
  ,{"type": "Feature", "geometry": {"type": "Point", "coordinates": [126.982221584228, 37.5793143859572]}, "properties": {"name": "\uacbd\ucd98\uc790\uc758 \ub77c\uba74\ub561\uae30\ub294\ub0a0", "address": "\uc11c\uc6b8 \uc885\ub85c\uad6c \uc728\uace1\ub85c3\uae38 82", "website": "http://place.map.daum.net/10371445", "phone": "02-733-3330", "source": "\ud654\ub3d9 - \uc548\uad6d\uc5ed - \ub77c\uba74\ub561\uae30\ub294\ub0a0", "pid": "10371445"}}
  ,{"type": "Feature", "geometry": {"type": "Point", "coordinates": [126.981623283732, 37.5815703828318]}, "properties": {"name": "55\ubc88\uc9c0\ub77c\uba74\ub36e\ubc25", "address": "\uc11c\uc6b8 \uc885\ub85c\uad6c \ubd81\ucd0c\ub85c5\uac00\uae38 44-6", "website": "http://place.map.daum.net/315986559", "phone": "02-722-2997", "source": "\ud654\ub3d9 - \uc548\uad6d\uc5ed - 55\ubc88\uc9c0 \ub77c\uba74", "pid": "315986559"}}
  ,{"type": "Feature", "geometry": {"type": "Point", "coordinates": [127.070599504458, 37.5431358182366]}, "properties": {"name": "\ub77c\uba74\ub3c4\uc0ac", "address": "\uc11c\uc6b8 \uad11\uc9c4\uad6c \ub2a5\ub3d9\ub85c13\uae38 27", "website": "http://place.map.daum.net/27345345", "phone": "", "source": "\ud654\uc591\ub3d9 - \uac74\ub300\uc785\uad6c\uc5ed - \ub77c\uba74\ub3c4\uc0ac", "pid": "27345345"}}
  ,{"type": "Feature", "geometry": {"type": "Point", "coordinates": [126.938802123929, 37.5588472653889]}, "properties": {"name": "\uc2e0\uacc4\uce58", "address": "\uc11c\uc6b8 \uc11c\ub300\ubb38\uad6c \uba85\ubb3c\uae38 47", "website": "http://place.map.daum.net/18751980", "phone": "02-3147-1021", "source": "\ucc3d\ucc9c\ub3d9 - \uc2e0\ucd0c\uc5ed - \uc2e0\uacc4\uce58", "pid": "18751980"}}
  ,{"type": "Feature", "geometry": {"type": "Point", "coordinates": [126.935381755608, 37.5563586908068]}, "properties": {"name": "\ucd5c\ub8e8\ud0c4\ud574\uc7a5\ub77c\uba74 \ud6fc\ub4dc\ub77c", "address": "\uc11c\uc6b8 \uc11c\ub300\ubb38\uad6c \uc5f0\uc138\ub85c5\uae38 32", "website": "http://place.map.daum.net/1316829788", "phone": "02-323-3201", "source": "\ucc3d\ucc9c\ub3d9 - \uc2e0\ucd0c\uc5ed - \ud6fc\ub4dc\ub77c", "pid": "1316829788"}}
  ,{"type": "Feature", "geometry": {"type": "Point", "coordinates": [126.96303431322, 37.5070497791868]},