{"type": "FeatureCollection","features": [
  {"type": "Feature", "geometry": {"type": "Point", "coordinates": [127.69972484599, 34.7469341826717]}, "properties": {"name": "\ub9db\uae54\ucc38\uc8fd \uc5ec\uc218\uc5ec\ubb38\uc810", "address": "\uc804\ub0a8 \uc5ec\uc218\uc2dc \ub300\uce583\uae38 13", "website": "http://place.map.daum.net/21654826", "source": "\uc11c\uad50\ub3d9 - \ud569\uc815\uc5ed - \ub9db\uae54\ucc38\uc8fd"}}
  ,{"type": "Feature", "geometry": {"type": "Point", "coordinates": [126.974526019536, 37.5714490954993]}, "properties": {"name": "\ucd08\uc6d0\uc8fd\uc9d1", "address": "\uc11c\uc6b8 \uc885\ub85c\uad6c \uc0c8\ubb38\uc548\ub85c5\uae38 13", "website": "http://place.map.daum.net/8588121", "source": "\ub2f9\uc8fc\ub3d9 - \uad11\ud654\ubb38\uc5ed - \ucd08\uc6d0"}}
  ,{"type": "Feature", "geometry": {"type": "Point", "coordinates": [126.981109994696, 37.5698465609494]}, "properties": {"name": "\uc57d\uc218\ud130", "address": "\uc11c\uc6b8 \uc885\ub85c\uad6c \uc885\ub85c 34", "website": "http://place.map.daum.net/13557708", "source": "\uc11c\ub9b0\ub3d9 - \uc885\uac01\uc5ed - \uc8fd\uc9d1 \uc57d\uc218\ud130"}}
  ,{"type": "Feature", "geometry": {"type": "Point", "coordinates": [126.989173402924, 37.5740858568012]}, "properties": {"name": "\uc5f0\uc8fd", "address": "\uc11c\uc6b8 \uc885\ub85c\uad6c \uc0bc\uc77c\ub300\ub85c30\uae38 28", "website": "http://place.map.daum.net/8443876", "source": "\uc775\uc120\ub3d9 - \uc885\ub85c 3\uac00\uc5ed - \uc5f0\uc8fd"}}
  ,{"type": "Feature", "geometry": {"type": "Point", "coordinates": [126.989173402924, 37.5740858568012]}, "properties": {"name": "\uc5f0\uc8fd", "address": "\uc11c\uc6b8 \uc885\ub85c\uad6c \uc0bc\uc77c\ub300\ub85c30\uae38 28", "website": "http://place.map.daum.net/8443876", "source": "\uc775\uc120\ub3d9 - \uc885\ub85c 3\uac00\uc5ed - \uc5f0\uc8fd"}}
  ,{"type": "Feature", "geometry": {"type": "Point", "coordinates": [127.018757521345, 37.5651505920209]}, "properties": {"name": "\uc2e0\ub2f9\ub3d9\ucc9c\ud325\uc8fd", "address": "\uc11c\uc6b8 \uc911\uad6c \ub2e4\uc0b0\ub85c44\uae38 33", "website": "http://place.map.daum.net/9842753", "source": "\uc2e0\ub2f9\ub3d9 - \uc2e0\ub2f9\uc5ed - \uc2e0\ub2f9\ub3d9\ucc9c\ud325\uc8fd"}}
  ,{"type": "Feature", "geometry": {"type": "Point", "coordinates": [126.991995666987, 37.5621136509372]}, "properties": {"name": "\uc1a1\uc8fd", "address": "\uc11c\uc6b8 \uc911\uad6c \uc218\ud45c\ub85c2\uae38 26", "website": "http://place.map.daum.net/23105939", "source": "\ud544\ub3d9 - \ucda9\ubb34\ub85c\uc5ed - \uc1a1\uc8fd"}}
  ,{"type": "Feature", "geometry": {"type": "Point", "coordinates": [127.060945037516, 37.5151957321229]}, "properties": {"name": "\uc6d0\uc8fd \uc0bc\uc131\uc810", "address": "\uc11c\uc6b8 \uac15\ub0a8\uad6c \uc601\ub3d9\ub300\ub85c112\uae38 9", "website": "http://place.map.daum.net/16820419", "source": "\uc0bc\uc131\ub3d9 - \ubd09\uc740\uc0ac\uc5ed - \uc6d0\uc8fd"}}
  ,{"type": "Feature", "geometry": {"type": "Point", "coordinates": [126.981821394796, 37.5862735984118]}, "properties": {"name": "\uc11c\uc6b8\uc11c \ub458\uc9f8\ub85c\uc798\ud558\ub294\uc9d1", "address": "\uc11c\uc6b8 \uc885\ub85c\uad6c \uc0bc\uccad\ub85c 122-1", "website": "http://place.map.daum.net/7941905", "source": "\uc0bc\uccad\ub3d9 - \uc548\uad6d\uc5ed - \uc11c\uc6b8\uc5d0\uc11c\ub450\ubc88\uc9f8\ub85c\uc798\ud558\ub294\uc9d1"}}
  ,{"type": "Feature", "geometry": {"type": "Point", "coordinates": [126.921602493815, 37.5295726453777]}, "properties": {"name": "\ub2e4\ud654", "address": "\uc11c\uc6b8 \uc601\ub4f1\ud3ec\uad6c \uad6d\ud68c\ub300\ub85c74\uae38 20", "website": "http://place.map.daum.net/8220939", "source": "\uc5ec\uc758\ub3c4\ub3d9 - \uc5ec\uc758\ub3c4\uc5ed - \ub2e4\ud654"}}
  ,{"type": "Feature", "geometry": {"type": "Point", "coordinates": [126.930014392196, 37.5207012570397]}, "properties": {"name": "\ub300\uc5ec\uc8fd\uc9d1", "address": "\uc11c\uc6b8 \uc601\ub4f1\ud3ec\uad6c \uc5ec\uc758\ub300\ubc29\ub85c67\uae38 22", "website": "http://place.map.daum.net/11010649", "source": "\uc5ec\uc758\ub3c4\ub3d9 - \uc5ec\uc758\ub3c4\uc5ed \u2013 \ub300\uc5ec"}}
]}
