{
 "type": "FeatureCollection",
 "features": [
  {
   "type": "Feature",
   "geometry": {
    "type": "Point",
    "coordinates": [
     127.69972484599,
     34.7469341826717
    ]
   },
   "properties": {
    "pid": "21654826",
    "name": "맛깔참죽 여수여문점",
    "phone": "061-653-6233",
    "source": "서교동 - 합정역 - 맛깔참죽",
    "address": "전남 여수시 대치3길 13",
    "website": "http://place.map.daum.net/21654826",
    "category": "죽"
   }
  },
  {
   "type": "Feature",
   "geometry": {
    "type": "Point",
    "coordinates": [
     126.974526019536,
     37.5714490954993
    ]
   },
   "properties": {
    "pid": "8588121",
    "name": "초원죽집",
    "phone": "02-735-5904",
    "source": "당주동 - 광화문역 - 초원",
    "address": "서울 종로구 새문안로5길 13",
    "website": "http://place.map.daum.net/8588121",
    "category": "죽"
   }
  },
  {
   "type": "Feature",
   "geometry": {
    "type": "Point",
    "coordinates": [
     126.981109994696,
     37.5698465609494
    ]
   },
   "properties": {
    "pid": "13557708",
    "name": "약수터",
    "phone": "02-739-9678",
    "source": "서린동 - 종각역 - 죽집 약수터",
    "address": "서울 종로구 종로 34",
    "website": "http://place.map.daum.net/13557708",
    "category": "죽"
   }
  },
  {
   "type": "Feature",
   "geometry": {
    "type": "Point",
    "coordinates": [
     126.989173402924,
     37.5740858568012
    ]
   },
   "properties": {
    "pid": "8443876",
    "name": "연죽",
    "phone": "02-741-8004",
    "source": "익선동 - 종로 3가역 - 연죽",
    "address": "서울 종로구 삼일대로30길 28",
    "website": "http://place.map.daum.net/8443876",
    "category": "죽"
   }
  },
  {
   "type": "Feature",
   "geometry": {
    "type": "Point",
    "coordinates": [
     127.018757521345,
     37.5651505920209
    ]
   },
   "properties": {
    "pid": "9842753",
    "name": "신당동천팥죽",
    "phone": "02-2237-6385",
    "source": "신당동 - 신당역 - 신당동천팥죽",
    "address": "서울 중구 다산로44길 33",
    "website": "http://place.map.daum.net/9842753",
    "category": "죽"
   }
  },
  {
   "type": "Feature",
   "geometry": {
    "type": "Point",
    "coordinates": [
     126.991995666987,
     37.5621136509372
    ]
   },
   "properties": {
    "pid": "23105939",
    "name": "송죽",
    "phone": "02-2265-5129",
    "source": "필동 - 충무로역 - 송죽",
    "address": "서울 중구 수표로2길 26",
    "website": "http://place.map.daum.net/23105939",
    "category": "죽"
   }
  },
  {
   "type": "Feature",
   "geometry": {
    "type": "Point",
    "coordinates": [
     127.060945037516,
     37.5151957321229
    ]
   },
   "properties": {
    "pid": "16820419",
    "name": "원죽 삼성점",
    "phone": "02-543-8266",
    "source": "삼성동 - 봉은사역 - 원죽",
    "address": "서울 강남구 영동대로112길 9",
    "website": "http://place.map.daum.net/16820419",
    "category": "죽"
   }
  },
  {
   "type": "Feature",
   "geometry": {
    "type": "Point",
    "coordinates": [
     126.981821394796,
     37.5862735984118
    ]
   },
   "properties": {
    "pid": "7941905",
    "name": "서울서 둘째로잘하는집",
    "phone": "02-734-5302",
    "source": "삼청동 - 안국역 - 서울에서두번째로잘하는집",
    "address": "서울 종로구 삼청로 122-1",
    "website": "http://place.map.daum.net/7941905",
    "category": "죽"
   }
  },
  {
   "type": "Feature",
   "geometry": {
    "type": "Point",
    "coordinates": [
     126.921602493815,
     37.5295726453777
    ]
   },
   "properties": {
    "pid": "8220939",
    "name": "다화",
    "phone": "02-784-9810",
    "source": "여의도동 - 여의도역 - 다화",
    "address": "서울 영등포구 국회대로74길 20",
    "website": "http://place.map.daum.net/8220939",
    "category": "죽"
   }
  },
  {
   "type": "Feature",
   "geometry": {
    "type": "Point",
    "coordinates": [
     126.930014392196,
     37.5207012570397
    ]
   },
   "properties": {
    "pid": "11010649",
    "name": "대여죽집",
    "phone": "02-783-6023",
    "source": "여의도동 - 여의도역 - 대여",
    "address": "서울 영등포구 여의대방로67길 22",
    "website": "http://place.map.daum.net/11010649",
    "category": "죽"
   }
  }
 ]
}