{
 "type": "FeatureCollection",
 "features": [
  {
   "type": "Feature",
   "geometry": {
    "type": "Point",
    "coordinates": [
     127.077653612313,
     37.619477973192
    ]
   },
   "properties": {
    "pid": "8083654",
    "name": "제일콩집",
    "phone": "02-972-7016",
    "source": "공릉동 - 태릉입구역 - 제일콩집",
    "address": "서울 노원구 동일로174길 37-8",
    "website": "http://place.map.daum.net/8083654",
    "category": "청국장"
   }
  },
  {
   "type": "Feature",
   "geometry": {
    "type": "Point",
    "coordinates": [
     126.979821217095,
     37.5637411995167
    ]
   },
   "properties": {
    "pid": "7909247",
    "name": "사직분식",
    "phone": "02-736-0598",
    "source": "소공동 - 을지로입구역 - 사직분식",
    "address": "서울 중구 소공로 100",
    "website": "http://place.map.daum.net/7909247",
    "category": "청국장"
   }
  },
  {
   "type": "Feature",
   "geometry": {
    "type": "Point",
    "coordinates": [
     126.983589606261,
     37.577256713442
    ]
   },
   "properties": {
    "pid": "8323115",
    "name": "별궁식당",
    "phone": "02-736-2176",
    "source": "안국동 - 안국역 - 별궁식당",
    "address": "서울 종로구 윤보선길 19-16",
    "website": "http://place.map.daum.net/8323115",
    "category": "청국장"
   }
  },
  {
   "type": "Feature",
   "geometry": {
    "type": "Point",
    "coordinates": [
     126.987801646366,
     37.5725756555685
    ]
   },
   "properties": {
    "pid": "15700115",
    "name": "일미식당",
    "phone": "02-766-6588",
    "source": "낙원동 - 종로3가역 - 일미식당",
    "address": "서울 종로구 삼일대로 428",
    "website": "http://place.map.daum.net/15700115",
    "category": "청국장"
   }
  },
  {
   "type": "Feature",
   "geometry": {
    "type": "Point",
    "coordinates": [
     127.03042830568,
     37.48429221346
    ]
   },
   "properties": {
    "pid": "16875344",
    "name": "진주청국장",
    "phone": "02-525-6919",
    "source": "서초동 - 양재역 - 진주청국장",
    "address": "서울 서초구 남부순환로 2561",
    "website": "http://place.map.daum.net/16875344",
    "category": "청국장"
   }
  },
  {
   "type": "Feature",
   "geometry": {
    "type": "Point",
    "coordinates": [
     127.021141390541,
     37.4934556876409
    ]
   },
   "properties": {
    "pid": "27596904",
    "name": "장티크",
    "phone": "02-598-7600",
    "source": "서초동 - 강남역 - 장이오",
    "address": "서울 서초구 서초대로64길 50",
    "website": "http://place.map.daum.net/27596904",
    "category": "청국장"
   }
  },
  {
   "type": "Feature",
   "geometry": {
    "type": "Point",
    "coordinates": [
     126.960362248958,
     37.6065370437988
    ]
   },
   "properties": {
    "pid": "13289977",
    "name": "옛날민속집 본점",
    "phone": "02-379-6100",
    "source": "구기동 - 홍제역 - 옛날민속집",
    "address": "서울 종로구 진흥로 469-4",
    "website": "http://place.map.daum.net/13289977",
    "category": "청국장"
   }
  },
  {
   "type": "Feature",
   "geometry": {
    "type": "Point",
    "coordinates": [
     127.011266679307,
     37.6398580678213
    ]
   },
   "properties": {
    "pid": "16417400",
    "name": "토방",
    "phone": "02-904-6800",
    "source": "인수동 - 수유역 - 토방",
    "address": "서울 강북구 삼각산로 63",
    "website": "http://place.map.daum.net/16417400",
    "category": "청국장"
   }
  },
  {
   "type": "Feature",
   "geometry": {
    "type": "Point",
    "coordinates": [
     127.043785621446,
     37.5805545797471
    ]
   },
   "properties": {
    "pid": "18829150",
    "name": "광주식당",
    "phone": "02-969-4403",
    "source": "청량리동 - 청량리역 - 광주식당",
    "address": "서울 동대문구 경동시장로2길 49-4",
    "website": "http://place.map.daum.net/18829150",
    "category": "청국장"
   }
  },
  {
   "type": "Feature",
   "geometry": {
    "type": "Point",
    "coordinates": [
     127.004261423857,
     37.5831610889032
    ]
   },
   "properties": {
    "pid": "13087292",
    "name": "마미청국장",
    "phone": "02-765-0842",
    "source": "동숭동 - 혜화역 - 마미청국장",
    "address": "서울 종로구 동숭4나길 2",
    "website": "http://place.map.daum.net/13087292",
    "category": "청국장"
   }
  },
  {
   "type": "Feature",
   "geometry": {
    "type": "Point",
    "coordinates": [
     127.004651244386,
     37.5889454490004
    ]
   },
   "properties": {
    "pid": "7989038",
    "name": "안동할매청국장",
    "phone": "02-743-8104",
    "source": "성북동 - 한성대입구역 - 안동할매청국장",
    "address": "서울 성북구 성북로5길 9-3",
    "website": "http://place.map.daum.net/7989038",
    "category": "청국장"
   }
  },
  {
   "type": "Feature",
   "geometry": {
    "type": "Point",
    "coordinates": [
     126.982166076281,
     37.5842085748623
    ]
   },
   "properties": {
    "pid": "8145955",
    "name": "향나무세그루",
    "phone": "02-720-9524",
    "source": "삼청동 - 안국역 - 향나무세그루",
    "address": "서울 종로구 삼청로 100",
    "website": "http://place.map.daum.net/8145955",
    "category": "청국장"
   }
  },
  {
   "type": "Feature",
   "geometry": {
    "type": "Point",
    "coordinates": [
     126.981326428707,
     37.4826872566225
    ]
   },
   "properties": {
    "pid": "11892006",
    "name": "보성식당",
    "phone": "02-523-3637",
    "source": "사당동 - 이수역 - 보성식당",
    "address": "서울 동작구 동작대로17길 3",
    "website": "http://place.map.daum.net/11892006",
    "category": "청국장"
   }
  },
  {
   "type": "Feature",
   "geometry": {
    "type": "Point",
    "coordinates": [
     126.980192578158,
     37.4777351257611
    ]
   },
   "properties": {
    "pid": "8106735",
    "name": "가마솥손두부",
    "phone": "02-3472-2202",
    "source": "사당동 - 사당역 - 가마솥순두부",
    "address": "서울 동작구 남부순환로271길 20",
    "website": "http://place.map.daum.net/8106735",
    "category": "청국장"
   }
  },
  {
   "type": "Feature",
   "geometry": {
    "type": "Point",
    "coordinates": [
     126.947730134699,
     37.5062655302197
    ]
   },
   "properties": {
    "pid": "8221289",
    "name": "다래식당",
    "phone": "02-812-4156",
    "source": "상도동 - 장승배기역 - 다래식당",
    "address": "서울 동작구 만양로2길 2",
    "website": "http://place.map.daum.net/8221289",
    "category": "청국장"
   }
  },
  {
   "type": "Feature",
   "geometry": {
    "type": "Point",
    "coordinates": [
     126.986234726351,
     37.5738909358415
    ]
   },
   "properties": {
    "pid": "19909505",
    "name": "풍류사랑",
    "phone": "02-739-0809",
    "source": "관훈동 - 종각역 - 풍류사랑",
    "address": "서울 종로구 인사동8길 12-7",
    "website": "http://place.map.daum.net/19909505",
    "category": "청국장"
   }
  },
  {
   "type": "Feature",
   "geometry": {
    "type": "Point",
    "coordinates": [
     127.03721931212,
     37.5167264852802
    ]
   },
   "properties": {
    "pid": "8188651",
    "name": "고향집",
    "phone": "02-543-6363",
    "source": "논현동 - 강남구청역 - 고향집",
    "address": "서울 강남구 언주로134길 20",
    "website": "http://place.map.daum.net/8188651",
    "category": "청국장"
   }
  },
  {
   "type": "Feature",
   "geometry": {
    "type": "Point",
    "coordinates": [
     126.99893171716084,
     37.57008318697087
    ]
   },
   "properties": {
    "pid": "17079039",
    "name": "대동식당",
    "phone": "02-2279-5810",
    "source": "예지동 - 종로 5가역 - 대동식당",
    "address": "서울 종로구 창경궁로 88",
    "website": "http://place.map.daum.net/17079039",
    "category": "청국장"
   }
  },
  {
   "type": "Feature",
   "geometry": {
    "type": "Point",
    "coordinates": [
     126.97428584494,
     37.5720184723523
    ]
   },
   "properties": {
    "pid": "16556358",
    "name": "솔모랑깡장집",
    "phone": "02-720-8688",
    "source": "당주동 - 광화문역 - 깡장집",
    "address": "서울 종로구 새문안로5길 19",
    "website": "http://place.map.daum.net/16556358",
    "category": "청국장"
   }
  },
  {
   "type": "Feature",
   "geometry": {
    "type": "Point",
    "coordinates": [
     126.929216731157,
     37.5842896107683
    ]
   },
   "properties": {
    "pid": "8648916",
    "name": "한국회관",
    "phone": "",
    "source": "홍은동 - 홍제역, 새절역 - 한국회관",
    "address": "서울 서대문구 백련사길 130",
    "website": "http://place.map.daum.net/8648916",
    "category": "청국장"
   }
  },
  {
   "type": "Feature",
   "geometry": {
    "type": "Point",
    "coordinates": [
     127.017903497817,
     37.5153794870342
    ]
   },
   "properties": {
    "pid": "8064587",
    "name": "전주청국장",
    "phone": "02-541-3579",
    "source": "잠원동 - 신사역 - 전주청국장",
    "address": "서울 서초구 나루터로 70",
    "website": "http://place.map.daum.net/8064587",
    "category": "청국장"
   }
  },
  {
   "type": "Feature",
   "geometry": {
    "type": "Point",
    "coordinates": [
     127.061962030812,
     37.513962629859
    ]
   },
   "properties": {
    "pid": "16084885",
    "name": "성북동",
    "phone": "02-3452-3880",
    "source": "삼성동 - 삼성역 - 성북동청국장",
    "address": "서울 강남구 봉은사로104길 6",
    "website": "http://place.map.daum.net/16084885",
    "category": "청국장"
   }
  },
  {
   "type": "Feature",
   "geometry": {
    "type": "Point",
    "coordinates": [
     127.024400711424,
     37.5015208695042
    ]
   },
   "properties": {
    "pid": "8409103",
    "name": "시골야채된장전문점",
    "phone": "02-3482-7626",
    "source": "서초동 - 강남역 - 시골야채된장",
    "address": "서울 서초구 강남대로69길 11",
    "website": "http://place.map.daum.net/8409103",
    "category": "청국장"
   }
  },
  {
   "type": "Feature",
   "geometry": {
    "type": "Point",
    "coordinates": [
     127.017188277021,
     37.4941302822048
    ]
   },
   "properties": {
    "pid": "13726961",
    "name": "마음은콩밭에 교대본점",
    "phone": "02-581-0083",
    "source": "서초동 - 교대역 - 마음은콩밭에",
    "address": "서울 서초구 서초대로56길 9",
    "website": "http://place.map.daum.net/13726961",
    "category": "청국장"
   }
  },
  {
   "type": "Feature",
   "geometry": {
    "type": "Point",
    "coordinates": [
     127.055863129477,
     37.5200672668671
    ]
   },
   "properties": {
    "pid": "12657535",
    "name": "청국장과보리밥 청담점",
    "phone": "02-544-3313",
    "source": "청담동 - 청담역 - 청국장과 보리밥",
    "address": "서울 강남구 학동로 521",
    "website": "http://place.map.daum.net/12657535",
    "category": "청국장"
   }
  },
  {
   "type": "Feature",
   "geometry": {
    "type": "Point",
    "coordinates": [
     127.098024588236,
     37.5057859203678
    ]
   },
   "properties": {
    "pid": "19927945",
    "name": "사계진미 잠실석촌점",
    "phone": "02-420-9199",
    "source": "석촌동 - 석촌역 - 사계진미",
    "address": "서울 송파구 송파대로49길 63",
    "website": "http://place.map.daum.net/19927945",
    "category": "청국장"
   }
  },
  {
   "type": "Feature",
   "geometry": {
    "type": "Point",
    "coordinates": [
     126.974357568202,
     37.5344937250377
    ]
   },
   "properties": {
    "pid": "16533470",
    "name": "골목식당",
    "phone": "02-795-7019",
    "source": "한강로1가 - 삼각지역 - 골목식당",
    "address": "서울 용산구 한강대로62가길 8-6",
    "website": "http://place.map.daum.net/16533470",
    "category": "청국장"
   }
  },
  {
   "type": "Feature",
   "geometry": {
    "type": "Point",
    "coordinates": [
     127.064467531634,
     37.5075028898723
    ]
   },
   "properties": {
    "pid": "19838635",
    "name": "홍영재장수청국장 삼성점",
    "phone": "02-548-8340",
    "source": "대치동 - 삼성역 - 홍영재장수청국장",
    "address": "서울 강남구 영동대로 424",
    "website": "http://place.map.daum.net/19838635",
    "category": "청국장"
   }
  },
  {
   "type": "Feature",
   "geometry": {
    "type": "Point",
    "coordinates": [
     127.008386045188,
     37.5343448430584
    ]
   },
   "properties": {
    "pid": "11366095",
    "name": "향기고을",
    "phone": "02-795-1754",
    "source": "한남동 - 한남역 - 향기고을",
    "address": "서울 용산구 한남대로18길 18",
    "website": "http://place.map.daum.net/11366095",
    "category": "청국장"
   }
  },
  {
   "type": "Feature",
   "geometry": {
    "type": "Point",
    "coordinates": [
     127.04459781805,
     37.4844426880382
    ]
   },
   "properties": {
    "pid": "17350428",
    "name": "강남원조청국장집",
    "phone": "02-572-3560",
    "source": "도곡동 - 매봉역 - 강남원조청국장집",
    "address": "서울 강남구 논현로30길 36",
    "website": "http://place.map.daum.net/17350428",
    "category": "청국장"
   }
  },
  {
   "type": "Feature",
   "geometry": {
    "type": "Point",
    "coordinates": [
     127.112605570286,
     37.5301072078442
    ]
   },
   "properties": {
    "pid": "8107896",
    "name": "토방",
    "phone": "02-488-3320",
    "source": "풍납동 - 강동구청역 - 토방",
    "address": "서울 송파구 토성로6길 7",
    "website": "http://place.map.daum.net/8107896",
    "category": "청국장"
   }
  },
  {
   "type": "Feature",
   "geometry": {
    "type": "Point",
    "coordinates": [
     126.856300285659,
     37.5584693393784
    ]
   },
   "properties": {
    "pid": "16880153",
    "name": "콩두",
    "phone": "02-3662-7787",
    "source": "등촌동 - 증미역 - 콩두",
    "address": "서울 강서구 화곡로68길 36",
    "website": "http://place.map.daum.net/16880153",
    "category": "청국장"
   }
  },
  {
   "type": "Feature",
   "geometry": {
    "type": "Point",
    "coordinates": [
     126.942166386236,
     37.5463575255009
    ]
   },
   "properties": {
    "pid": "10778661",
    "name": "지여사청국장 생삼겹살",
    "phone": "02-701-0180",
    "source": "대흥동 - 대흥역 - 지여사청국장",
    "address": "서울 마포구 독막로 257",
    "website": "http://place.map.daum.net/10778661",
    "category": "청국장"
   }
  },
  {
   "type": "Feature",
   "geometry": {
    "type": "Point",
    "coordinates": [
     127.110944719476,
     37.5514696746701
    ]
   },
   "properties": {
    "pid": "19305916",
    "name": "콩예원",
    "phone": "02-444-3331",
    "source": "광장동 - 광나루역 - 콩예원",
    "address": "서울 광진구 아차산로78길 75",
    "website": "http://place.map.daum.net/19305916",
    "category": "청국장"
   }
  },
  {
   "type": "Feature",
   "geometry": {
    "type": "Point",
    "coordinates": [
     126.863318631004,
     37.5255155239472
    ]
   },
   "properties": {
    "pid": "16906132",
    "name": "옥천집",
    "phone": "02-2695-4554",
    "source": "목동 - 목동역 - 옥천집",
    "address": "서울 양천구 목동로21길 4",
    "website": "http://place.map.daum.net/16906132",
    "category": "청국장"
   }
  },
  {
   "type": "Feature",
   "geometry": {
    "type": "Point",
    "coordinates": [
     127.01958803579,
     37.5899890665476
    ]
   },
   "properties": {
    "pid": "11119296",
    "name": "신신식당",
    "phone": "02-929-2913",
    "source": "동선동 - 성신여대입구역 - 신신식당",
    "address": "서울 성북구 보문로30라길 3",
    "website": "http://place.map.daum.net/11119296",
    "category": "청국장"
   }
  },
  {
   "type": "Feature",
   "geometry": {
    "type": "Point",
    "coordinates": [
     126.857079588777,
     37.5249387058067
    ]
   },
   "properties": {
    "pid": "13287336",
    "name": "부뚜막청국장",
    "phone": "02-2695-2074",
    "source": "신정동 - 신정역 - 부뚜막청국장",
    "address": "서울 양천구 오목로 176",
    "website": "http://place.map.daum.net/13287336",
    "category": "청국장"
   }
  },
  {
   "type": "Feature",
   "geometry": {
    "type": "Point",
    "coordinates": [
     126.95797465069525,
     37.48607986216044
    ]
   },
   "properties": {
    "pid": "12661709",
    "name": "청국장과보리밥 봉천점",
    "phone": "02-878-8858",
    "source": "신원동 - 청계산입구역 - 청국장과 보리밥",
    "address": "서울 관악구 관악로24길 80",
    "website": "http://place.map.daum.net/12661709",
    "category": "청국장"
   }
  },
  {
   "type": "Feature",
   "geometry": {
    "type": "Point",
    "coordinates": [
     127.089910459413,
     37.5072916470656
    ]
   },
   "properties": {
    "pid": "27303080",
    "name": "부일갈매기",
    "phone": "02-412-1462",
    "source": "잠실동 - 신천역 - 부일갈매기",
    "address": "서울 송파구 삼전로13길 4",
    "website": "http://place.map.daum.net/27303080",
    "category": "청국장"
   }
  },
  {
   "type": "Feature",
   "geometry": {
    "type": "Point",
    "coordinates": [
     127.057673704422,
     37.5209205473621
    ]
   },
   "properties": {
    "pid": "16037716",
    "name": "삼성원조양곱창",
    "phone": "02-545-8895",
    "source": "청담동 - 청담역 - 삼성원조양곱창",
    "address": "서울 강남구 학동로101길 7",
    "website": "http://place.map.daum.net/16037716",
    "category": "청국장"
   }
  },
  {
   "type": "Feature",
   "geometry": {
    "type": "Point",
    "coordinates": [
     127.000126722915,
     37.5369904787104
    ]
   },
   "properties": {
    "pid": "8194939",
    "name": "나리의집",
    "phone": "02-793-4860",
    "source": "한남동 - 한강진역 - 나리의 집",
    "address": "서울 용산구 이태원로 245",
    "website": "http://place.map.daum.net/8194939",
    "category": "청국장"
   }
  },
  {
   "type": "Feature",
   "geometry": {
    "type": "Point",
    "coordinates": [
     127.03672338537153,
     37.52035588157126
    ]
   },
   "properties": {
    "pid": "16473181",
    "name": "왕소금구이",
    "phone": "02-545-6844",
    "source": "논현동 - 강남구청역 - 왕소금구이",
    "address": "",
    "website": "http://place.map.daum.net/16473181",
    "category": "청국장"
   }
  }
 ]
}