{"type": "FeatureCollection","features": [
  {"type": "Feature", "geometry": {"type": "Point", "coordinates": [127.077653612313, 37.619477973192]}, "properties": {"name": "\uc81c\uc77c\ucf69\uc9d1", "address": "\uc11c\uc6b8 \ub178\uc6d0\uad6c \ub3d9\uc77c\ub85c174\uae38 37-8", "website": "http://place.map.daum.net/8083654", "source": "\uacf5\ub989\ub3d9 - \ud0dc\ub989\uc785\uad6c\uc5ed - \uc81c\uc77c\ucf69\uc9d1"}}
  ,{"type": "Feature", "geometry": {"type": "Point", "coordinates": [126.979821217095, 37.5637411995167]}, "properties": {"name": "\uc0ac\uc9c1\ubd84\uc2dd", "address": "\uc11c\uc6b8 \uc911\uad6c \uc18c\uacf5\ub85c 100", "website": "http://place.map.daum.net/7909247", "source": "\uc18c\uacf5\ub3d9 - \uc744\uc9c0\ub85c\uc785\uad6c\uc5ed - \uc0ac\uc9c1\ubd84\uc2dd"}}
  ,{"type": "Feature", "geometry": {"type": "Point", "coordinates": [126.983589606261, 37.577256713442]}, "properties": {"name": "\ubcc4\uad81\uc2dd\ub2f9", "address": "\uc11c\uc6b8 \uc885\ub85c\uad6c \uc724\ubcf4\uc120\uae38 19-16", "website": "http://place.map.daum.net/8323115", "source": "\uc548\uad6d\ub3d9 - \uc548\uad6d\uc5ed - \ubcc4\uad81\uc2dd\ub2f9"}}
  ,{"type": "Feature", "geometry": {"type": "Point", "coordinates": [126.987801646366, 37.5725756555685]}, "properties": {"name": "\uc77c\ubbf8\uc2dd\ub2f9", "address": "\uc11c\uc6b8 \uc885\ub85c\uad6c \uc0bc\uc77c\ub300\ub85c 428", "website": "http://place.map.daum.net/15700115", "source": "\ub099\uc6d0\ub3d9 - \uc885\ub85c3\uac00\uc5ed - \uc77c\ubbf8\uc2dd\ub2f9"}}
  ,{"type": "Feature", "geometry": {"type": "Point", "coordinates": [127.03042830568, 37.48429221346]}, "properties": {"name": "\uc9c4\uc8fc\uccad\uad6d\uc7a5", "address": "\uc11c\uc6b8 \uc11c\ucd08\uad6c \ub0a8\ubd80\uc21c\ud658\ub85c 2561", "website": "http://place.map.daum.net/16875344", "source": "\uc11c\ucd08\ub3d9 - \uc591\uc7ac\uc5ed - \uc9c4\uc8fc\uccad\uad6d\uc7a5"}}
  ,{"type": "Feature", "geometry": {"type": "Point", "coordinates": [127.021141390541, 37.4934556876409]}, "properties": {"name": "\uc7a5\ud2f0\ud06c", "address": "\uc11c\uc6b8 \uc11c\ucd08\uad6c \uc11c\ucd08\ub300\ub85c64\uae38 50", "website": "http://place.map.daum.net/27596904", "source": "\uc11c\ucd08\ub3d9 - \uac15\ub0a8\uc5ed - \uc7a5\uc774\uc624"}}
  ,{"type": "Feature", "geometry": {"type": "Point", "coordinates": [126.960362248958, 37.6065370437988]}, "properties": {"name": "\uc61b\ub0a0\ubbfc\uc18d\uc9d1 \ubcf8\uc810", "address": "\uc11c\uc6b8 \uc885\ub85c\uad6c \uc9c4\ud765\ub85c 469-4", "website": "http://place.map.daum.net/13289977", "source": "\uad6c\uae30\ub3d9 - \ud64d\uc81c\uc5ed - \uc61b\ub0a0\ubbfc\uc18d\uc9d1"}}
  ,{"type": "Feature", "geometry": {"type": "Point", "coordinates": [127.011266679307, 37.6398580678213]}, "properties": {"name": "\ud1a0\ubc29", "address": "\uc11c\uc6b8 \uac15\ubd81\uad6c \uc0bc\uac01\uc0b0\ub85c 63", "website": "http://place.map.daum.net/16417400", "source": "\uc778\uc218\ub3d9 - \uc218\uc720\uc5ed - \ud1a0\ubc29"}}
  ,{"type": "Feature", "geometry": {"type": "Point", "coordinates": [127.043785621446, 37.5805545797471]}, "properties": {"name": "\uad11\uc8fc\uc2dd\ub2f9", "address": "\uc11c\uc6b8 \ub3d9\ub300\ubb38\uad6c \uacbd\ub3d9\uc2dc\uc7a5\ub85c2\uae38 49-4", "website": "http://place.map.daum.net/18829150", "source": "\uccad\ub7c9\ub9ac\ub3d9 - \uccad\ub7c9\ub9ac\uc5ed - \uad11\uc8fc\uc2dd\ub2f9"}}
  ,{"type": "Feature", "geometry": {"type": "Point", "coordinates": [127.004261423857, 37.5831610889032]}, "properties": {"name": "\ub9c8\ubbf8\uccad\uad6d\uc7a5", "address": "\uc11c\uc6b8 \uc885\ub85c\uad6c \ub3d9\uc22d4\ub098\uae38 2", "website": "http://place.map.daum.net/13087292", "source": "\ub3d9\uc22d\ub3d9 - \ud61c\ud654\uc5ed - \ub9c8\ubbf8\uccad\uad6d\uc7a5"}}
  ,{"type": "Feature", "geometry": {"type": "Point", "coordinates": [127.004651244386, 37.5889454490004]}, "properties": {"name": "\uc548\ub3d9\ud560\ub9e4\uccad\uad6d\uc7a5", "address": "\uc11c\uc6b8 \uc131\ubd81\uad6c \uc131\ubd81\ub85c5\uae38 9-3", "website": "http://place.map.daum.net/7989038", "source": "\uc131\ubd81\ub3d9 - \ud55c\uc131\ub300\uc785\uad6c\uc5ed - \uc548\ub3d9\ud560\ub9e4\uccad\uad6d\uc7a5"}}
  ,{"type": "Feature", "geometry": {"type": "Point", "coordinates": [126.982166076281, 37.5842085748623]}, "properties": {"name": "\ud5a5\ub098\ubb34\uc138\uadf8\ub8e8", "address": "\uc11c\uc6b8 \uc885\ub85c\uad6c \uc0bc\uccad\ub85c 100", "website": "http://place.map.daum.net/8145955", "source": "\uc0bc\uccad\ub3d9 - \uc548\uad6d\uc5ed - \ud5a5\ub098\ubb34\uc138\uadf8\ub8e8"}}
  ,{"type": "Feature", "geometry": {"type": "Point", "coordinates": [126.981326428707, 37.4826872566225]}, "properties": {"name": "\ubcf4\uc131\uc2dd\ub2f9", "address": "\uc11c\uc6b8 \ub3d9\uc791\uad6c \ub3d9\uc791\ub300\ub85c17\uae38 3", "website": "http://place.map.daum.net/11892006", "source": "\uc0ac\ub2f9\ub3d9 - \uc774\uc218\uc5ed - \ubcf4\uc131\uc2dd\ub2f9"}}
  ,{"type": "Feature", "geometry": {"type": "Point", "coordinates": [126.980192578158, 37.4777351257611]}, "properties": {"name": "\uac00\ub9c8\uc1a5\uc190\ub450\ubd80", "address": "\uc11c\uc6b8 \ub3d9\uc791\uad6c \ub0a8\ubd80\uc21c\ud658\ub85c271\uae38 20", "website": "http://place.map.daum.net/8106735", "source": "\uc0ac\ub2f9\ub3d9 - \uc0ac\ub2f9\uc5ed - \uac00\ub9c8\uc1a5\uc21c\ub450\ubd80"}}
  ,{"type": "Feature", "geometry": {"type": "Point", "coordinates": [126.947730134699, 37.5062655302197]}, "properties": {"name": "\ub2e4\ub798\uc2dd\ub2f9", "address": "\uc11c\uc6b8 \ub3d9\uc791\uad6c \ub9cc\uc591\ub85c2\uae38 2", "website": "http://place.map.daum.net/8221289", "source": "\uc0c1\ub3c4\ub3d9 - \uc7a5\uc2b9\ubc30\uae30\uc5ed - \ub2e4\ub798\uc2dd\ub2f9"}}
  ,{"type": "Feature", "geometry": {"type": "Point", "coordinates": [126.986234726351, 37.5738909358415]}, "properties": {"name": "\ud48d\ub958\uc0ac\ub791", "address": "\uc11c\uc6b8 \uc885\ub85c\uad6c \uc778\uc0ac\ub3d98\uae38 12-7", "website": "http://place.map.daum.net/19909505", "source": "\uad00\ud6c8\ub3d9 - \uc885\uac01\uc5ed - \ud48d\ub958\uc0ac\ub791"}}
  ,{"type": "Feature", "geometry": {"type": "Point", "coordinates": [127.03721931212, 37.5167264852802]}, "properties": {"name": "\uace0\ud5a5\uc9d1", "address": "\uc11c\uc6b8 \uac15\ub0a8\uad6c \uc5b8\uc8fc\ub85c134\uae38 20", "website": "http://place.map.daum.net/8188651", "source": "\ub17c\ud604\ub3d9 - \uac15\ub0a8\uad6c\uccad\uc5ed - \uace0\ud5a5\uc9d1"}}
  ,{"type": "Feature", "geometry": {"type": "Point", "coordinates": [126.99893171716084, 37.57008318697087]}, "properties": {"name": "\ub300\ub3d9\uc2dd\ub2f9", "address": "\uc11c\uc6b8 \uc885\ub85c\uad6c \ucc3d\uacbd\uad81\ub85c 88", "website": "http://place.map.daum.net/17079039", "source": "\uc608\uc9c0\ub3d9 - \uc885\ub85c 5\uac00\uc5ed - \ub300\ub3d9\uc2dd\ub2f9"}}
  ,{"type": "Feature", "geometry": {"type": "Point", "coordinates": [126.97428584494, 37.5720184723523]}, "properties": {"name": "\uc194\ubaa8\ub791\uae61\uc7a5\uc9d1", "address": "\uc11c\uc6b8 \uc885\ub85c\uad6c \uc0c8\ubb38\uc548\ub85c5\uae38 19", "website": "http://place.map.daum.net/16556358", "source": "\ub2f9\uc8fc\ub3d9 - \uad11\ud654\ubb38\uc5ed - \uae61\uc7a5\uc9d1"}}
  ,{"type": "Feature", "geometry": {"type": "Point", "coordinates": [126.929216731157, 37.5842896107683]}, "properties": {"name": "\ud55c\uad6d\ud68c\uad00", "address": "\uc11c\uc6b8 \uc11c\ub300\ubb38\uad6c \ubc31\ub828\uc0ac\uae38 130", "website": "http://place.map.daum.net/8648916", "source": "\ud64d\uc740\ub3d9 - \ud64d\uc81c\uc5ed, \uc0c8\uc808\uc5ed - \ud55c\uad6d\ud68c\uad00"}}
  ,{"type": "Feature", "geometry": {"type": "Point", "coordinates": [127.017903497817, 37.5153794870342]}, "properties": {"name": "\uc804\uc8fc\uccad\uad6d\uc7a5", "address": "\uc11c\uc6b8 \uc11c\ucd08\uad6c \ub098\ub8e8\ud130\ub85c 70", "website": "http://place.map.daum.net/8064587", "source": "\uc7a0\uc6d0\ub3d9 - \uc2e0\uc0ac\uc5ed - \uc804\uc8fc\uccad\uad6d\uc7a5"}}
  ,{"type": "Feature", "geometry": {"type": "Point", "coordinates": [127.061962030812, 37.513962629859]}, "properties": {"name": "\uc131\ubd81\ub3d9", "address": "\uc11c\uc6b8 \uac15\ub0a8\uad6c \ubd09\uc740\uc0ac\ub85c104\uae38 6", "website": "http://place.map.daum.net/16084885", "source": "\uc0bc\uc131\ub3d9 - \uc0bc\uc131\uc5ed - \uc131\ubd81\ub3d9\uccad\uad6d\uc7a5"}}
  ,{"type": "Feature", "geometry": {"type": "Point", "coordinates": [127.024400711424, 37.5015208695042]}, "properties": {"name": "\uc2dc\uace8\uc57c\ucc44\ub41c\uc7a5\uc804\ubb38\uc810", "address": "\uc11c\uc6b8 \uc11c\ucd08\uad6c \uac15\ub0a8\ub300\ub85c69\uae38 11", "website": "http://place.map.daum.net/8409103", "source": "\uc11c\ucd08\ub3d9 - \uac15\ub0a8\uc5ed - \uc2dc\uace8\uc57c\ucc44\ub41c\uc7a5"}}
  ,{"type": "Feature", "geometry": {"type": "Point", "coordinates": [127.017188277021, 37.4941302822048]}, "properties": {"name": "\ub9c8\uc74c\uc740\ucf69\ubc2d\uc5d0 \uad50\ub300\ubcf8\uc810", "address": "\uc11c\uc6b8 \uc11c\ucd08\uad6c \uc11c\ucd08\ub300\ub85c56\uae38 9", "website": "http://place.map.daum.net/13726961", "source": "\uc11c\ucd08\ub3d9 - \uad50\ub300\uc5ed - \ub9c8\uc74c\uc740\ucf69\ubc2d\uc5d0"}}
  ,{"type": "Feature", "geometry": {"type": "Point", "coordinates": [127.055863129477, 37.5200672668671]}, "properties": {"name": "\uccad\uad6d\uc7a5\uacfc\ubcf4\ub9ac\ubc25 \uccad\ub2f4\uc810", "address": "\uc11c\uc6b8 \uac15\ub0a8\uad6c \ud559\ub3d9\ub85c 521", "website": "http://place.map.daum.net/12657535", "source": "\uccad\ub2f4\ub3d9 - \uccad\ub2f4\uc5ed - \uccad\uad6d\uc7a5\uacfc \ubcf4\ub9ac\ubc25"}}
  ,{"type": "Feature", "geometry": {"type": "Point", "coordinates": [127.098024588236, 37.5057859203678]}, "properties": {"name": "\uc0ac\uacc4\uc9c4\ubbf8 \uc7a0\uc2e4\uc11d\ucd0c\uc810", "address": "\uc11c\uc6b8 \uc1a1\ud30c\uad6c \uc1a1\ud30c\ub300\ub85c49\uae38 63", "website": "http://place.map.daum.net/19927945", "source": "\uc11d\ucd0c\ub3d9 - \uc11d\ucd0c\uc5ed - \uc0ac\uacc4\uc9c4\ubbf8"}}
  ,{"type": "Feature", "geometry": {"type": "Point", "coordinates": [126.974357568202, 37.5344937250377]}, "properties": {"name": "\uace8\ubaa9\uc2dd\ub2f9", "address": "\uc11c\uc6b8 \uc6a9\uc0b0\uad6c \ud55c\uac15\ub300\ub85c62\uac00\uae38 8-6", "website": "http://place.map.daum.net/16533470", "source": "\ud55c\uac15\ub85c1\uac00 - \uc0bc\uac01\uc9c0\uc5ed - \uace8\ubaa9\uc2dd\ub2f9"}}
  ,{"type": "Feature", "geometry": {"type": "Point", "coordinates": [127.064467531634, 37.5075028898723]}, "properties": {"name": "\ud64d\uc601\uc7ac\uc7a5\uc218\uccad\uad6d\uc7a5 \uc0bc\uc131\uc810", "address": "\uc11c\uc6b8 \uac15\ub0a8\uad6c \uc601\ub3d9\ub300\ub85c 424", "website": "http://place.map.daum.net/19838635", "source": "\ub300\uce58\ub3d9 - \uc0bc\uc131\uc5ed - \ud64d\uc601\uc7ac\uc7a5\uc218\uccad\uad6d\uc7a5"}}
  ,{"type": "Feature", "geometry": {"type": "Point", "coordinates": [127.008386045188, 37.5343448430584]}, "properties": {"name": "\ud5a5\uae30\uace0\uc744", "address": "\uc11c\uc6b8 \uc6a9\uc0b0\uad6c \ud55c\ub0a8\ub300\ub85c18\uae38 18", "website": "http://place.map.daum.net/11366095", "source": "\ud55c\ub0a8\ub3d9 - \ud55c\ub0a8\uc5ed - \ud5a5\uae30\uace0\uc744"}}
  ,{"type": "Feature", "geometry": {"type": "Point", "coordinates": [127.04459781805, 37.4844426880382]}, "properties": {"name": "\uac15\ub0a8\uc6d0\uc870\uccad\uad6d\uc7a5\uc9d1", "address": "\uc11c\uc6b8 \uac15\ub0a8\uad6c \ub17c\ud604\ub85c30\uae38 36", "website": "http://place.map.daum.net/17350428", "source": "\ub3c4\uace1\ub3d9 - \ub9e4\ubd09\uc5ed - \uac15\ub0a8\uc6d0\uc870\uccad\uad6d\uc7a5\uc9d1"}}
  ,{"type": "Feature", "geometry": {"type": "Point", "coordinates": [127.112605570286, 37.5301072078442]}, "properties": {"name": "\ud1a0\ubc29", "address": "\uc11c\uc6b8 \uc1a1\ud30c\uad6c \ud1a0\uc131\ub85c6\uae38 7", "website": "http://place.map.daum.net/8107896", "source": "\ud48d\ub0a9\ub3d9 - \uac15\ub3d9\uad6c\uccad\uc5ed - \ud1a0\ubc29"}}
  ,{"type": "Feature", "geometry": {"type": "Point", "coordinates": [126.856300285659, 37.5584693393784]}, "properties": {"name": "\ucf69\ub450", "address": "\uc11c\uc6b8 \uac15\uc11c\uad6c \ud654\uace1\ub85c68\uae38 36", "website": "http://place.map.daum.net/16880153", "source": "\ub4f1\ucd0c\ub3d9 - \uc99d\ubbf8\uc5ed - \ucf69\ub450"}}
  ,{"type": "Feature", "geometry": {"type": "Point", "coordinates": [126.942166386236, 37.5463575255009]}, "properties": {"name": "\uc9c0\uc5ec\uc0ac\uccad\uad6d\uc7a5 \uc0dd\uc0bc\uacb9\uc0b4", "address": "\uc11c\uc6b8 \ub9c8\ud3ec\uad6c \ub3c5\ub9c9\ub85c 257", "website": "http://place.map.daum.net/10778661", "source": "\ub300\ud765\ub3d9 - \ub300\ud765\uc5ed - \uc9c0\uc5ec\uc0ac\uccad\uad6d\uc7a5"}}
  ,{"type": "Feature", "geometry": {"type": "Point", "coordinates": [127.110944719476, 37.5514696746701]}, "properties": {"name": "\ucf69\uc608\uc6d0", "address": "\uc11c\uc6b8 \uad11\uc9c4\uad6c \uc544\ucc28\uc0b0\ub85c78\uae38 75", "website": "http://place.map.daum.net/19305916", "source": "\uad11\uc7a5\ub3d9 - \uad11\ub098\ub8e8\uc5ed - \ucf69\uc608\uc6d0"}}
  ,{"type": "Feature", "geometry": {"type": "Point", "coordinates": [126.863318631004, 37.5255155239472]}, "properties": {"name": "\uc625\ucc9c\uc9d1", "address": "\uc11c\uc6b8 \uc591\ucc9c\uad6c \ubaa9\ub3d9\ub85c21\uae38 4", "website": "http://place.map.daum.net/16906132", "source": "\ubaa9\ub3d9 - \ubaa9\ub3d9\uc5ed - \uc625\ucc9c\uc9d1"}}
  ,{"type": "Feature", "geometry": {"type": "Point", "coordinates": [127.01958803579, 37.5899890665476]}, "properties": {"name": "\uc2e0\uc2e0\uc2dd\ub2f9", "address": "\uc11c\uc6b8 \uc131\ubd81\uad6c \ubcf4\ubb38\ub85c30\ub77c\uae38 3", "website": "http://place.map.daum.net/11119296", "source": "\ub3d9\uc120\ub3d9 - \uc131\uc2e0\uc5ec\ub300\uc785\uad6c\uc5ed - \uc2e0\uc2e0\uc2dd\ub2f9"}}
  ,{"type": "Feature", "geometry": {"type": "Point", "coordinates": [126.857079588777, 37.5249387058067]}, "properties": {"name": "\ubd80\ub69c\ub9c9\uccad\uad6d\uc7a5", "address": "\uc11c\uc6b8 \uc591\ucc9c\uad6c \uc624\ubaa9\ub85c 176", "website": "http://place.map.daum.net/13287336", "source": "\uc2e0\uc815\ub3d9 - \uc2e0\uc815\uc5ed - \ubd80\ub69c\ub9c9\uccad\uad6d\uc7a5"}}
  ,{"type": "Feature", "geometry": {"type": "Point", "coordinates": [126.95797465069525, 37.48607986216044]}, "properties": {"name": "\uccad\uad6d\uc7a5\uacfc\ubcf4\ub9ac\ubc25 \ubd09\ucc9c\uc810", "address": "\uc11c\uc6b8 \uad00\uc545\uad6c \uad00\uc545\ub85c24\uae38 80", "website": "http://place.map.daum.net/12661709", "source": "\uc2e0\uc6d0\ub3d9 - \uccad\uacc4\uc0b0\uc785\uad6c\uc5ed - \uccad\uad6d\uc7a5\uacfc \ubcf4\ub9ac\ubc25"}}
  ,{"type": "Feature", "geometry": {"type": "Point", "coordinates": [127.089910459413, 37.5072916470656]}, "properties": {"name": "\ubd80\uc77c\uac08\ub9e4\uae30", "address": "\uc11c\uc6b8 \uc1a1\ud30c\uad6c \uc0bc\uc804\ub85c13\uae38 4", "website": "http://place.map.daum.net/27303080", "source": "\uc7a0\uc2e4\ub3d9 - \uc2e0\ucc9c\uc5ed - \ubd80\uc77c\uac08\ub9e4\uae30"}}
  ,{"type": "Feature", "geometry": {"type": "Point", "coordinates": [127.057673704422, 37.5209205473621]}, "properties": {"name": "\uc0bc\uc131\uc6d0\uc870\uc591\uacf1\ucc3d", "address": "\uc11c\uc6b8 \uac15\ub0a8\uad6c \ud559\ub3d9\ub85c101\uae38 7", "website": "http://place.map.daum.net/16037716", "source": "\uccad\ub2f4\ub3d9 - \uccad\ub2f4\uc5ed - \uc0bc\uc131\uc6d0\uc870\uc591\uacf1\ucc3d"}}
  ,{"type": "Feature", "geometry": {"type": "Point", "coordinates": [127.000126722915, 37.5369904787104]}, "properties": {"name": "\ub098\ub9ac\uc758\uc9d1", "address": "\uc11c\uc6b8 \uc6a9\uc0b0\uad6c \uc774\ud0dc\uc6d0\ub85c 245", "website": "http://place.map.daum.net/8194939", "source": "\ud55c\ub0a8\ub3d9 - \ud55c\uac15\uc9c4\uc5ed - \ub098\ub9ac\uc758 \uc9d1"}}
  ,{"type": "Feature", "geometry": {"type": "Point", "coordinates": [127.03672338537153, 37.52035588157126]}, "properties": {"name": "\uc655\uc18c\uae08\uad6c\uc774", "address": "", "website": "http://place.map.daum.net/16473181", "source": "\ub17c\ud604\ub3d9 - \uac15\ub0a8\uad6c\uccad\uc5ed \u2013 \uc655\uc18c\uae08\uad6c\uc774"}}
]}
