{
 "type": "FeatureCollection",
 "features": [
  {
   "type": "Feature",
   "geometry": {
    "type": "Point",
    "coordinates": [
     126.841213506496,
     37.5638848207371
    ]
   },
   "properties": {
    "pid": "15762437",
    "name": "인생역전포장마차",
    "phone": "02-3663-2442",
    "source": "등촌동 - 양천향교역 - 인생역전포장마차",
    "address": "서울 강서구 강서로56가길 96",
    "website": "http://place.map.daum.net/15762437",
    "category": "칼국수"
   }
  },
  {
   "type": "Feature",
   "geometry": {
    "type": "Point",
    "coordinates": [
     126.80915761051,
     37.5609721909822
    ]
   },
   "properties": {
    "pid": "8228599",
    "name": "공항칼국수",
    "phone": "02-2664-9748",
    "source": "공항동 - 송정역 - 공항칼국수",
    "address": "서울 강서구 공항대로 18-1",
    "website": "http://place.map.daum.net/8228599",
    "category": "칼국수"
   }
  },
  {
   "type": "Feature",
   "geometry": {
    "type": "Point",
    "coordinates": [
     126.840567151261,
     37.5676320895462
    ]
   },
   "properties": {
    "pid": "531232718",
    "name": "종로할머니칼국수 양천향교점",
    "phone": "02-2668-6233",
    "source": "공항동 - 송정역 - 할머니칼국수",
    "address": "서울 강서구 강서로 471",
    "website": "http://place.map.daum.net/531232718",
    "category": "칼국수"
   }
  },
  {
   "type": "Feature",
   "geometry": {
    "type": "Point",
    "coordinates": [
     126.856725991647,
     37.5560227498587
    ]
   },
   "properties": {
    "pid": "16044160",
    "name": "등촌칼국수",
    "phone": "02-3661-2744",
    "source": "등촌동 - 등촌역 - 최월선칼국수",
    "address": "서울 강서구 화곡로64길 68",
    "website": "http://place.map.daum.net/16044160",
    "category": "칼국수"
   }
  },
  {
   "type": "Feature",
   "geometry": {
    "type": "Point",
    "coordinates": [
     126.840360768101,
     37.5625033455974
    ]
   },
   "properties": {
    "pid": "24997591",
    "name": "등촌샤브칼국수 등촌점",
    "phone": "02-2659-9318",
    "source": "등촌동 - 등촌역 - 등촌샤브칼국수",
    "address": "서울 강서구 강서로56가길 65",
    "website": "http://place.map.daum.net/24997591",
    "category": "칼국수"
   }
  },
  {
   "type": "Feature",
   "geometry": {
    "type": "Point",
    "coordinates": [
     126.857574110223,
     37.5195008551119
    ]
   },
   "properties": {
    "pid": "8344070",
    "name": "살구나무집칼국수",
    "phone": "02-2652-9991",
    "source": "신정동 - 신정네거리역 - 살구나무집칼국수",
    "address": "서울 양천구 중앙로32길 35",
    "website": "http://place.map.daum.net/8344070",
    "category": "칼국수"
   }
  },
  {
   "type": "Feature",
   "geometry": {
    "type": "Point",
    "coordinates": [
     126.903837807898,
     37.5210324345031
    ]
   },
   "properties": {
    "pid": "12983266",
    "name": "서민준밀밭",
    "phone": "02-2634-6848",
    "source": "영등포동 - 영등포역 - 서민준밀밭",
    "address": "서울 영등포구 영신로40길 22-1",
    "website": "http://place.map.daum.net/12983266",
    "category": "칼국수"
   }
  },
  {
   "type": "Feature",
   "geometry": {
    "type": "Point",
    "coordinates": [
     126.93631472584934,
     37.55587626311185
    ]
   },
   "properties": {
    "pid": "12502450",
    "name": "신촌수제비",
    "phone": "02-334-9252",
    "source": "창천동 - 신촌역 - 신촌수제비",
    "address": "서울 서대문구 신촌로 87-8",
    "website": "http://place.map.daum.net/12502450",
    "category": "칼국수"
   }
  },
  {
   "type": "Feature",
   "geometry": {
    "type": "Point",
    "coordinates": [
     126.930748718394,
     37.5682239892832
    ]
   },
   "properties": {
    "pid": "8503628",
    "name": "연희동칼국수 본점",
    "phone": "02-333-3955",
    "source": "연희동 - 홍대입구역 - 연희동칼국수",
    "address": "서울 서대문구 연희맛로 37",
    "website": "http://place.map.daum.net/8503628",
    "category": "칼국수"
   }
  },
  {
   "type": "Feature",
   "geometry": {
    "type": "Point",
    "coordinates": [
     126.923192501887,
     37.5588922025068
    ]
   },
   "properties": {
    "pid": "18276450",
    "name": "홍대밀방",
    "phone": "02-322-7713",
    "source": "동교동 - 홍대입구역 - 홍대밀방",
    "address": "서울 마포구 동교로 209-1",
    "website": "http://place.map.daum.net/18276450",
    "category": "칼국수"
   }
  },
  {
   "type": "Feature",
   "geometry": {
    "type": "Point",
    "coordinates": [
     126.928613450585,
     37.5568377271983
    ]
   },
   "properties": {
    "pid": "19010954",
    "name": "탐스칼국수",
    "phone": "02-336-6830",
    "source": "동교동 - 홍대입구역 - 탐스칼국수",
    "address": "서울 마포구 와우산로37길 46",
    "website": "http://place.map.daum.net/19010954",
    "category": "칼국수"
   }
  },
  {
   "type": "Feature",
   "geometry": {
    "type": "Point",
    "coordinates": [
     126.923547406309,
     37.5527115908037
    ]
   },
   "properties": {
    "pid": "10278424",
    "name": "다락투",
    "phone": "02-336-2918",
    "source": "서교동 - 홍대입구역 - 다락투",
    "address": "서울 마포구 와우산로21길 4-3",
    "website": "http://place.map.daum.net/10278424",
    "category": "칼국수"
   }
  },
  {
   "type": "Feature",
   "geometry": {
    "type": "Point",
    "coordinates": [
     126.920242372708,
     37.5531743194397
    ]
   },
   "properties": {
    "pid": "13280112",
    "name": "두리반",
    "phone": "02-333-4113",
    "source": "서교동 - 홍대입구역 - 두리반",
    "address": "서울 마포구 홍익로5길 45",
    "website": "http://place.map.daum.net/13280112",
    "category": "칼국수"
   }
  },
  {
   "type": "Feature",
   "geometry": {
    "type": "Point",
    "coordinates": [
     126.906273443554,
     37.5561805968254
    ]
   },
   "properties": {
    "pid": "18856246",
    "name": "홍두깨손칼국수",
    "phone": "02-6012-7139",
    "source": "망원동 - 망원역 - 홍두깨손칼국수",
    "address": "서울 마포구 망원로8길 29",
    "website": "http://place.map.daum.net/18856246",
    "category": "칼국수"
   }
  },
  {
   "type": "Feature",
   "geometry": {
    "type": "Point",
    "coordinates": [
     126.906042391475,
     37.5563209687521
    ]
   },
   "properties": {
    "pid": "20809731",
    "name": "부산대원어묵",
    "phone": "02-373-4181",
    "source": "상수동 - 상수역 - 대원분식",
    "address": "서울 마포구 망원로8길 26",
    "website": "http://place.map.daum.net/20809731",
    "category": "칼국수"
   }
  },
  {
   "type": "Feature",
   "geometry": {
    "type": "Point",
    "coordinates": [
     127.034918484777,
     37.5602491013571
    ]
   },
   "properties": {
    "pid": "12435138",
    "name": "일품백송칼국수&설렁탕",
    "phone": "02-466-2090",
    "source": "행당동 - 왕십리역 - 일품백송칼국수",
    "address": "서울 성동구 고산자로12길 1-1",
    "website": "http://place.map.daum.net/12435138",
    "category": "칼국수"
   }
  },
  {
   "type": "Feature",
   "geometry": {
    "type": "Point",
    "coordinates": [
     126.976960192857,
     37.5627171439093
    ]
   },
   "properties": {
    "pid": "8672604",
    "name": "현대칼국수",
    "phone": "02-752-9504",
    "source": "북창동 - 시청역 - 현대칼국수",
    "address": "서울 중구 세종대로 76",
    "website": "http://place.map.daum.net/8672604",
    "category": "칼국수"
   }
  },
  {
   "type": "Feature",
   "geometry": {
    "type": "Point",
    "coordinates": [
     126.969913535501,
     37.56784763233
    ]
   },
   "properties": {
    "pid": "10722343",
    "name": "정동국시",
    "phone": "02-732-0114",
    "source": "정동 - 시청역 - 정동국시",
    "address": "서울 중구 정동길 5",
    "website": "http://place.map.daum.net/10722343",
    "category": "칼국수"
   }
  },
  {
   "type": "Feature",
   "geometry": {
    "type": "Point",
    "coordinates": [
     126.986084505317,
     37.5781652360883
    ]
   },
   "properties": {
    "pid": "19158798",
    "name": "깡통만두",
    "phone": "02-794-4243",
    "source": "재동 - 안국역 - 깡통만두",
    "address": "서울 종로구 북촌로2길 5-6",
    "website": "http://place.map.daum.net/19158798",
    "category": "칼국수"
   }
  },
  {
   "type": "Feature",
   "geometry": {
    "type": "Point",
    "coordinates": [
     126.980650042812,
     37.5800637657585
    ]
   },
   "properties": {
    "pid": "7904353",
    "name": "황생가칼국수",
    "phone": "02-739-6334",
    "source": "소격동 - 안국역 - 북촌칼국수",
    "address": "서울 종로구 북촌로5길 78",
    "website": "http://place.map.daum.net/7904353",
    "category": "칼국수"
   }
  },
  {
   "type": "Feature",
   "geometry": {
    "type": "Point",
    "coordinates": [
     126.988787755179,
     37.579171033198
    ]
   },
   "properties": {
    "pid": "7914791",
    "name": "비원손칼국수",
    "phone": "02-744-4848",
    "source": "삼청동 - 안국역 - 비원손칼국수",
    "address": "서울 종로구 창덕궁1길 9-1",
    "website": "http://place.map.daum.net/7914791",
    "category": "칼국수"
   }
  },
  {
   "type": "Feature",
   "geometry": {
    "type": "Point",
    "coordinates": [
     126.981879982652,
     37.5874557100085
    ]
   },
   "properties": {
    "pid": "8193918",
    "name": "눈나무집",
    "phone": "02-739-6742",
    "source": "삼청동 - 안국역 - 눈나무집",
    "address": "서울 종로구 삼청로 136-1",
    "website": "http://place.map.daum.net/8193918",
    "category": "칼국수"
   }
  },
  {
   "type": "Feature",
   "geometry": {
    "type": "Point",
    "coordinates": [
     127.006565345588,
     37.5701578320896
    ]
   },
   "properties": {
    "pid": "24048796",
    "name": "어머니국시방",
    "phone": "02-2272-9414",
    "source": "종로 6가 - 동대문역 - 어머니국시방",
    "address": "서울 종로구 종로40길 18",
    "website": "http://place.map.daum.net/24048796",
    "category": "칼국수"
   }
  },
  {
   "type": "Feature",
   "geometry": {
    "type": "Point",
    "coordinates": [
     126.99078543354089,
     37.57283901671218
    ]
   },
   "properties": {
    "pid": "8034231",
    "name": "종로할머니칼국수 종로본점",
    "phone": "02-3482-1991",
    "source": "돈의동 - 종로 3가역 - 할머니 손칼국수",
    "address": "서울 종로구 돈화문로11다길 14-2",
    "website": "http://place.map.daum.net/8034231",
    "category": "칼국수"
   }
  },
  {
   "type": "Feature",
   "geometry": {
    "type": "Point",
    "coordinates": [
     126.990255773693,
     37.5728281622421
    ]
   },
   "properties": {
    "pid": "12990437",
    "name": "찬양집",
    "phone": "02-743-1384",
    "source": "돈의동 - 종로 3가역 - 찬양집",
    "address": "서울 종로구 돈화문로11다길 5",
    "website": "http://place.map.daum.net/12990437",
    "category": "칼국수"
   }
  },
  {
   "type": "Feature",
   "geometry": {
    "type": "Point",
    "coordinates": [
     126.988925202169,
     37.5683951479388
    ]
   },
   "properties": {
    "pid": "7818113",
    "name": "대련집",
    "phone": "02-2265-5349",
    "source": "관수동 - 종로 3가역 - 대련집",
    "address": "서울 종로구 종로16길 37",
    "website": "http://place.map.daum.net/7818113",
    "category": "칼국수"
   }
  },
  {
   "type": "Feature",
   "geometry": {
    "type": "Point",
    "coordinates": [
     127.00150300181788,
     37.586579253942794
    ]
   },
   "properties": {
    "pid": "8176347",
    "name": "혜화칼국수",
    "phone": "02-743-8212",
    "source": "혜화동 - 혜화역 - 혜화칼국수",
    "address": "서울 종로구 창경궁로35길 13",
    "website": "http://place.map.daum.net/8176347",
    "category": "칼국수"
   }
  },
  {
   "type": "Feature",
   "geometry": {
    "type": "Point",
    "coordinates": [
     127.00069291,
     37.5866534131917
    ]
   },
   "properties": {
    "pid": "8455257",
    "name": "손칼국수",
    "phone": "02-764-7947",
    "source": "혜화동 - 혜화역 - 손칼국수",
    "address": "서울 종로구 혜화로 10-5",
    "website": "http://place.map.daum.net/8455257",
    "category": "칼국수"
   }
  },
  {
   "type": "Feature",
   "geometry": {
    "type": "Point",
    "coordinates": [
     126.998876810066,
     37.5894284672688
    ]
   },
   "properties": {
    "pid": "7870740",
    "name": "명륜손칼국수",
    "phone": "02-742-8662",
    "source": "명륜동 - 혜화역 - 명륜손칼국수",
    "address": "서울 종로구 혜화로 45-5",
    "website": "http://place.map.daum.net/7870740",
    "category": "칼국수"
   }
  },
  {
   "type": "Feature",
   "geometry": {
    "type": "Point",
    "coordinates": [
     127.05983066877495,
     37.654978155067404
    ]
   },
   "properties": {
    "pid": "8015984",
    "name": "옛날칼국수",
    "phone": "02-939-6169",
    "source": "상계동 - 노원역 - 옛날칼국수",
    "address": "서울 노원구 동일로 1417",
    "website": "http://place.map.daum.net/8015984",
    "category": "칼국수"
   }
  },
  {
   "type": "Feature",
   "geometry": {
    "type": "Point",
    "coordinates": [
     126.993668016243,
     37.5947801954622
    ]
   },
   "properties": {
    "pid": "7948105",
    "name": "성북동집",
    "phone": "02-747-6234",
    "source": "성북동 - 한성대입구역 - 성북동집",
    "address": "서울 성북구 성북로 144",
    "website": "http://place.map.daum.net/7948105",
    "category": "칼국수"
   }
  },
  {
   "type": "Feature",
   "geometry": {
    "type": "Point",
    "coordinates": [
     127.000357808096,
     37.5931369558097
    ]
   },
   "properties": {
    "pid": "10567486",
    "name": "손가네곰국수설렁탕",
    "phone": "02-743-8937",
    "source": "성북동 - 한성대입구역 - 손가네",
    "address": "서울 성북구 성북로15길 8",
    "website": "http://place.map.daum.net/10567486",
    "category": "칼국수"
   }
  },
  {
   "type": "Feature",
   "geometry": {
    "type": "Point",
    "coordinates": [
     127.004307013755,
     37.5884336982898
    ]
   },
   "properties": {
    "pid": "8200924",
    "name": "국시집",
    "phone": "02-762-1924",
    "source": "성북동 - 한성대입구역 - 국시집",
    "address": "서울 성북구 창경궁로43길 9",
    "website": "http://place.map.daum.net/8200924",
    "category": "칼국수"
   }
  },
  {
   "type": "Feature",
   "geometry": {
    "type": "Point",
    "coordinates": [
     127.033844709797,
     37.5984479534463
    ]
   },
   "properties": {
    "pid": "26842209",
    "name": "최고의집칼국수 종암점",
    "phone": "02-747-2704",
    "source": "성북동 - 한성대입구역 - 최고의집칼국수",
    "address": "서울 성북구 종암로19길 16",
    "website": "http://place.map.daum.net/26842209",
    "category": "칼국수"
   }
  },
  {
   "type": "Feature",
   "geometry": {
    "type": "Point",
    "coordinates": [
     126.99899433456173,
     37.59293220197705
    ]
   },
   "properties": {
    "pid": "12042957",
    "name": "손국수",
    "phone": "02-743-5640",
    "source": "성북동 - 한성대입구역 - 손국수",
    "address": "서울 성북구 성북로 89",
    "website": "http://place.map.daum.net/12042957",
    "category": "칼국수"
   }
  },
  {
   "type": "Feature",
   "geometry": {
    "type": "Point",
    "coordinates": [
     127.010722032742,
     37.6027374309408
    ]
   },
   "properties": {
    "pid": "10380858",
    "name": "봉화묵집",
    "phone": "02-918-1668",
    "source": "정릉동 - 길음역 - 봉화묵집",
    "address": "서울 성북구 아리랑로19길 46-2",
    "website": "http://place.map.daum.net/10380858",
    "category": "칼국수"
   }
  },
  {
   "type": "Feature",
   "geometry": {
    "type": "Point",
    "coordinates": [
     127.041985697035,
     37.6653885890849
    ]
   },
   "properties": {
    "pid": "16763473",
    "name": "뚝배기손칼국수",
    "phone": "02-3492-8502",
    "source": "방학동 - 방학역 - 뚝배기 칼국수",
    "address": "서울 도봉구 도봉로 683",
    "website": "http://place.map.daum.net/16763473",
    "category": "칼국수"
   }
  },
  {
   "type": "Feature",
   "geometry": {
    "type": "Point",
    "coordinates": [
     127.020654460905,
     37.6630985535692
    ]
   },
   "properties": {
    "pid": "14714026",
    "name": "최고집칼국수",
    "phone": "02-955-7072",
    "source": "방학동 - 쌍문역 - 최고집 칼국수",
    "address": "서울 도봉구 방학로 286",
    "website": "http://place.map.daum.net/14714026",
    "category": "칼국수"
   }
  },
  {
   "type": "Feature",
   "geometry": {
    "type": "Point",
    "coordinates": [
     127.077719296359,
     37.6564471384239
    ]
   },
   "properties": {
    "pid": "10841140",
    "name": "최고집칼국수 중계점",
    "phone": "02-936-9553",
    "source": "상계동 - 노원역 - 최고집 칼국수",
    "address": "서울 노원구 한글비석로 325",
    "website": "http://place.map.daum.net/10841140",
    "category": "칼국수"
   }
  },
  {
   "type": "Feature",
   "geometry": {
    "type": "Point",
    "coordinates": [
     127.011810547121,
     37.6399949643071
    ]
   },
   "properties": {
    "pid": "16765409",
    "name": "엘림 들깨수제비칼국수",
    "phone": "02-996-2583",
    "source": "수유동 - 수유역 - 엘림",
    "address": "서울 강북구 삼각산로 67",
    "website": "http://place.map.daum.net/16765409",
    "category": "칼국수"
   }
  },
  {
   "type": "Feature",
   "geometry": {
    "type": "Point",
    "coordinates": [
     127.009853698531,
     37.6475742224039
    ]
   },
   "properties": {
    "pid": "11970526",
    "name": "예와손만두",
    "phone": "02-905-9659",
    "source": "수유동 - 수유역 - 예와손만두",
    "address": "서울 강북구 4.19로 40-8",
    "website": "http://place.map.daum.net/11970526",
    "category": "칼국수"
   }
  },
  {
   "type": "Feature",
   "geometry": {
    "type": "Point",
    "coordinates": [
     127.091834938825,
     37.589904511145
    ]
   },
   "properties": {
    "pid": "26817001",
    "name": "최고집홍두깨손칼국수",
    "phone": "02-494-8592",
    "source": "면목동 - 면목역 - 홍두깨손칼국수",
    "address": "서울 중랑구 상봉로11길 31",
    "website": "http://place.map.daum.net/26817001",
    "category": "칼국수"
   }
  },
  {
   "type": "Feature",
   "geometry": {
    "type": "Point",
    "coordinates": [
     126.931371623641,
     37.5209399181946
    ]
   },
   "properties": {
    "pid": "20746242",
    "name": "가양칼국수",
    "phone": "02-784-0409",
    "source": "여의도동 - 여의도역 - 가양칼국수",
    "address": "서울 영등포구 국제금융로 78",
    "website": "http://place.map.daum.net/20746242",
    "category": "칼국수"
   }
  },
  {
   "type": "Feature",
   "geometry": {
    "type": "Point",
    "coordinates": [
     126.926960229824,
     37.5205984955116
    ]
   },
   "properties": {
    "pid": "8094563",
    "name": "진주집",
    "phone": "02-780-6108",
    "source": "여의도동 - 여의도역 - 진주집",
    "address": "서울 영등포구 국제금융로6길 33",
    "website": "http://place.map.daum.net/8094563",
    "category": "칼국수"
   }
  },
  {
   "type": "Feature",
   "geometry": {
    "type": "Point",
    "coordinates": [
     126.96303431322,
     37.5070497791868
    ]
   },
   "properties": {
    "pid": "18751205",
    "name": "수목식당",
    "phone": "02-816-3556",
    "source": "흑석동 - 흑석역 - 수목식당",
    "address": "서울 동작구 서달로14나길 28",
    "website": "http://place.map.daum.net/18751205",
    "category": "칼국수"
   }
  },
  {
   "type": "Feature",
   "geometry": {
    "type": "Point",
    "coordinates": [
     126.970324359239,
     37.5366119339674
    ]
   },
   "properties": {
    "pid": "24188406",
    "name": "문배동육칼 본점",
    "phone": "02-713-6204",
    "source": "문배동 - 삼각지역 - 육칼",
    "address": "서울 용산구 백범로90길 50",
    "website": "http://place.map.daum.net/24188406",
    "category": "칼국수"
   }
  },
  {
   "type": "Feature",
   "geometry": {
    "type": "Point",
    "coordinates": [
     126.989577531899,
     37.5334580959702
    ]
   },
   "properties": {
    "pid": "17398983",
    "name": "중심",
    "phone": "02-2235-0707",
    "source": "이태원동 - 녹사평역 - 중심",
    "address": "서울 용산구 녹사평대로32길 14",
    "website": "http://place.map.daum.net/17398983",
    "category": "칼국수"
   }
  },
  {
   "type": "Feature",
   "geometry": {
    "type": "Point",
    "coordinates": [
     126.989989358086,
     37.5334869636295
    ]
   },
   "properties": {
    "pid": "26825806",
    "name": "옛날국시",
    "phone": "02-798-7997",
    "source": "이태원동 - 녹사평역 - 옛날국시",
    "address": "서울 용산구 녹사평대로32길 20-1",
    "website": "http://place.map.daum.net/26825806",
    "category": "칼국수"
   }
  },
  {
   "type": "Feature",
   "geometry": {
    "type": "Point",
    "coordinates": [
     126.971371825147,
     37.5313611593014
    ]
   },
   "properties": {
    "pid": "11162581",
    "name": "정성손칼국수",
    "phone": "02-793-9898",
    "source": "한강로2가 - 삼각지역 - 정성손칼국수",
    "address": "서울 용산구 한강대로48길 18",
    "website": "http://place.map.daum.net/11162581",
    "category": "칼국수"
   }
  },
  {
   "type": "Feature",
   "geometry": {
    "type": "Point",
    "coordinates": [
     127.010624297244,
     37.5525052084358
    ]
   },
   "properties": {
    "pid": "19926635",
    "name": "옛날홍두깨손칼국수",
    "phone": "02-2231-1458",
    "source": "약수동 - 약수역 - 홍두깨손칼국수",
    "address": "서울 중구 동호로7길 32",
    "website": "http://place.map.daum.net/19926635",
    "category": "칼국수"
   }
  },
  {
   "type": "Feature",
   "geometry": {
    "type": "Point",
    "coordinates": [
     126.991339069107,
     37.5632704841469
    ]
   },
   "properties": {
    "pid": "7919722",
    "name": "사랑방칼국수",
    "phone": "02-2272-2020",
    "source": "약수동 - 약수역 - 사랑방칼국수",
    "address": "서울 중구 퇴계로27길 46",
    "website": "http://place.map.daum.net/7919722",
    "category": "칼국수"
   }
  },
  {
   "type": "Feature",
   "geometry": {
    "type": "Point",
    "coordinates": [
     126.997124701171,
     37.5735457213391
    ]
   },
   "properties": {
    "pid": "8096350",
    "name": "충무칼국수",
    "phone": "02-743-1966",
    "source": "충무로4가 - 충무로역 - 충무칼국수",
    "address": "서울 종로구 창경궁로 123-5",
    "website": "http://place.map.daum.net/8096350",
    "category": "칼국수"
   }
  },
  {
   "type": "Feature",
   "geometry": {
    "type": "Point",
    "coordinates": [
     127.00311076152309,
     37.56539806460469
    ]
   },
   "properties": {
    "pid": "27008892",
    "name": "장칼국수보쌈",
    "phone": "02-2276-1751",
    "source": "오장동 - 을지로 4가역 - 장칼국수 보쌈",
    "address": "서울 중구 동호로34길 9",
    "website": "http://place.map.daum.net/27008892",
    "category": "칼국수"
   }
  },
  {
   "type": "Feature",
   "geometry": {
    "type": "Point",
    "coordinates": [
     126.974374820294,
     37.550203558256
    ]
   },
   "properties": {
    "pid": "9963594",
    "name": "충무칼국수",
    "phone": "02-754-1123",
    "source": "후암동 - 서울역 - 충무칼국수",
    "address": "서울 용산구 한강대로104길 38",
    "website": "http://place.map.daum.net/9963594",
    "category": "칼국수"
   }
  },
  {
   "type": "Feature",
   "geometry": {
    "type": "Point",
    "coordinates": [
     127.048986166936,
     37.5834249034698
    ]
   },
   "properties": {
    "pid": "16937330",
    "name": "혜성칼국수",
    "phone": "02-967-6918",
    "source": "청량리동 - 청량리역 - 혜성칼국수",
    "address": "서울 동대문구 왕산로 247-1",
    "website": "http://place.map.daum.net/16937330",
    "category": "칼국수"
   }
  },
  {
   "type": "Feature",
   "geometry": {
    "type": "Point",
    "coordinates": [
     127.043213982409,
     37.5787311787894
    ]
   },
   "properties": {
    "pid": "11833610",
    "name": "경북손칼국수",
    "phone": "02-963-6962",
    "source": "전농동 - 청량리역 - 경북손 칼국수",
    "address": "서울 동대문구 답십리로 9",
    "website": "http://place.map.daum.net/11833610",
    "category": "칼국수"
   }
  },
  {
   "type": "Feature",
   "geometry": {
    "type": "Point",
    "coordinates": [
     126.977319160947,
     37.5584104484991
    ]
   },
   "properties": {
    "pid": "8140804",
    "name": "한순자손칼국수집",
    "phone": "02-777-9188",
    "source": "회현동 - 회현역 - 한순자손칼국수",
    "address": "서울 중구 남대문시장4길 39-1",
    "website": "http://place.map.daum.net/8140804",
    "category": "칼국수"
   }
  },
  {
   "type": "Feature",
   "geometry": {
    "type": "Point",
    "coordinates": [
     127.093194074917,
     37.5393683861297
    ]
   },
   "properties": {
    "pid": "13113794",
    "name": "민속손국시",
    "phone": "02-444-7833",
    "source": "구의동 - 강변역 - 민속손국시",
    "address": "서울 광진구 아차산로 458",
    "website": "http://place.map.daum.net/13113794",
    "category": "칼국수"
   }
  },
  {
   "type": "Feature",
   "geometry": {
    "type": "Point",
    "coordinates": [
     127.04467845747781,
     37.549559078220966
    ]
   },
   "properties": {
    "pid": "20746195",
    "name": "훼미리손칼국수보쌈",
    "phone": "02-463-5036",
    "source": "성수동 - 뚝섬역 - 훼미리 손칼국수",
    "address": "서울 성동구 왕십리로 134",
    "website": "http://place.map.daum.net/20746195",
    "category": "칼국수"
   }
  },
  {
   "type": "Feature",
   "geometry": {
    "type": "Point",
    "coordinates": [
     127.013409085903,
     37.4813004177124
    ]
   },
   "properties": {
    "pid": "16377791",
    "name": "목천집",
    "phone": "02-525-8418",
    "source": "서초동 - 남부터미널역 - 앵콜칼국수(목천집)",
    "address": "서울 서초구 효령로52길 69",
    "website": "http://place.map.daum.net/16377791",
    "category": "칼국수"
   }
  },
  {
   "type": "Feature",
   "geometry": {
    "type": "Point",
    "coordinates": [
     127.013775388394,
     37.4812102746748
    ]
   },
   "properties": {
    "pid": "7885551",
    "name": "백년옥 본관",
    "phone": "02-523-2860",
    "source": "서초동 - 남부터미널역 - 백년옥",
    "address": "서울 서초구 남부순환로 2407",
    "website": "http://place.map.daum.net/7885551",
    "category": "칼국수"
   }
  },
  {
   "type": "Feature",
   "geometry": {
    "type": "Point",
    "coordinates": [
     127.024192602551,
     37.5014596439074
    ]
   },
   "properties": {
    "pid": "11891754",
    "name": "강남교자",
    "phone": "02-536-4133",
    "source": "서초동 - 강남역 - 강남교자",
    "address": "서울 서초구 강남대로69길 11",
    "website": "http://place.map.daum.net/11891754",
    "category": "칼국수"
   }
  },
  {
   "type": "Feature",
   "geometry": {
    "type": "Point",
    "coordinates": [
     127.026427930618,
     37.5032575724334
    ]
   },
   "properties": {
    "pid": "15215614",
    "name": "대가",
    "phone": "02-567-2379",
    "source": "역삼동 - 신논현역 - 대가",
    "address": "서울 강남구 봉은사로4길 24",
    "website": "http://place.map.daum.net/15215614",
    "category": "칼국수"
   }
  },
  {
   "type": "Feature",
   "geometry": {
    "type": "Point",
    "coordinates": [
     127.032817780264,
     37.4981094238993
    ]
   },
   "properties": {
    "pid": "27204005",
    "name": "우밀가안동국시 역삼점",
    "phone": "02-554-1855",
    "source": "역삼동 - 강남역 - 우밀가",
    "address": "서울 강남구 테헤란로10길 21",
    "website": "http://place.map.daum.net/27204005",
    "category": "칼국수"
   }
  },
  {
   "type": "Feature",
   "geometry": {
    "type": "Point",
    "coordinates": [
     127.046044026883,
     37.5048553448885
    ]
   },
   "properties": {
    "pid": "8115170",
    "name": "가연",
    "phone": "02-566-6312",
    "source": "역삼동 - 선릉역 - 가연",
    "address": "서울 강남구 테헤란로51길 15",
    "website": "http://place.map.daum.net/8115170",
    "category": "칼국수"
   }
  },
  {
   "type": "Feature",
   "geometry": {
    "type": "Point",
    "coordinates": [
     127.063149499256,
     37.5003063708259
    ]
   },
   "properties": {
    "pid": "15103116",
    "name": "맛자랑",
    "phone": "02-555-8389",
    "source": "대치동 - 한티역 - 맛자랑",
    "address": "서울 강남구 도곡로87길 7",
    "website": "http://place.map.daum.net/15103116",
    "category": "칼국수"
   }
  },
  {
   "type": "Feature",
   "geometry": {
    "type": "Point",
    "coordinates": [
     126.956770841061,
     37.5501443656935
    ]
   },
   "properties": {
    "pid": "7987863",
    "name": "안동",
    "phone": "02-3272-6465",
    "source": "공덕동 - 에오게역 - 안동국시",
    "address": "서울 마포구 마포대로14가길 18-7",
    "website": "http://place.map.daum.net/7987863",
    "category": "칼국수"
   }
  },
  {
   "type": "Feature",
   "geometry": {
    "type": "Point",
    "coordinates": [
     126.905893382945,
     37.5740128044589
    ]
   },
   "properties": {
    "pid": "16413326",
    "name": "안동면가",
    "phone": "02-376-5415",
    "source": "신사동 - 압구정역 - 안동국시",
    "address": "서울 서대문구 수색로 127",
    "website": "http://place.map.daum.net/16413326",
    "category": "칼국수"
   }
  },
  {
   "type": "Feature",
   "geometry": {
    "type": "Point",
    "coordinates": [
     127.11120111017,
     37.5076951931438
    ]
   },
   "properties": {
    "pid": "11120330",
    "name": "안동국시 송파점",
    "phone": "02-417-6459",
    "source": "송파동 - 석촌역 - 안동국시",
    "address": "서울 송파구 백제고분로44길 3",
    "website": "http://place.map.daum.net/11120330",
    "category": "칼국수"
   }
  },
  {
   "type": "Feature",
   "geometry": {
    "type": "Point",
    "coordinates": [
     127.048683563353,
     37.473268560162
    ]
   },
   "properties": {
    "pid": "10559917",
    "name": "소호정 본점",
    "phone": "02-579-7282",
    "source": "양재동 - 양재시민의숲역 - 소호정",
    "address": "서울 서초구 논현로 27",
    "website": "http://place.map.daum.net/10559917",
    "category": "칼국수"
   }
  },
  {
   "type": "Feature",
   "geometry": {
    "type": "Point",
    "coordinates": [
     127.063670279165,
     37.5062995797095
    ]
   },
   "properties": {
    "pid": "26101971",
    "name": "면채반 삼성점",
    "phone": "02-6191-7814",
    "source": "대치동 - 삼성역 - 면채반",
    "address": "서울 강남구 영동대로 417",
    "website": "http://place.map.daum.net/26101971",
    "category": "칼국수"
   }
  },
  {
   "type": "Feature",
   "geometry": {
    "type": "Point",
    "coordinates": [
     127.046564261466,
     37.5048371208584
    ]
   },
   "properties": {
    "pid": "22017472",
    "name": "우밀가안동국시 선릉점",
    "phone": "02-557-1855",
    "source": "대치동 - 선릉역 - 안동국시 소담",
    "address": "서울 강남구 선릉로93길 26",
    "website": "http://place.map.daum.net/22017472",
    "category": "칼국수"
   }
  },
  {
   "type": "Feature",
   "geometry": {
    "type": "Point",
    "coordinates": [
     127.063936898058,
     37.4953432045205
    ]
   },
   "properties": {
    "pid": "16271793",
    "name": "산월수제비",
    "phone": "02-556-8229",
    "source": "대치동 - 대치역 - 산월수제비",
    "address": "서울 강남구 삼성로 212",
    "website": "http://place.map.daum.net/16271793",
    "category": "칼국수"
   }
  },
  {
   "type": "Feature",
   "geometry": {
    "type": "Point",
    "coordinates": [
     127.06394592315,
     37.4953179714483
    ]
   },
   "properties": {
    "pid": "16794475",
    "name": "미러칼국수",
    "phone": "02-501-8748",
    "source": "대치동 - 대치역 - 미러칼국수",
    "address": "서울 강남구 삼성로 212",
    "website": "http://place.map.daum.net/16794475",
    "category": "칼국수"
   }
  },
  {
   "type": "Feature",
   "geometry": {
    "type": "Point",
    "coordinates": [
     127.059388229881,
     37.5147171911626
    ]
   },
   "properties": {
    "pid": "7928439",
    "name": "삼성국수",
    "phone": "02-3442-1957",
    "source": "삼성동 - 봉은사역 - 삼성국수",
    "address": "서울 강남구 영동대로 611",
    "website": "http://place.map.daum.net/7928439",
    "category": "칼국수"
   }
  },
  {
   "type": "Feature",
   "geometry": {
    "type": "Point",
    "coordinates": [
     127.004261503014,
     37.5050336306077
    ]
   },
   "properties": {
    "pid": "24870377",
    "name": "베테랑분식 센트럴지점",
    "phone": "02-6282-1977",
    "source": "반포동 - 고속터미널역 - 베테랑",
    "address": "서울 서초구 신반포로 176",
    "website": "http://place.map.daum.net/24870377",
    "category": "칼국수"
   }
  },
  {
   "type": "Feature",
   "geometry": {
    "type": "Point",
    "coordinates": [
     127.02292861395,
     37.5100915260471
    ]
   },
   "properties": {
    "pid": "13624172",
    "name": "손국시",
    "phone": "02-3444-5488",
    "source": "논현동 - 강남구청역 - 손국시",
    "address": "서울 강남구 학동로2길 19",
    "website": "http://place.map.daum.net/13624172",
    "category": "칼국수"
   }
  },
  {
   "type": "Feature",
   "geometry": {
    "type": "Point",
    "coordinates": [
     127.040675786406,
     37.5161450992407
    ]
   },
   "properties": {
    "pid": "16557397",
    "name": "정가네손칼국수",
    "phone": "",
    "source": "논현동 - 강남구청역 - 정가네손칼국수",
    "address": "서울 강남구 선릉로129길 11",
    "website": "http://place.map.daum.net/16557397",
    "category": "칼국수"
   }
  },
  {
   "type": "Feature",
   "geometry": {
    "type": "Point",
    "coordinates": [
     127.034115460694,
     37.5167706707282
    ]
   },
   "properties": {
    "pid": "8121093",
    "name": "가람국시 논현동점",
    "phone": "02-541-8200",
    "source": "논현동 - 학동역 - 가람",
    "address": "서울 강남구 언주로135길 13",
    "website": "http://place.map.daum.net/8121093",
    "category": "칼국수"
   }
  },
  {
   "type": "Feature",
   "geometry": {
    "type": "Point",
    "coordinates": [
     127.033818628087,
     37.5207387742577
    ]
   },
   "properties": {
    "pid": "8140834",
    "name": "한성칼국수",
    "phone": "02-544-0540",
    "source": "논현동 - 학동역 - 한성칼국수",
    "address": "서울 강남구 언주로 735",
    "website": "http://place.map.daum.net/8140834",
    "category": "칼국수"
   }
  },
  {
   "type": "Feature",
   "geometry": {
    "type": "Point",
    "coordinates": [
     127.041851251857,
     37.5225994748058
    ]
   },
   "properties": {
    "pid": "14601805",
    "name": "두루",
    "phone": "02-3443-8834",
    "source": "청담동 - 강남구청역 - 두루",
    "address": "서울 강남구 선릉로148길 28",
    "website": "http://place.map.daum.net/14601805",
    "category": "칼국수"
   }
  },
  {
   "type": "Feature",
   "geometry": {
    "type": "Point",
    "coordinates": [
     127.040380049654,
     37.4710912445384
    ]
   },
   "properties": {
    "pid": "8455032",
    "name": "온담",
    "phone": "02-579-8887",
    "source": "양재동 - 양재역 - 온담",
    "address": "서울 서초구 강남대로16길 24",
    "website": "http://place.map.daum.net/8455032",
    "category": "칼국수"
   }
  },
  {
   "type": "Feature",
   "geometry": {
    "type": "Point",
    "coordinates": [
     127.029998766121,
     37.4845698339127
    ]
   },
   "properties": {
    "pid": "25038356",
    "name": "임병주산동손칼국수",
    "phone": "02-3473-7972",
    "source": "양재동 - 양재역 - 임병주산동칼국수",
    "address": "서울 서초구 강남대로37길 63",
    "website": "http://place.map.daum.net/25038356",
    "category": "칼국수"
   }
  },
  {
   "type": "Feature",
   "geometry": {
    "type": "Point",
    "coordinates": [
     127.02534484844037,
     37.464314667587516
    ]
   },
   "properties": {
    "pid": "21684920",
    "name": "알봉칼국수",
    "phone": "02-529-7677",
    "source": "양재동 - 양재역 - 알봉칼국수",
    "address": "서울 서초구 태봉로 68",
    "website": "http://place.map.daum.net/21684920",
    "category": "칼국수"
   }
  },
  {
   "type": "Feature",
   "geometry": {
    "type": "Point",
    "coordinates": [
     127.03508350307095,
     37.4633392179343
    ]
   },
   "properties": {
    "pid": "8462345",
    "name": "우면당",
    "phone": "02-572-2922",
    "source": "양재동 - 양재역 - 우면당",
    "address": "서울 서초구 매헌로 25",
    "website": "http://place.map.daum.net/8462345",
    "category": "칼국수"
   }
  },
  {
   "type": "Feature",
   "geometry": {
    "type": "Point",
    "coordinates": [
     127.105358064183,
     37.5155717197168
    ]
   },
   "properties": {
    "pid": "8853395",
    "name": "녹원",
    "phone": "",
    "source": "방이동 - 방이역 - 녹원",
    "address": "서울 송파구 올림픽로 319",
    "website": "http://place.map.daum.net/8853395",
    "category": "칼국수"
   }
  },
  {
   "type": "Feature",
   "geometry": {
    "type": "Point",
    "coordinates": [
     127.123368897131,
     37.5092905034461
    ]
   },
   "properties": {
    "pid": "16790592",
    "name": "방이샤브샤브칼국수 방이본점",
    "phone": "02-423-3450",
    "source": "방이동 - 방이역 - 방이샤브샤브칼국수",
    "address": "서울 송파구 오금로31길 42",
    "website": "http://place.map.daum.net/16790592",
    "category": "칼국수"
   }
  },
  {
   "type": "Feature",
   "geometry": {
    "type": "Point",
    "coordinates": [
     127.154982628366,
     37.5525625490894
    ]
   },
   "properties": {
    "pid": "16039085",
    "name": "고향집손칼국수",
    "phone": "02-429-1222",
    "source": "명일동 - 명일역 - 고향집 손칼국수",
    "address": "서울 강동구 동남로73길 23",
    "website": "http://place.map.daum.net/16039085",
    "category": "칼국수"
   }
  },
  {
   "type": "Feature",
   "geometry": {
    "type": "Point",
    "coordinates": [
     127.143368572894,
     37.5510347145369
    ]
   },
   "properties": {
    "pid": "21334945",
    "name": "별미손칼국수전문",
    "phone": "02-3426-9601",
    "source": "명일동 - 명일역 - 별미손칼국수",
    "address": "서울 강동구 양재대로141길 9",
    "website": "http://place.map.daum.net/21334945",
    "category": "칼국수"
   }
  },
  {
   "type": "Feature",
   "geometry": {
    "type": "Point",
    "coordinates": [
     127.126680713643,
     37.5334626913613
    ]
   },
   "properties": {
    "pid": "16330182",
    "name": "수향보쌈칼국수",
    "phone": "02-478-8308",
    "source": "성내동 - 둔촌동역 - 수향보쌈칼국수",
    "address": "서울 강동구 풍성로37가길 5",
    "website": "http://place.map.daum.net/16330182",
    "category": "칼국수"
   }
  }
 ]
}