{
 "type": "FeatureCollection",
 "features": [
  {
   "type": "Feature",
   "geometry": {
    "type": "Point",
    "coordinates": [
     127.077653612313,
     37.619477973192
    ]
   },
   "properties": {
    "pid": "8083654",
    "name": "제일콩집",
    "phone": "02-972-7016",
    "source": "공릉동 - 태릉입구역 - 제일콩집",
    "address": "서울 노원구 동일로174길 37-8",
    "website": "http://place.map.daum.net/8083654",
    "category": "콩국수"
   }
  },
  {
   "type": "Feature",
   "geometry": {
    "type": "Point",
    "coordinates": [
     126.903837807898,
     37.5210324345031
    ]
   },
   "properties": {
    "pid": "12983266",
    "name": "서민준밀밭",
    "phone": "02-2634-6848",
    "source": "영등포동 - 영등포시장역 - 서민준밀밭",
    "address": "서울 영등포구 영신로40길 22-1",
    "website": "http://place.map.daum.net/12983266",
    "category": "콩국수"
   }
  },
  {
   "type": "Feature",
   "geometry": {
    "type": "Point",
    "coordinates": [
     126.999429503644,
     37.568907431526
    ]
   },
   "properties": {
    "pid": "12394402",
    "name": "강산옥",
    "phone": "02-2273-1591",
    "source": "주교동 - 을지로 4가역 - 강산옥",
    "address": "서울 중구 청계천로 196-1",
    "website": "http://place.map.daum.net/12394402",
    "category": "콩국수"
   }
  },
  {
   "type": "Feature",
   "geometry": {
    "type": "Point",
    "coordinates": [
     126.974542652517,
     37.5624895962605
    ]
   },
   "properties": {
    "pid": "11152625",
    "name": "진주회관",
    "phone": "02-753-5388",
    "source": "서소문동 - 시청역 - 진주회관",
    "address": "서울 중구 세종대로11길 26",
    "website": "http://place.map.daum.net/11152625",
    "category": "콩국수"
   }
  },
  {
   "type": "Feature",
   "geometry": {
    "type": "Point",
    "coordinates": [
     126.926960229824,
     37.5205984955116
    ]
   },
   "properties": {
    "pid": "8094563",
    "name": "진주집",
    "phone": "02-780-6108",
    "source": "여의도동 - 여의도역 - 진주집",
    "address": "서울 영등포구 국제금융로6길 33",
    "website": "http://place.map.daum.net/8094563",
    "category": "콩국수"
   }
  },
  {
   "type": "Feature",
   "geometry": {
    "type": "Point",
    "coordinates": [
     127.063149499256,
     37.5003063708259
    ]
   },
   "properties": {
    "pid": "15103116",
    "name": "맛자랑",
    "phone": "02-555-8389",
    "source": "대치동 - 한티역 - 맛자랑",
    "address": "서울 강남구 도곡로87길 7",
    "website": "http://place.map.daum.net/15103116",
    "category": "콩국수"
   }
  },
  {
   "type": "Feature",
   "geometry": {
    "type": "Point",
    "coordinates": [
     127.01142244405,
     37.5915686775837
    ]
   },
   "properties": {
    "pid": "13010697",
    "name": "달려라메기",
    "phone": "02-925-5234",
    "source": "동소문동 - 한성대입구역 - 달려라메기",
    "address": "서울 성북구 동소문로13가길 28",
    "website": "http://place.map.daum.net/13010697",
    "category": "콩국수"
   }
  },
  {
   "type": "Feature",
   "geometry": {
    "type": "Point",
    "coordinates": [
     127.034115460694,
     37.5167706707282
    ]
   },
   "properties": {
    "pid": "8121093",
    "name": "가람국시 논현동점",
    "phone": "02-541-8200",
    "source": "논현동 - 학동역 - 가람국시",
    "address": "서울 강남구 언주로135길 13",
    "website": "http://place.map.daum.net/8121093",
    "category": "콩국수"
   }
  },
  {
   "type": "Feature",
   "geometry": {
    "type": "Point",
    "coordinates": [
     127.032817780264,
     37.4981094238993
    ]
   },
   "properties": {
    "pid": "27204005",
    "name": "우밀가안동국시 역삼점",
    "phone": "02-554-1855",
    "source": "역삼동 - 강남역 - 우밀가 안동국시",
    "address": "서울 강남구 테헤란로10길 21",
    "website": "http://place.map.daum.net/27204005",
    "category": "콩국수"
   }
  },
  {
   "type": "Feature",
   "geometry": {
    "type": "Point",
    "coordinates": [
     126.97892063104,
     37.5624147753664
    ]
   },
   "properties": {
    "pid": "15892869",
    "name": "애성회관",
    "phone": "02-352-0303",
    "source": "북창동 - 시청역 - 애성회관",
    "address": "서울 중구 남대문로5길 23",
    "website": "http://place.map.daum.net/15892869",
    "category": "콩국수"
   }
  },
  {
   "type": "Feature",
   "geometry": {
    "type": "Point",
    "coordinates": [
     127.040675786406,
     37.5161450992407
    ]
   },
   "properties": {
    "pid": "16557397",
    "name": "정가네손칼국수",
    "phone": "",
    "source": "논현동 - 강남구청역 - 정가네 손칼국수",
    "address": "서울 강남구 선릉로129길 11",
    "website": "http://place.map.daum.net/16557397",
    "category": "콩국수"
   }
  },
  {
   "type": "Feature",
   "geometry": {
    "type": "Point",
    "coordinates": [
     127.00436997467,
     37.5808365214926
    ]
   },
   "properties": {
    "pid": "8200814",
    "name": "국수가 대학로본점",
    "phone": "02-3673-5798",
    "source": "동숭동 - 혜화역 - 국수가",
    "address": "서울 종로구 동숭2길 1",
    "website": "http://place.map.daum.net/8200814",
    "category": "콩국수"
   }
  },
  {
   "type": "Feature",
   "geometry": {
    "type": "Point",
    "coordinates": [
     127.059388229881,
     37.5147171911626
    ]
   },
   "properties": {
    "pid": "7928439",
    "name": "삼성국수",
    "phone": "02-3442-1957",
    "source": "삼성동 - 삼성역, 청담역 - 삼성국수",
    "address": "서울 강남구 영동대로 611",
    "website": "http://place.map.daum.net/7928439",
    "category": "콩국수"
   }
  },
  {
   "type": "Feature",
   "geometry": {
    "type": "Point",
    "coordinates": [
     126.985625615773,
     37.5625671495089
    ]
   },
   "properties": {
    "pid": "10332413",
    "name": "명동교자 본점",
    "phone": "02-776-5348",
    "source": "명동 - 명동역 - 명동교자",
    "address": "서울 중구 명동10길 29",
    "website": "http://place.map.daum.net/10332413",
    "category": "콩국수"
   }
  },
  {
   "type": "Feature",
   "geometry": {
    "type": "Point",
    "coordinates": [
     127.04912564342,
     37.4785374820562
    ]
   },
   "properties": {
    "pid": "9011542",
    "name": "밀란비빔국수 개포본점",
    "phone": "02-574-3216",
    "source": "개포동 - 매봉역 - 밀란국수",
    "address": "서울 강남구 개포로28길 4",
    "website": "http://place.map.daum.net/9011542",
    "category": "콩국수"
   }
  },
  {
   "type": "Feature",
   "geometry": {
    "type": "Point",
    "coordinates": [
     126.914080143084,
     37.6133779607705
    ]
   },
   "properties": {
    "pid": "16706334",
    "name": "윈첼지리산생고기",
    "phone": "02-352-8449",
    "source": "갈현동 - 구산역 - 윈첼지리산",
    "address": "서울 은평구 연서로17길 29",
    "website": "http://place.map.daum.net/16706334",
    "category": "콩국수"
   }
  },
  {
   "type": "Feature",
   "geometry": {
    "type": "Point",
    "coordinates": [
     127.070903613814,
     37.5344788279192
    ]
   },
   "properties": {
    "pid": "8320719",
    "name": "뚝배기바지락칼국수보쌈",
    "phone": "02-452-6062",
    "source": "자양동 - 건대입구역, 뚝섬유원지역 - 뚝배기바지락 칼국수",
    "address": "서울 광진구 뚝섬로 548",
    "website": "http://place.map.daum.net/8320719",
    "category": "콩국수"
   }
  },
  {
   "type": "Feature",
   "geometry": {
    "type": "Point",
    "coordinates": [
     126.973380309788,
     37.5336898160076
    ]
   },
   "properties": {
    "pid": "13320353",
    "name": "옛집국수",
    "phone": "02-794-8364",
    "source": "한강로 1가 - 삼각지역 - 옛집",
    "address": "서울 용산구 한강대로62길 26",
    "website": "http://place.map.daum.net/13320353",
    "category": "콩국수"
   }
  },
  {
   "type": "Feature",
   "geometry": {
    "type": "Point",
    "coordinates": [
     126.96303431322,
     37.5070497791868
    ]
   },
   "properties": {
    "pid": "18751205",
    "name": "수목식당",
    "phone": "02-816-3556",
    "source": "흑석동 - 흑석역 - 수목식당",
    "address": "서울 동작구 서달로14나길 28",
    "website": "http://place.map.daum.net/18751205",
    "category": "콩국수"
   }
  },
  {
   "type": "Feature",
   "geometry": {
    "type": "Point",
    "coordinates": [
     127.009853698531,
     37.6475742224039
    ]
   },
   "properties": {
    "pid": "11970526",
    "name": "예와손만두",
    "phone": "02-905-9659",
    "source": "수유동 - 수유역 - 예와손만두",
    "address": "서울 강북구 4.19로 40-8",
    "website": "http://place.map.daum.net/11970526",
    "category": "콩국수"
   }
  },
  {
   "type": "Feature",
   "geometry": {
    "type": "Point",
    "coordinates": [
     126.904852895292,
     37.5518943163398
    ]
   },
   "properties": {
    "pid": "13494990",
    "name": "원당국수잘하는집",
    "phone": "02-322-5582",
    "source": "합정동 - 망원역 - 국수 잘하는 집",
    "address": "서울 마포구 동교로 22",
    "website": "http://place.map.daum.net/13494990",
    "category": "콩국수"
   }
  },
  {
   "type": "Feature",
   "geometry": {
    "type": "Point",
    "coordinates": [
     127.055276702242,
     37.5040981448889
    ]
   },
   "properties": {
    "pid": "8123533",
    "name": "피양콩할마니 본점",
    "phone": "02-508-0476",
    "source": "역삼동 - 언주역 - 피양할머니",
    "address": "서울 강남구 삼성로81길 30",
    "website": "http://place.map.daum.net/8123533",
    "category": "콩국수"
   }
  },
  {
   "type": "Feature",
   "geometry": {
    "type": "Point",
    "coordinates": [
     127.01238139490218,
     37.49136465880921
    ]
   },
   "properties": {
    "pid": "27322779",
    "name": "교대밀밭",
    "phone": "02-585-7980",
    "source": "서초동 - 교대역 - 교대밀밭",
    "address": "서울 서초구 반포대로26길 61",
    "website": "http://place.map.daum.net/27322779",
    "category": "콩국수"
   }
  },
  {
   "type": "Feature",
   "geometry": {
    "type": "Point",
    "coordinates": [
     127.02292861395,
     37.5100915260471
    ]
   },
   "properties": {
    "pid": "13624172",
    "name": "손국시",
    "phone": "02-3444-5488",
    "source": "논현동 - 압구정 로데오역, 강남구청역 - 손국시",
    "address": "서울 강남구 학동로2길 19",
    "website": "http://place.map.daum.net/13624172",
    "category": "콩국수"
   }
  },
  {
   "type": "Feature",
   "geometry": {
    "type": "Point",
    "coordinates": [
     127.04790507397,
     37.4792407704576
    ]
   },
   "properties": {
    "pid": "19010584",
    "name": "개성편수",
    "phone": "02-577-6560",
    "source": "개포동 - 매봉역, 양재 시민의 숲역 - 개성편수",
    "address": "서울 강남구 개포로25길 3-4",
    "website": "http://place.map.daum.net/19010584",
    "category": "콩국수"
   }
  },
  {
   "type": "Feature",
   "geometry": {
    "type": "Point",
    "coordinates": [
     126.973699324047,
     37.5788911296426
    ]
   },
   "properties": {
    "pid": "16418693",
    "name": "메밀꽃필무렵",
    "phone": "02-734-0367",
    "source": "통의동 - 경복궁역 - 메밀꽃필무렵",
    "address": "서울 종로구 효자로 31-1",
    "website": "http://place.map.daum.net/16418693",
    "category": "콩국수"
   }
  },
  {
   "type": "Feature",
   "geometry": {
    "type": "Point",
    "coordinates": [
     127.001104686256,
     37.5631879049788
    ]
   },
   "properties": {
    "pid": "19338775",
    "name": "만나손칼국수",
    "phone": "02-2266-6556",
    "source": "충무로 5가 - 동대문 역사문화공원역 - 만나손칼국수",
    "address": "서울 중구 동호로31길 29",
    "website": "http://place.map.daum.net/19338775",
    "category": "콩국수"
   }
  },
  {
   "type": "Feature",
   "geometry": {
    "type": "Point",
    "coordinates": [
     127.062676160603,
     37.5887703257628
    ]
   },
   "properties": {
    "pid": "26948071",
    "name": "콩보 휘경점",
    "phone": "02-2215-5015",
    "source": "휘경동 - 회기역 - 콩보",
    "address": "서울 동대문구 망우로18길 26",
    "website": "http://place.map.daum.net/26948071",
    "category": "콩국수"
   }
  },
  {
   "type": "Feature",
   "geometry": {
    "type": "Point",
    "coordinates": [
     127.093194074917,
     37.5393683861297
    ]
   },
   "properties": {
    "pid": "13113794",
    "name": "민속손국시",
    "phone": "02-444-7833",
    "source": "구의동 - 강변역, 구의역 - 민속손국시",
    "address": "서울 광진구 아차산로 458",
    "website": "http://place.map.daum.net/13113794",
    "category": "콩국수"
   }
  },
  {
   "type": "Feature",
   "geometry": {
    "type": "Point",
    "coordinates": [
     126.866883952145,
     37.5486969155552
    ]
   },
   "properties": {
    "pid": "16740680",
    "name": "이용성국수 본점",
    "phone": "02-2652-0748",
    "source": "목동 - 등촌역 - 이용성국수",
    "address": "서울 양천구 목동중앙북로7가길 10",
    "website": "http://place.map.daum.net/16740680",
    "category": "콩국수"
   }
  },
  {
   "type": "Feature",
   "geometry": {
    "type": "Point",
    "coordinates": [
     126.966044472281,
     37.5931212602688
    ]
   },
   "properties": {
    "pid": "8505372",
    "name": "자하손만두",
    "phone": "02-379-2648",
    "source": "부암동 - 경복궁역 - 자하손만두",
    "address": "서울 종로구 백석동길 12",
    "website": "http://place.map.daum.net/8505372",
    "category": "콩국수"
   }
  },
  {
   "type": "Feature",
   "geometry": {
    "type": "Point",
    "coordinates": [
     127.086670431874,
     37.5378704863427
    ]
   },
   "properties": {
    "pid": "7831256",
    "name": "대원칼국수",
    "phone": "02-454-3112",
    "source": "구의동 - 강변역 - 대원칼국수",
    "address": "서울 광진구 자양로18길 56",
    "website": "http://place.map.daum.net/7831256",
    "category": "콩국수"
   }
  },
  {
   "type": "Feature",
   "geometry": {
    "type": "Point",
    "coordinates": [
     126.954051323442,
     37.511666978205
    ]
   },
   "properties": {
    "pid": "13597762",
    "name": "소문난명품잔치국수",
    "phone": "02-824-3005",
    "source": "노량진 - 노들역 - 소문난명품잔치국수",
    "address": "서울 동작구 노량진로24길 36",
    "website": "http://place.map.daum.net/13597762",
    "category": "콩국수"
   }
  },
  {
   "type": "Feature",
   "geometry": {
    "type": "Point",
    "coordinates": [
     126.857574110223,
     37.5195008551119
    ]
   },
   "properties": {
    "pid": "8344070",
    "name": "살구나무집칼국수",
    "phone": "02-2652-9991",
    "source": "신정동 - 신정네거리역 - 살구나무집칼국수",
    "address": "서울 양천구 중앙로32길 35",
    "website": "http://place.map.daum.net/8344070",
    "category": "콩국수"
   }
  },
  {
   "type": "Feature",
   "geometry": {
    "type": "Point",
    "coordinates": [
     127.029998766121,
     37.4845698339127
    ]
   },
   "properties": {
    "pid": "25038356",
    "name": "임병주산동손칼국수",
    "phone": "02-3473-7972",
    "source": "서초동 - 양재역 - 임병주 산동 칼국수",
    "address": "서울 서초구 강남대로37길 63",
    "website": "http://place.map.daum.net/25038356",
    "category": "콩국수"
   }
  },
  {
   "type": "Feature",
   "geometry": {
    "type": "Point",
    "coordinates": [
     126.919281631805,
     37.6212598718049
    ]
   },
   "properties": {
    "pid": "16470449",
    "name": "가이오국수 연신내점",
    "phone": "02-6014-4925",
    "source": "갈현동 - 연신내역 - 가이오국수",
    "address": "서울 은평구 통일로83길 6-4",
    "website": "http://place.map.daum.net/16470449",
    "category": "콩국수"
   }
  },
  {
   "type": "Feature",
   "geometry": {
    "type": "Point",
    "coordinates": [
     127.103047570819,
     37.5462942886825
    ]
   },
   "properties": {
    "pid": "8587459",
    "name": "콩마당",
    "phone": "02-2201-3965",
    "source": "광장동 - 광나루역 - 콩마당",
    "address": "서울 광진구 아차산로73길 33",
    "website": "http://place.map.daum.net/8587459",
    "category": "콩국수"
   }
  },
  {
   "type": "Feature",
   "geometry": {
    "type": "Point",
    "coordinates": [
     127.010722032742,
     37.6027374309408
    ]
   },
   "properties": {
    "pid": "10380858",
    "name": "봉화묵집",
    "phone": "02-918-1668",
    "source": "정릉동 - 성신여대입구역 - 봉화묵집",
    "address": "서울 성북구 아리랑로19길 46-2",
    "website": "http://place.map.daum.net/10380858",
    "category": "콩국수"
   }
  },
  {
   "type": "Feature",
   "geometry": {
    "type": "Point",
    "coordinates": [
     126.923192501887,
     37.5588922025068
    ]
   },
   "properties": {
    "pid": "18276450",
    "name": "홍대밀방",
    "phone": "02-322-7713",
    "source": "동교동 - 홍대입구역 - 홍대밀방",
    "address": "서울 마포구 동교로 209-1",
    "website": "http://place.map.daum.net/18276450",
    "category": "콩국수"
   }
  },
  {
   "type": "Feature",
   "geometry": {
    "type": "Point",
    "coordinates": [
     127.029451136425,
     37.5871542971092
    ]
   },
   "properties": {
    "pid": "15885047",
    "name": "무아국수집",
    "phone": "02-927-7050",
    "source": "안암동 - 안암역 - 무아국수",
    "address": "서울 성북구 개운사길 18",
    "website": "http://place.map.daum.net/15885047",
    "category": "콩국수"
   }
  },
  {
   "type": "Feature",
   "geometry": {
    "type": "Point",
    "coordinates": [
     127.024192602551,
     37.5014596439074
    ]
   },
   "properties": {
    "pid": "11891754",
    "name": "강남교자",
    "phone": "02-536-4133",
    "source": "서초동 - 강남역 - 강남교자",
    "address": "서울 서초구 강남대로69길 11",
    "website": "http://place.map.daum.net/11891754",
    "category": "콩국수"
   }
  },
  {
   "type": "Feature",
   "geometry": {
    "type": "Point",
    "coordinates": [
     126.986084505317,
     37.5781652360883
    ]
   },
   "properties": {
    "pid": "19158798",
    "name": "깡통만두",
    "phone": "02-794-4243",
    "source": "재동 - 안국역 - 깡통만두",
    "address": "서울 종로구 북촌로2길 5-6",
    "website": "http://place.map.daum.net/19158798",
    "category": "콩국수"
   }
  },
  {
   "type": "Feature",
   "geometry": {
    "type": "Point",
    "coordinates": [
     126.99236540441,
     37.4880584954415
    ]
   },
   "properties": {
    "pid": "11557414",
    "name": "일미옥",
    "phone": "02-533-7199",
    "source": "방배동 - 내방역 - 일미옥",
    "address": "서울 서초구 서초대로19길 10-21",
    "website": "http://place.map.daum.net/11557414",
    "category": "콩국수"
   }
  },
  {
   "type": "Feature",
   "geometry": {
    "type": "Point",
    "coordinates": [
     127.13592868353,
     37.5296682063631
    ]
   },
   "properties": {
    "pid": "8177529",
    "name": "고모네 원조콩탕북어탕",
    "phone": "02-485-4675",
    "source": "성내동 - 둔촌동역 - 고모네콩탕",
    "address": "서울 강동구 풍성로57길 13",
    "website": "http://place.map.daum.net/8177529",
    "category": "콩국수"
   }
  }
 ]
}