{
 "type": "FeatureCollection",
 "features": [
  {
   "type": "Feature",
   "geometry": {
    "type": "Point",
    "coordinates": [
     126.923366458337,
     37.6011957704919
    ]
   },
   "properties": {
    "pid": "13494415",
    "name": "요요미",
    "phone": "02-355-5985",
    "source": "응암동 - 음암역 - 요요미",
    "address": "서울 은평구 은평로11길 3-1",
    "website": "http://place.map.daum.net/13494415",
    "category": "튀김"
   }
  },
  {
   "type": "Feature",
   "geometry": {
    "type": "Point",
    "coordinates": [
     126.920949251824,
     37.5482265129759
    ]
   },
   "properties": {
    "pid": "19909925",
    "name": "홍대삭",
    "phone": "070-8950-1797",
    "source": "상수동 - 상수역 - 삭",
    "address": "서울 마포구 독막로 67-8",
    "website": "http://place.map.daum.net/19909925",
    "category": "튀김"
   }
  },
  {
   "type": "Feature",
   "geometry": {
    "type": "Point",
    "coordinates": [
     126.917227442377,
     37.5491573970743
    ]
   },
   "properties": {
    "pid": "27504049",
    "name": "타치가와텐",
    "phone": "02-6012-3331",
    "source": "서교동 - 합정역 - 타치가와텐",
    "address": "서울 마포구 독막로3길 24-6",
    "website": "http://place.map.daum.net/27504049",
    "category": "튀김"
   }
  },
  {
   "type": "Feature",
   "geometry": {
    "type": "Point",
    "coordinates": [
     126.923135600258,
     37.5525851837447
    ]
   },
   "properties": {
    "pid": "644611528",
    "name": "미스바삭",
    "phone": "02-336-8310",
    "source": "서교동 - 홍대입구역 - 바삭",
    "address": "서울 마포구 와우산로21길 12-3",
    "website": "http://place.map.daum.net/644611528",
    "category": "튀김"
   }
  },
  {
   "type": "Feature",
   "geometry": {
    "type": "Point",
    "coordinates": [
     126.921217355443,
     37.551538761818
    ]
   },
   "properties": {
    "pid": "27454468",
    "name": "미미네 홍대본점",
    "phone": "02-3143-7245",
    "source": "서교동 - 홍대입구역 - 미미네",
    "address": "서울 마포구 잔다리로2길 24",
    "website": "http://place.map.daum.net/27454468",
    "category": "튀김"
   }
  },
  {
   "type": "Feature",
   "geometry": {
    "type": "Point",
    "coordinates": [
     126.858577784451,
     37.5271281407547
    ]
   },
   "properties": {
    "pid": "27420174",
    "name": "갓치킨",
    "phone": "02-2699-9696",
    "source": "양평동 - 선유도역 - 갓",
    "address": "서울 양천구 신정중앙로 61",
    "website": "http://place.map.daum.net/27420174",
    "category": "튀김"
   }
  },
  {
   "type": "Feature",
   "geometry": {
    "type": "Point",
    "coordinates": [
     126.966964763954,
     37.5809256832267
    ]
   },
   "properties": {
    "pid": "18643183",
    "name": "남도분식",
    "phone": "02-723-7775",
    "source": "누상동 - 경복궁역 - 남도분식",
    "address": "서울 종로구 옥인2길 2",
    "website": "http://place.map.daum.net/18643183",
    "category": "튀김"
   }
  },
  {
   "type": "Feature",
   "geometry": {
    "type": "Point",
    "coordinates": [
     126.97802886582,
     37.5619929463762
    ]
   },
   "properties": {
    "pid": "8231979",
    "name": "김설문일식",
    "phone": "02-774-3631",
    "source": "북창동 - 시청역 - 김설문일식",
    "address": "서울 중구 남대문로1길 26-10",
    "website": "http://place.map.daum.net/8231979",
    "category": "튀김"
   }
  },
  {
   "type": "Feature",
   "geometry": {
    "type": "Point",
    "coordinates": [
     127.04706709265,
     37.5059217318685
    ]
   },
   "properties": {
    "pid": "19532843",
    "name": "공수간",
    "phone": "02-2051-7377",
    "source": "논현동 - 논현역 - 공수간",
    "address": "서울 강남구 테헤란로55길 22",
    "website": "http://place.map.daum.net/19532843",
    "category": "튀김"
   }
  },
  {
   "type": "Feature",
   "geometry": {
    "type": "Point",
    "coordinates": [
     127.121051158835,
     37.5308448819628
    ]
   },
   "properties": {
    "pid": "27209364",
    "name": "튀기고",
    "phone": "02-470-8115",
    "source": "성내동 - 강동구청역 - 튀기고",
    "address": "서울 강동구 올림픽로 552",
    "website": "http://place.map.daum.net/27209364",
    "category": "튀김"
   }
  }
 ]
}