{
 "type": "FeatureCollection",
 "features": [
  {
   "type": "Feature",
   "geometry": {
    "type": "Point",
    "coordinates": [
     127.00863494102754,
     37.5342114769915
    ]
   },
   "properties": {
    "pid": "13618798",
    "name": "함바그또카레야",
    "phone": "02-792-8582",
    "source": "신사동 - 신사역 - 함바그또 카레야",
    "address": "서울 용산구 독서당로 73",
    "website": "http://place.map.daum.net/13618798",
    "category": "함박 스테이크"
   }
  },
  {
   "type": "Feature",
   "geometry": {
    "type": "Point",
    "coordinates": [
     127.024306766816,
     37.5187192638585
    ]
   },
   "properties": {
    "pid": "18315155",
    "name": "모단걸응접실",
    "phone": "02-3448-0815",
    "source": "신사동 - 신사역 - 모단걸응접실",
    "address": "서울 강남구 강남대로152길 62",
    "website": "http://place.map.daum.net/18315155",
    "category": "함박 스테이크"
   }
  },
  {
   "type": "Feature",
   "geometry": {
    "type": "Point",
    "coordinates": [
     126.98011761148,
     37.4875885449975
    ]
   },
   "properties": {
    "pid": "24612345",
    "name": "팬쿡",
    "phone": "02-6487-1771",
    "source": "사당동 - 사당역 - 팬쿡",
    "address": "서울 동작구 동작대로27길 34",
    "website": "http://place.map.daum.net/24612345",
    "category": "함박 스테이크"
   }
  },
  {
   "type": "Feature",
   "geometry": {
    "type": "Point",
    "coordinates": [
     126.924834330912,
     37.55590194863
    ]
   },
   "properties": {
    "pid": "26472747",
    "name": "치즈오타쿠김철수",
    "phone": "02-333-0221",
    "source": "서교동 - 홍대입구역 - 치즈오타쿠 김철수",
    "address": "서울 마포구 어울마당로 134",
    "website": "http://place.map.daum.net/26472747",
    "category": "함박 스테이크"
   }
  },
  {
   "type": "Feature",
   "geometry": {
    "type": "Point",
    "coordinates": [
     126.92573130168,
     37.5552646100635
    ]
   },
   "properties": {
    "pid": "26840700",
    "name": "준호키친",
    "phone": "02-2667-0001",
    "source": "서교동 - 홍대입구역 - 준호키친",
    "address": "서울 마포구 와우산로29바길 25",
    "website": "http://place.map.daum.net/26840700",
    "category": "함박 스테이크"
   }
  },
  {
   "type": "Feature",
   "geometry": {
    "type": "Point",
    "coordinates": [
     126.92546141323,
     37.562620178789
    ]
   },
   "properties": {
    "pid": "104001494",
    "name": "후쿠오카함바그 연남점",
    "phone": "02-336-1450",
    "source": "서교동 - 홍대입구역 - 후쿠오카함바그",
    "address": "서울 마포구 동교로46길 9",
    "website": "http://place.map.daum.net/104001494",
    "category": "함박 스테이크"
   }
  },
  {
   "type": "Feature",
   "geometry": {
    "type": "Point",
    "coordinates": [
     126.916980683582,
     37.5553344653709
    ]
   },
   "properties": {
    "pid": "26602426",
    "name": "레이식당",
    "phone": "02-326-0090",
    "source": "서교동 - 홍대입구역 - 레이식당",
    "address": "서울 마포구 동교로 133",
    "website": "http://place.map.daum.net/26602426",
    "category": "함박 스테이크"
   }
  },
  {
   "type": "Feature",
   "geometry": {
    "type": "Point",
    "coordinates": [
     126.92238268158,
     37.5496438334348
    ]
   },
   "properties": {
    "pid": "13113825",
    "name": "윤씨밀방",
    "phone": "02-3143-4116",
    "source": "서교동 - 상수역 - 윤씨밀방",
    "address": "서울 마포구 와우산로15길 15",
    "website": "http://place.map.daum.net/13113825",
    "category": "함박 스테이크"
   }
  },
  {
   "type": "Feature",
   "geometry": {
    "type": "Point",
    "coordinates": [
     126.922744744681,
     37.549705338762
    ]
   },
   "properties": {
    "pid": "21882779",
    "name": "The450",
    "phone": "02-338-0046",
    "source": "상수동 - 상수역 - The 450",
    "address": "서울 마포구 와우산로13길 7",
    "website": "http://place.map.daum.net/21882779",
    "category": "함박 스테이크"
   }
  },
  {
   "type": "Feature",
   "geometry": {
    "type": "Point",
    "coordinates": [
     126.91170234112735,
     37.552591485894915
    ]
   },
   "properties": {
    "pid": "27579205",
    "name": "구슬함박 본사",
    "phone": "02-558-0777",
    "source": "서교동 - 합정역 - 구슬함박",
    "address": "서울 마포구 월드컵로 37",
    "website": "http://place.map.daum.net/27579205",
    "category": "함박 스테이크"
   }
  },
  {
   "type": "Feature",
   "geometry": {
    "type": "Point",
    "coordinates": [
     126.909551403198,
     37.5558263584852
    ]
   },
   "properties": {
    "pid": "22790197",
    "name": "맛양값 망원본점",
    "phone": "02-326-0900",
    "source": "망원동 - 망원역 - 맛양값",
    "address": "서울 마포구 동교로9길 44",
    "website": "http://place.map.daum.net/22790197",
    "category": "함박 스테이크"
   }
  },
  {
   "type": "Feature",
   "geometry": {
    "type": "Point",
    "coordinates": [
     127.002480332791,
     37.5425550289961
    ]
   },
   "properties": {
    "pid": "20122541",
    "name": "윤세영식당",
    "phone": "02-795-3375",
    "source": "한남동 - 한강진역역 - 윤세영식당",
    "address": "서울 용산구 한남대로 164",
    "website": "http://place.map.daum.net/20122541",
    "category": "함박 스테이크"
   }
  },
  {
   "type": "Feature",
   "geometry": {
    "type": "Point",
    "coordinates": [
     127.004565270704,
     37.5901996338099
    ]
   },
   "properties": {
    "pid": "613101661",
    "name": "꿀맛식당",
    "phone": "02-741-8677",
    "source": "성북동 - 한성대역 - 꿀맛",
    "address": "서울 성북구 성북로 24",
    "website": "http://place.map.daum.net/613101661",
    "category": "함박 스테이크"
   }
  },
  {
   "type": "Feature",
   "geometry": {
    "type": "Point",
    "coordinates": [
     126.989549307637,
     37.5735452937783
    ]
   },
   "properties": {
    "pid": "27494735",
    "name": "경양식1920",
    "phone": "02-744-1920",
    "source": "익선동 - 종로3가역 - 경양식 1920",
    "address": "서울 종로구 수표로28길 17-30",
    "website": "http://place.map.daum.net/27494735",
    "category": "함박 스테이크"
   }
  },
  {
   "type": "Feature",
   "geometry": {
    "type": "Point",
    "coordinates": [
     126.981179310499,
     37.582280295823
    ]
   },
   "properties": {
    "pid": "27344166",
    "name": "부띠끄경성",
    "phone": "02-723-4534",
    "source": "팔판동 - 안국역 - 부띠끄경성",
    "address": "서울 종로구 삼청로 75-5",
    "website": "http://place.map.daum.net/27344166",
    "category": "함박 스테이크"
   }
  },
  {
   "type": "Feature",
   "geometry": {
    "type": "Point",
    "coordinates": [
     126.99114703904968,
     37.560018772833665
    ]
   },
   "properties": {
    "pid": "16994155",
    "name": "그릴데미그라스",
    "phone": "02-723-1233",
    "source": "팔판동 - 안국역 - 그릴데미그라스",
    "address": "서울 중구 삼일대로2길 50",
    "website": "http://place.map.daum.net/16994155",
    "category": "함박 스테이크"
   }
  },
  {
   "type": "Feature",
   "geometry": {
    "type": "Point",
    "coordinates": [
     127.044883558628,
     37.5462406221214
    ]
   },
   "properties": {
    "pid": "26924545",
    "name": "윤경양식당",
    "phone": "",
    "source": "성수동 - 뚝섬역 - 윤경양식당",
    "address": "서울 성동구 왕십리로 96",
    "website": "http://place.map.daum.net/26924545",
    "category": "함박 스테이크"
   }
  },
  {
   "type": "Feature",
   "geometry": {
    "type": "Point",
    "coordinates": [
     127.013183099813,
     37.4820789148494
    ]
   },
   "properties": {
    "pid": "20043513",
    "name": "모모코 예술의전당점",
    "phone": "02-583-3060",
    "source": "서초동 - 남부터미널역 - 모모코",
    "address": "서울 서초구 반포대로4길 9",
    "website": "http://place.map.daum.net/20043513",
    "category": "함박 스테이크"
   }
  },
  {
   "type": "Feature",
   "geometry": {
    "type": "Point",
    "coordinates": [
     127.070160721054,
     37.5434099835521
    ]
   },
   "properties": {
    "pid": "24812798",
    "name": "민벅 건대점",
    "phone": "02-469-4455",
    "source": "화양동 - 건대입구역 - 민벅",
    "address": "서울 광진구 능동로13길 39",
    "website": "http://place.map.daum.net/24812798",
    "category": "함박 스테이크"
   }
  },
  {
   "type": "Feature",
   "geometry": {
    "type": "Point",
    "coordinates": [
     127.060580430402,
     37.5958063645526
    ]
   },
   "properties": {
    "pid": "26981399",
    "name": "언니네함바그",
    "phone": "02-964-0110",
    "source": "이문동 - 외대앞역 - 언니네함바그",
    "address": "서울 동대문구 휘경로 6-8",
    "website": "http://place.map.daum.net/26981399",
    "category": "함박 스테이크"
   }
  },
  {
   "type": "Feature",
   "geometry": {
    "type": "Point",
    "coordinates": [
     127.071368447686,
     37.5426019643703
    ]
   },
   "properties": {
    "pid": "26844606",
    "name": "모모스테이크 건대점",
    "phone": "02-466-8048",
    "source": "화양동 - 건대입구역 - 모모스테이크",
    "address": "서울 광진구 능동로13길 10",
    "website": "http://place.map.daum.net/26844606",
    "category": "함박 스테이크"
   }
  },
  {
   "type": "Feature",
   "geometry": {
    "type": "Point",
    "coordinates": [
     127.10142777106198,
     37.506662427978746
    ]
   },
   "properties": {
    "pid": "27353153",
    "name": "코메또히또",
    "phone": "02-423-6399",
    "source": "석촌동 - 석촌역 - 코메또히또",
    "address": "서울 송파구 송파대로49길 31",
    "website": "http://place.map.daum.net/27353153",
    "category": "함박 스테이크"
   }
  },
  {
   "type": "Feature",
   "geometry": {
    "type": "Point",
    "coordinates": [
     127.019032803713,
     37.6327573067632
    ]
   },
   "properties": {
    "pid": "16380488",
    "name": "다래함박스텍",
    "phone": "02-2241-7558",
    "source": "수유동 - 수유역 - 다래함박스텍",
    "address": "서울 강북구 수유로 20-2",
    "website": "http://place.map.daum.net/16380488",
    "category": "함박 스테이크"
   }
  },
  {
   "type": "Feature",
   "geometry": {
    "type": "Point",
    "coordinates": [
     126.937250615383,
     37.5572967359928
    ]
   },
   "properties": {
    "pid": "27388596",
    "name": "옐로우스푼 신촌점",
    "phone": "02-363-2378",
    "source": "창천동 - 신촌역 - 옐로우스푼",
    "address": "서울 서대문구 명물길 4",
    "website": "http://place.map.daum.net/27388596",
    "category": "함박 스테이크"
   }
  },
  {
   "type": "Feature",
   "geometry": {
    "type": "Point",
    "coordinates": [
     127.066264232804,
     37.5082479275874
    ]
   },
   "properties": {
    "pid": "10042991",
    "name": "후레쉬빌",
    "phone": "02-501-9797",
    "source": "대치동 - 삼성역 - 후레쉬빌",
    "address": "서울 강남구 테헤란로108길 19",
    "website": "http://place.map.daum.net/10042991",
    "category": "함박 스테이크"
   }
  },
  {
   "type": "Feature",
   "geometry": {
    "type": "Point",
    "coordinates": [
     127.041123353769,
     37.5154818055779
    ]
   },
   "properties": {
    "pid": "16417985",
    "name": "낭만식당",
    "phone": "02-517-7471",
    "source": "논현동 - 강남구청역 - 낭만식당",
    "address": "서울 강남구 선릉로127길 7",
    "website": "http://place.map.daum.net/16417985",
    "category": "함박 스테이크"
   }
  },
  {
   "type": "Feature",
   "geometry": {
    "type": "Point",
    "coordinates": [
     127.04030034259,
     37.5583697092675
    ]
   },
   "properties": {
    "pid": "8675374",
    "name": "행운돈까스",
    "phone": "02-2296-3406",
    "source": "행당동 - 한양대역 - 행운돈가스",
    "address": "서울 성동구 마조로1길 2",
    "website": "http://place.map.daum.net/8675374",
    "category": "함박 스테이크"
   }
  }
 ]
}