{
 "type": "FeatureCollection",
 "features": [
  [
   {
    "type": "Feature",
    "geometry": {
     "type": "Point",
     "coordinates": [
      126.992714983045,
      37.5675629225708
     ]
    },
    "properties": {
     "pid": "8043030",
     "name": "을지면옥",
     "phone": "02-2274-6863",
     "source": "입정동 - 을지로 3가역 - 을지면옥",
     "address": "서울 중구 충무로14길 2-1",
     "website": "http://place.map.daum.net/8043030",
     "category": "평양냉면"
    }
   },
   {
    "type": "Feature",
    "geometry": {
     "type": "Point",
     "coordinates": [
      127.029148302031,
      37.5189524291083
     ]
    },
    "properties": {
     "pid": "8130016",
     "name": "평양면옥",
     "phone": "02-549-5378",
     "source": "논현동 - 압구정역, 학동역 - 논현동 평양면옥",
     "address": "서울 강남구 논현로150길 6",
     "website": "http://place.map.daum.net/8130016",
     "category": "평양냉면"
    }
   },
   {
    "type": "Feature",
    "geometry": {
     "type": "Point",
     "coordinates": [
      126.998718658866,
      37.568219065283
     ]
    },
    "properties": {
     "pid": "8025375",
     "name": "우래옥 본점",
     "phone": "02-2265-0151",
     "source": "주교동 - 을지로 4가역 - 우래옥",
     "address": "서울 중구 창경궁로 62-29",
     "website": "http://place.map.daum.net/8025375",
     "category": "평양냉면"
    }
   },
   {
    "type": "Feature",
    "geometry": {
     "type": "Point",
     "coordinates": [
      126.99693958989,
      37.5603983847784
     ]
    },
    "properties": {
     "pid": "11231325",
     "name": "필동면옥",
     "phone": "02-2266-2611",
     "source": "필동 - 충무로역 - 필동면옥",
     "address": "서울 중구 서애로 26",
     "website": "http://place.map.daum.net/11231325",
     "category": "평양냉면"
    }
   },
   {
    "type": "Feature",
    "geometry": {
     "type": "Point",
     "coordinates": [
      127.00669603395768,
      37.56324808702588
     ]
    },
    "properties": {
     "pid": "13093208",
     "name": "평양면옥",
     "phone": "02-2267-7784",
     "source": "장충동 - 동대입구역, 동대문 역사문화 공원역 - 장충동 평양면옥",
     "address": "서울 중구 장충단로 207",
     "website": "http://place.map.daum.net/13093208",
     "category": "평양냉면"
    }
   },
   {
    "type": "Feature",
    "geometry": {
     "type": "Point",
     "coordinates": [
      127.035128566472,
      37.5255605575199
     ]
    },
    "properties": {
     "pid": "8177726",
     "name": "강서면옥 압구정점",
     "phone": "02-3445-0092",
     "source": "신사동 - 압구정 로데오역 - 강서면옥 압구정점",
     "address": "서울 강남구 언주로164길 19",
     "website": "http://place.map.daum.net/8177726",
     "category": "평양냉면"
    }
   },
   {
    "type": "Feature",
    "geometry": {
     "type": "Point",
     "coordinates": [
      126.945528667601,
      37.5474871749408
     ]
    },
    "properties": {
     "pid": "25048467",
     "name": "을밀대 본점",
     "phone": "",
     "source": "염리동 - 대흥역 - 을밀대 본점",
     "address": "서울 마포구 숭문길 24",
     "website": "http://place.map.daum.net/25048467",
     "category": "평양냉면"
    }
   },
   {
    "type": "Feature",
    "geometry": {
     "type": "Point",
     "coordinates": [
      127.030740331534,
      37.4952411777316
     ]
    },
    "properties": {
     "pid": "12418029",
     "name": "을밀대 강남점",
     "phone": "02-552-1922",
     "source": "역삼동 - 강남역 - 을밀대 강남점",
     "address": "서울 강남구 테헤란로4길 46",
     "website": "http://place.map.daum.net/12418029",
     "category": "평양냉면"
    }
   },
   {
    "type": "Feature",
    "geometry": {
     "type": "Point",
     "coordinates": [
      127.124312194356,
      37.5106626446528
     ]
    },
    "properties": {
     "pid": "25117707",
     "name": "금왕평양면옥",
     "phone": "02-6248-1176",
     "source": "방이동 - 방이역 - 금왕평양면옥",
     "address": "서울 송파구 위례성대로16길 23",
     "website": "http://place.map.daum.net/25117707",
     "category": "평양냉면"
    }
   },
   {
    "type": "Feature",
    "geometry": {
     "type": "Point",
     "coordinates": [
      126.981753597164,
      37.5671652991647
     ]
    },
    "properties": {
     "pid": "21232315",
     "name": "남포면옥",
     "phone": "02-777-3131",
     "source": "다동 - 을지로입구역 - 남포면옥",
     "address": "서울 중구 을지로3길 24",
     "website": "http://place.map.daum.net/21232315",
     "category": "평양냉면"
    }
   },
   {
    "type": "Feature",
    "geometry": {
     "type": "Point",
     "coordinates": [
      127.08534387836,
      37.5453966002957
     ]
    },
    "properties": {
     "pid": "7939102",
     "name": "서북면옥",
     "phone": "02-457-8319",
     "source": "구의동 - 어린이대공원역, 아차산역, 구의역 - 서북면옥",
     "address": "서울 광진구 자양로 199-1",
     "website": "http://place.map.daum.net/7939102",
     "category": "평양냉면"
    }
   },
   {
    "type": "Feature",
    "geometry": {
     "type": "Point",
     "coordinates": [
      126.99036546529,
      37.564910222013
     ]
    },
    "properties": {
     "pid": "12106466",
     "name": "평래옥",
     "phone": "02-2267-5892",
     "source": "저동 - 을지로 3가역 - 평래옥",
     "address": "서울 중구 마른내로 21-1",
     "website": "http://place.map.daum.net/12106466",
     "category": "평양냉면"
    }
   },
   {
    "type": "Feature",
    "geometry": {
     "type": "Point",
     "coordinates": [
      126.988322446293,
      37.5720423191573
     ]
    },
    "properties": {
     "pid": "8041476",
     "name": "유진식당",
     "phone": "02-764-2835",
     "source": "낙원동 - 종로 3가역 - 유진식당",
     "address": "서울 종로구 종로17길 40",
     "website": "http://place.map.daum.net/8041476",
     "category": "평양냉면"
    }
   },
   {
    "type": "Feature",
    "geometry": {
     "type": "Point",
     "coordinates": [
      126.842220491083,
      37.4963868077931
     ]
    },
    "properties": {
     "pid": "25049372",
     "name": "평양냉면",
     "phone": "02-2614-2263",
     "source": "오류동 - 오류동역 - 오류동 평양냉면",
     "address": "서울 구로구 고척로10길 65",
     "website": "http://place.map.daum.net/25049372",
     "category": "평양냉면"
    }
   },
   {
    "type": "Feature",
    "geometry": {
     "type": "Point",
     "coordinates": [
      126.9174907433,
      37.6141228091598
     ]
    },
    "properties": {
     "pid": "16852004",
     "name": "만포면옥 은평본점",
     "phone": "02-389-3917",
     "source": "갈현동 - 구산역, 연신내역 - 만포면옥",
     "address": "서울 은평구 연서로 171",
     "website": "http://place.map.daum.net/16852004",
     "category": "평양냉면"
    }
   },
   {
    "type": "Feature",
    "geometry": {
     "type": "Point",
     "coordinates": [
      127.040075960828,
      37.5789557323408
     ]
    },
    "properties": {
     "pid": "810920158",
     "name": "평양냉면",
     "phone": "02-965-8258",
     "source": "제기동 - 제기동역, 청량리역 - 제기동 평양냉면",
     "address": "서울 동대문구 왕산로29길 4",
     "website": "http://place.map.daum.net/810920158",
     "category": "평양냉면"
    }
   },
   {
    "type": "Feature",
    "geometry": {
     "type": "Point",
     "coordinates": [
      127.116018147064,
      37.5157707627353
     ]
    },
    "properties": {
     "pid": "275788090",
     "name": "한아람",
     "phone": "02-415-7277",
     "source": "방이동 - 잠실역 - 한아람 정육식당",
     "address": "서울 송파구 위례성대로 34",
     "website": "http://place.map.daum.net/275788090",
     "category": "평양냉면"
    }
   },
   {
    "type": "Feature",
    "geometry": {
     "type": "Point",
     "coordinates": [
      127.03837284550363,
      37.50742414851975
     ]
    },
    "properties": {
     "pid": "27261403",
     "name": "능라도 강남점",
     "phone": "02-569-8939",
     "source": "역삼동 - 언주역 - 능라도 강남점",
     "address": "서울 강남구 언주로107길 7",
     "website": "http://place.map.daum.net/27261403",
     "category": "평양냉면"
    }
   },
   {
    "type": "Feature",
    "geometry": {
     "type": "Point",
     "coordinates": [
      126.954500560693,
      37.5467233218503
     ]
    },
    "properties": {
     "pid": "22401074",
     "name": "무삼면옥 서부본점",
     "phone": "",
     "source": "공덕동 - 공덕역 - 무삼면옥",
     "address": "서울 마포구 마포대로12길 50",
     "website": "http://place.map.daum.net/22401074",
     "category": "평양냉면"
    }
   },
   {
    "type": "Feature",
    "geometry": {
     "type": "Point",
     "coordinates": [
      126.929256985769,
      37.5656750889717
     ]
    },
    "properties": {
     "pid": "10161291",
     "name": "평택고여사집냉면",
     "phone": "02-392-7461",
     "source": "연희동 - 홍대입구역 - 평택 고여사집 냉면",
     "address": "서울 서대문구 연희로 81-9",
     "website": "http://place.map.daum.net/10161291",
     "category": "평양냉면"
    }
   },
   {
    "type": "Feature",
    "geometry": {
     "type": "Point",
     "coordinates": [
      127.033478531902,
      37.4988372516009
     ]
    },
    "properties": {
     "pid": "1149950037",
     "name": "두리찹쌀순대",
     "phone": "02-563-5507",
     "source": "반포동 - 서래마을 고속 버스터미널역 - 두리",
     "address": "서울 강남구 논현로87길 41",
     "website": "http://place.map.daum.net/1149950037",
     "category": "평양냉면"
    }
   },
   {
    "type": "Feature",
    "geometry": {
     "type": "Point",
     "coordinates": [
      126.986349117627,
      37.4928765420065
     ]
    },
    "properties": {
     "pid": "10736585",
     "name": "장수원",
     "phone": "02-532-2225",
     "source": "방배동 - 이수역, 내방역 - 장수원",
     "address": "서울 서초구 방배중앙로 153",
     "website": "http://place.map.daum.net/10736585",
     "category": "평양냉면"
    }
   },
   {
    "type": "Feature",
    "geometry": {
     "type": "Point",
     "coordinates": [
      127.036047158128,
      37.5161357904841
     ]
    },
    "properties": {
     "pid": "27584230",
     "name": "진미평양냉면",
     "phone": "02-515-3469",
     "source": "논현동 - 학동역, 강남구청역 - 진미 평양냉면",
     "address": "서울 강남구 학동로 305-3",
     "website": "http://place.map.daum.net/27584230",
     "category": "평양냉면"
    }
   },
   {
    "type": "Feature",
    "geometry": {
     "type": "Point",
     "coordinates": [
      127.042494513626,
      37.5158885738904
     ]
    },
    "properties": {
     "pid": "26794399",
     "name": "봉밀가",
     "phone": "02-546-2305",
     "source": "삼성동 - 강남구청역 - 봉밀가",
     "address": "서울 강남구 선릉로 664",
     "website": "http://place.map.daum.net/26794399",
     "category": "평양냉면"
    }
   },
   {
    "type": "Feature",
    "geometry": {
     "type": "Point",
     "coordinates": [
      126.947626236525,
      37.5384132573754
     ]
    },
    "properties": {
     "pid": "606086823",
     "name": "서경도락 마포점",
     "phone": "02-702-1092",
     "source": "도화동 - 마포역 - 서경도락",
     "address": "서울 마포구 삼개로 21",
     "website": "http://place.map.daum.net/606086823",
     "category": "평양냉면"
    }
   },
   {
    "type": "Feature",
    "geometry": {
     "type": "Point",
     "coordinates": [
      126.90113289698448,
      37.558018042259235
     ]
    },
    "properties": {
     "pid": "15745279",
     "name": "비스트로달고나",
     "phone": "02-335-3678",
     "source": "망원동 - 망원역 - 달고나",
     "address": "서울 마포구 망원로3길 30",
     "website": "http://place.map.daum.net/15745279",
     "category": "평양냉면"
    }
   },
   {
    "type": "Feature",
    "geometry": {
     "type": "Point",
     "coordinates": [
      126.989653840702,
      37.5707378022937
     ]
    },
    "properties": {
     "pid": "18080093",
     "name": "능라밥상",
     "phone": "02-747-9907",
     "source": "낙원동 - 종로 3가역 - 능라밥상",
     "address": "서울 종로구 돈화문로5길 42",
     "website": "http://place.map.daum.net/18080093",
     "category": "평양냉면"
    }
   },
   {
    "type": "Feature",
    "geometry": {
     "type": "Point",
     "coordinates": [
      126.871533914356,
      37.5189618461368
     ]
    },
    "properties": {
     "pid": "12711142",
     "name": "평미가",
     "phone": "02-2644-0721",
     "source": "신정동 - 오목교역, 양천구청역 - 평미가",
     "address": "서울 양천구 목동동로10길 16",
     "website": "http://place.map.daum.net/12711142",
     "category": "평양냉면"
    }
   },
   {
    "type": "Feature",
    "geometry": {
     "type": "Point",
     "coordinates": [
      127.047526776748,
      37.7309270643191
     ]
    },
    "properties": {
     "pid": "10883976",
     "name": "평양면옥",
     "phone": "031-877-2282",
     "source": "의정부시 의정부동 - 의정부 평양면옥",
     "address": "경기 의정부시 평화로439번길 7",
     "website": "http://place.map.daum.net/10883976",
     "category": "평양냉면"
    }
   },
   {
    "type": "Feature",
    "geometry": {
     "type": "Point",
     "coordinates": [
      126.856702853726,
      37.4829370101569
     ]
    },
    "properties": {
     "pid": "17418077",
     "name": "정인면옥평양냉면",
     "phone": "02-2683-2612",
     "source": "광명시 광명동 - 정인면옥",
     "address": "경기 광명시 목감로268번길 27-1",
     "website": "http://place.map.daum.net/17418077",
     "category": "평양냉면"
    }
   },
   {
    "type": "Feature",
    "geometry": {
     "type": "Point",
     "coordinates": [
      127.147247943897,
      37.3596477477764
     ]
    },
    "properties": {
     "pid": "21212468",
     "name": "고구려",
     "phone": "031-716-0850",
     "source": "광주시 오포읍 - 고구려",
     "address": "경기 광주시 오포읍 신현로 12-8",
     "website": "http://place.map.daum.net/21212468",
     "category": "평양냉면"
    }
   },
   {
    "type": "Feature",
    "geometry": {
     "type": "Point",
     "coordinates": [
      126.776315869135,
      37.6535793462427
     ]
    },
    "properties": {
     "pid": "12741404",
     "name": "대동관 일산점",
     "phone": "031-908-6660",
     "source": "고양시 일산동구 - 대동관",
     "address": "경기 고양시 일산동구 중앙로 1199",
     "website": "http://place.map.daum.net/12741404",
     "category": "평양냉면"
    }
   },
   {
    "type": "Feature",
    "geometry": {
     "type": "Point",
     "coordinates": [
      126.955084797914,
      37.6742351342342
     ]
    },
    "properties": {
     "pid": "7863804",
     "name": "만포면옥 본점",
     "phone": "02-359-3917",
     "source": "고양시 덕양구 - 만포면옥 본점",
     "address": "경기 고양시 덕양구 북한산로553번길 6",
     "website": "http://place.map.daum.net/7863804",
     "category": "평양냉면"
    }
   },
   {
    "type": "Feature",
    "geometry": {
     "type": "Point",
     "coordinates": [
      127.110461477202,
      37.3493223954962
     ]
    },
    "properties": {
     "pid": "26792712",
     "name": "리북냉면 분당직영점",
     "phone": "031-711-6565",
     "source": "분당구 구미동 - 리북냉면",
     "address": "경기 성남시 분당구 미금일로90번길 36-5",
     "website": "http://place.map.daum.net/26792712",
     "category": "평양냉면"
    }
   },
   {
    "type": "Feature",
    "geometry": {
     "type": "Point",
     "coordinates": [
      127.199260097167,
      37.7430610547701
     ]
    },
    "properties": {
     "pid": "21555703",
     "name": "광릉한옥집",
     "phone": "031-574-6630",
     "source": "남양주시 진접읍 - 광릉 한옥집",
     "address": "경기 남양주시 진접읍 광릉내로 36",
     "website": "http://place.map.daum.net/21555703",
     "category": "평양냉면"
    }
   },
   {
    "type": "Feature",
    "geometry": {
     "type": "Point",
     "coordinates": [
      126.948941239786,
      37.4084521374866
     ]
    },
    "properties": {
     "pid": "10459955",
     "name": "봉가진면옥",
     "phone": "031-383-5191",
     "source": "안양시 비산동 - 봉가진면옥",
     "address": "경기 안양시 동안구 평촌대로427번길 27",
     "website": "http://place.map.daum.net/10459955",
     "category": "평양냉면"
    }
   },
   {
    "type": "Feature",
    "geometry": {
     "type": "Point",
     "coordinates": [
      126.96886279754536,
      37.40514691147748
     ]
    },
    "properties": {
     "pid": "19237671",
     "name": "비소원",
     "phone": "031-425-7794",
     "source": "안양시 동안구 관양동 - 대원옥",
     "address": "경기 안양시 동안구 관악대로 415",
     "website": "http://place.map.daum.net/19237671",
     "category": "평양냉면"
    }
   },
   {
    "type": "Feature",
    "geometry": {
     "type": "Point",
     "coordinates": [
      127.007299704783,
      37.2996835776959
     ]
    },
    "properties": {
     "pid": "20709345",
     "name": "육미옥",
     "phone": "031-255-8040",
     "source": "수원시 장안구 송죽동 - 육미옥",
     "address": "경기 수원시 장안구 송원로 47",
     "website": "http://place.map.daum.net/20709345",
     "category": "평양냉면"
    }
   },
   {
    "type": "Feature",
    "geometry": {
     "type": "Point",
     "coordinates": [
      127.051189922363,
      37.9038661113721
     ]
    },
    "properties": {
     "pid": "8132220",
     "name": "평남면옥",
     "phone": "031-865-2413",
     "source": "동두천시 생연동 - 평남면옥",
     "address": "경기 동두천시 생연로 127",
     "website": "http://place.map.daum.net/8132220",
     "category": "평양냉면"
    }
   },
   {
    "type": "Feature",
    "geometry": {
     "type": "Point",
     "coordinates": [
      126.971604482044,
      37.7170618629238
     ]
    },
    "properties": {
     "pid": "15305287",
     "name": "평양면옥",
     "phone": "031-826-4231",
     "source": "양주시 장흥면 - 송추 평양면옥",
     "address": "경기 양주시 장흥면 호국로 515",
     "website": "http://place.map.daum.net/15305287",
     "category": "평양냉면"
    }
   },
   {
    "type": "Feature",
    "geometry": {
     "type": "Point",
     "coordinates": [
      126.742596914096,
      37.49671270577
     ]
    },
    "properties": {
     "pid": "19629369",
     "name": "삼도갈비",
     "phone": "032-324-8600",
     "source": "부천시 상동 - 삼도갈비",
     "address": "경기 부천시 상이로85번길 32",
     "website": "http://place.map.daum.net/19629369",
     "category": "평양냉면"
    }
   },
   {
    "type": "Feature",
    "geometry": {
     "type": "Point",
     "coordinates": [
      126.842181942279,
      37.5683838869022
     ]
    },
    "properties": {
     "pid": "10759001",
     "name": "이조면옥",
     "phone": "02-3661-3457",
     "source": "가양동 - 양천향교역 - 이조면옥",
     "address": "서울 강서구 양천로 353",
     "website": "http://place.map.daum.net/10759001",
     "category": "평양냉면"
    }
   },
   {
    "type": "Feature",
    "geometry": {
     "type": "Point",
     "coordinates": [
      126.849075609571,
      37.5491944713258
     ]
    },
    "properties": {
     "pid": "16073611",
     "name": "명가냉면",
     "phone": "02-2691-2230",
     "source": "화곡동 - 화곡역 - 명가냉면",
     "address": "서울 강서구 화곡로50길 22",
     "website": "http://place.map.daum.net/16073611",
     "category": "평양냉면"
    }
   },
   {
    "type": "Feature",
    "geometry": {
     "type": "Point",
     "coordinates": [
      126.939683675789,
      37.5210561798174
     ]
    },
    "properties": {
     "pid": "10925094",
     "name": "한주면옥",
     "phone": "",
     "source": "여의도동 - 샛강역 - 한주면옥",
     "address": "서울 영등포구 63로 45",
     "website": "http://place.map.daum.net/10925094",
     "category": "평양냉면"
    }
   },
   {
    "type": "Feature",
    "geometry": {
     "type": "Point",
     "coordinates": [
      126.906790582264,
      37.5189660993437
     ]
    },
    "properties": {
     "pid": "10643743",
     "name": "함흥냉면",
     "phone": "02-2678-2722",
     "source": "영등포동 - 영등포역 - 영등포함흥냉면",
     "address": "서울 영등포구 영등포로42길 6",
     "website": "http://place.map.daum.net/10643743",
     "category": "평양냉면"
    }
   },
   {
    "type": "Feature",
    "geometry": {
     "type": "Point",
     "coordinates": [
      126.91989666216,
      37.5293552603591
     ]
    },
    "properties": {
     "pid": "1666892190",
     "name": "마약냉면여의도2호점",
     "phone": "02-761-8486",
     "source": "영등포동 - 영등포역 - 마약냉면 - 매운냉면",
     "address": "서울 영등포구 국회대로70길 12",
     "website": "http://place.map.daum.net/1666892190",
     "category": "평양냉면"
    }
   },
   {
    "type": "Feature",
    "geometry": {
     "type": "Point",
     "coordinates": [
      126.949534153796,
      37.5414018039041
     ]
    },
    "properties": {
     "pid": "19153287",
     "name": "산까치냉면",
     "phone": "",
     "source": "도화동 - 공덕역 - 산까치냉면",
     "address": "서울 마포구 도화길 35",
     "website": "http://place.map.daum.net/19153287",
     "category": "평양냉면"
    }
   },
   {
    "type": "Feature",
    "geometry": {
     "type": "Point",
     "coordinates": [
      126.946389315311,
      37.5466190059557
     ]
    },
    "properties": {
     "pid": "7990640",
     "name": "아소정 공덕본점",
     "phone": "02-703-5959",
     "source": "염리동 - 대흥역 - 아소정",
     "address": "서울 마포구 백범로25길 9",
     "website": "http://place.map.daum.net/7990640",
     "category": "평양냉면"
    }
   },
   {
    "type": "Feature",
    "geometry": {
     "type": "Point",
     "coordinates": [
      126.951544619309,
      37.5330413627371
     ]
    },
    "properties": {
     "pid": "26971351",
     "name": "신라면옥",
     "phone": "02-719-1290",
     "source": "원효로 4가 - 마포역 - 신라면옥",
     "address": "서울 용산구 원효로 69",
     "website": "http://place.map.daum.net/26971351",
     "category": "평양냉면"
    }
   },
   {
    "type": "Feature",
    "geometry": {
     "type": "Point",
     "coordinates": [
      126.909035889289,
      37.4994665102485
     ]
    },
    "properties": {
     "pid": "16534474",
     "name": "개성면옥",
     "phone": "02-832-5975",
     "source": "신길동 - 신풍역 개성면옥",
     "address": "서울 영등포구 대방천로 161",
     "website": "http://place.map.daum.net/16534474",
     "category": "평양냉면"
    }
   },
   {
    "type": "Feature",
    "geometry": {
     "type": "Point",
     "coordinates": [
      126.928799476854,
      37.5659126768563
     ]
    },
    "properties": {
     "pid": "8088062",
     "name": "청송함흥냉면전문점 본관",
     "phone": "02-334-3545",
     "source": "연희동 - 홍대입구역 - 청송함흥냉면",
     "address": "서울 서대문구 연희맛로 6",
     "website": "http://place.map.daum.net/8088062",
     "category": "평양냉면"
    }
   },
   {
    "type": "Feature",
    "geometry": {
     "type": "Point",
     "coordinates": [
      126.676350260468,
      37.5484761582998
     ]
    },
    "properties": {
     "pid": "17249312",
     "name": "산천",
     "phone": "032-566-8407",
     "source": "연희동 - 홍대입구역 - 산천칡냉면 - 칡냉면",
     "address": "인천 서구 대평로8번길 14",
     "website": "http://place.map.daum.net/17249312",
     "category": "평양냉면"
    }
   },
   {
    "type": "Feature",
    "geometry": {
     "type": "Point",
     "coordinates": [
      127.013890683171,
      37.5908584310913
     ]
    },
    "properties": {
     "pid": "26481780",
     "name": "혜화면옥",
     "phone": "",
     "source": "삼선동 - 성신여대입구역 - 혜화면옥",
     "address": "서울 성북구 보문로 193-1",
     "website": "http://place.map.daum.net/26481780",
     "category": "평양냉면"
    }
   },
   {
    "type": "Feature",
    "geometry": {
     "type": "Point",
     "coordinates": [
      127.036345711231,
      37.6464121722298
     ]
    },
    "properties": {
     "pid": "13287264",
     "name": "뚱보냉면",
     "phone": "02-992-9067",
     "source": "창동 - 창동역 - 뚱보냉면 - 칡냉면",
     "address": "서울 도봉구 도봉로110길 51",
     "website": "http://place.map.daum.net/13287264",
     "category": "평양냉면"
    }
   },
   {
    "type": "Feature",
    "geometry": {
     "type": "Point",
     "coordinates": [
      127.0448063295615,
      37.651519639360096
     ]
    },
    "properties": {
     "pid": "14701954",
     "name": "하누소 창동본점",
     "phone": "02-900-9800",
     "source": "창동 - 창동역 - 하누소",
     "address": "서울 도봉구 노해로 327",
     "website": "http://place.map.daum.net/14701954",
     "category": "평양냉면"
    }
   },
   {
    "type": "Feature",
    "geometry": {
     "type": "Point",
     "coordinates": [
      127.03775817952794,
      37.664929305235844
     ]
    },
    "properties": {
     "pid": "13287263",
     "name": "두메골칡냉면",
     "phone": "",
     "source": "창동 - 쌍문역 - 두메골칡냉면 - 칡냉면",
     "address": "서울 도봉구 도봉로145길 87",
     "website": "http://place.map.daum.net/13287263",
     "category": "평양냉면"
    }
   },
   {
    "type": "Feature",
    "geometry": {
     "type": "Point",
     "coordinates": [
      127.037093960169,
      37.6654298720102
     ]
    },
    "properties": {
     "pid": "10539490",
     "name": "시골불냉면 방학본점",
     "phone": "02-3492-7735",
     "source": "방학동 - 방학역 - 시골불냉면 - 매운냉면",
     "address": "서울 도봉구 도당로 90-1",
     "website": "http://place.map.daum.net/10539490",
     "category": "평양냉면"
    }
   },
   {
    "type": "Feature",
    "geometry": {
     "type": "Point",
     "coordinates": [
      127.010044041074,
      37.6474012175095
     ]
    },
    "properties": {
     "pid": "17217552",
     "name": "오장동함흥냉면",
     "phone": "02-997-7370",
     "source": "수유동 - 수유역 - 오장동함흥냉면",
     "address": "서울 강북구 4.19로 38",
     "website": "http://place.map.daum.net/17217552",
     "category": "평양냉면"
    }
   },
   {
    "type": "Feature",
    "geometry": {
     "type": "Point",
     "coordinates": [
      127.061900174696,
      37.6579557339405
     ]
    },
    "properties": {
     "pid": "12048553",
     "name": "이오냉면",
     "phone": "02-938-3385",
     "source": "상계동 - 노원역 - 이오냉면 - 매운냉면",
     "address": "서울 노원구 상계로1길 38-11",
     "website": "http://place.map.daum.net/12048553",
     "category": "평양냉면"
    }
   },
   {
    "type": "Feature",
    "geometry": {
     "type": "Point",
     "coordinates": [
      127.087247821718,
      37.5828117728513
     ]
    },
    "properties": {
     "pid": "15870091",
     "name": "할머니냉면",
     "phone": "02-494-7005",
     "source": "면목동 - 면목역 - 할머니냉면 - 매운냉면",
     "address": "서울 중랑구 면목로49길 24",
     "website": "http://place.map.daum.net/15870091",
     "category": "평양냉면"
    }
   },
   {
    "type": "Feature",
    "geometry": {
     "type": "Point",
     "coordinates": [
      127.083746268509,
      37.5617418421123
     ]
    },
    "properties": {
     "pid": "9464566",
     "name": "청산칡냉면 본점",
     "phone": "02-2201-8801",
     "source": "중곡동 - 군자역 - 청산칡냉면 - 칡냉면",
     "address": "서울 광진구 긴고랑로 69",
     "website": "http://place.map.daum.net/9464566",
     "category": "평양냉면"
    }
   },
   {
    "type": "Feature",
    "geometry": {
     "type": "Point",
     "coordinates": [
      127.015277764702,
      37.5744890103185
     ]
    },
    "properties": {
     "pid": "11021281",
     "name": "낙산냉면",
     "phone": "02-743-7285",
     "source": "창신동 - 동묘앞역 - 낙산냉면",
     "address": "서울 종로구 지봉로5길 8",
     "website": "http://place.map.daum.net/11021281",
     "category": "평양냉면"
    }
   },
   {
    "type": "Feature",
    "geometry": {
     "type": "Point",
     "coordinates": [
      127.01575830539,
      37.5771630988821
     ]
    },
    "properties": {
     "pid": "8241525",
     "name": "깃대봉냉면 창신본점",
     "phone": "02-762-4407",
     "source": "창신동 - 동묘앞역 - 깃대봉냉면 - 매운냉면",
     "address": "서울 종로구 지봉로12길 3",
     "website": "http://place.map.daum.net/8241525",
     "category": "평양냉면"
    }
   },
   {
    "type": "Feature",
    "geometry": {
     "type": "Point",
     "coordinates": [
      127.043700583545,
      37.5822701030824
     ]
    },
    "properties": {
     "pid": "10926416",
     "name": "할머니냉면",
     "phone": "02-963-5362",
     "source": "제기동 - 청량리역 - 청량리할머니냉면 - 시장냉면",
     "address": "서울 동대문구 왕산로37길 51",
     "website": "http://place.map.daum.net/10926416",
     "category": "평양냉면"
    }
   },
   {
    "type": "Feature",
    "geometry": {
     "type": "Point",
     "coordinates": [
      127.043945064171,
      37.5821654970769
     ]
    },
    "properties": {
     "pid": "16441755",
     "name": "춘천식당",
     "phone": "02-966-8194",
     "source": "제기동 - 청량리역 - 춘천냉면 - 시장냉면",
     "address": "서울 동대문구 왕산로37길 50",
     "website": "http://place.map.daum.net/16441755",
     "category": "평양냉면"
    }
   },
   {
    "type": "Feature",
    "geometry": {
     "type": "Point",
     "coordinates": [
      127.03935203460429,
      37.580116456036855
     ]
    },
    "properties": {
     "pid": "8049773",
     "name": "소문난냉면",
     "phone": "02-967-4103",
     "source": "제기동 - 제기역 - 소문난냉면 - 시장냉면",
     "address": "서울 동대문구 고산자로38길 13",
     "website": "http://place.map.daum.net/8049773",
     "category": "평양냉면"
    }
   },
   {
    "type": "Feature",
    "geometry": {
     "type": "Point",
     "coordinates": [
      127.033156422913,
      37.5784857577831
     ]
    },
    "properties": {
     "pid": "11199542",
     "name": "함경면옥",
     "phone": "02-921-7300",
     "source": "제기동 - 제기역 - 함경면옥 - 시장냉면",
     "address": "서울 동대문구 왕산로 87",
     "website": "http://place.map.daum.net/11199542",
     "category": "평양냉면"
    }
   },
   {
    "type": "Feature",
    "geometry": {
     "type": "Point",
     "coordinates": [
      126.997025162361,
      37.5715887576769
     ]
    },
    "properties": {
     "pid": "8146505",
     "name": "함흥곰보냉면",
     "phone": "02-2267-6922",
     "source": "인의동 - 종로 5가역 - 곰보함흥냉면",
     "address": "서울 종로구 창경궁로 109",
     "website": "http://place.map.daum.net/8146505",
     "category": "평양냉면"
    }
   },
   {
    "type": "Feature",
    "geometry": {
     "type": "Point",
     "coordinates": [
      126.985283903137,
      37.5735484431037
     ]
    },
    "properties": {
     "pid": "13559590",
     "name": "인사면옥",
     "phone": "",
     "source": "관훈동 - 종로 3가역 - 인사면옥",
     "address": "서울 종로구 인사동길 35-3",
     "website": "http://place.map.daum.net/13559590",
     "category": "평양냉면"
    }
   },
   {
    "type": "Feature",
    "geometry": {
     "type": "Point",
     "coordinates": [
      126.985688960277,
      37.5627689804276
     ]
    },
    "properties": {
     "pid": "7871208",
     "name": "명동함흥면옥 본점",
     "phone": "02-776-8430",
     "source": "명동 - 명동역 - 명동함흥면옥",
     "address": "서울 중구 명동10길 35-19",
     "website": "http://place.map.daum.net/7871208",
     "category": "평양냉면"
    }
   },
   {
    "type": "Feature",
    "geometry": {
     "type": "Point",
     "coordinates": [
      126.96773225155,
      37.5443922892359
     ]
    },
    "properties": {
     "pid": "15428353",
     "name": "설쌈냉면 숙대점",
     "phone": "02-704-5788",
     "source": "청파동 - 숙대입구역 - 서울쌈냉면",
     "address": "서울 용산구 청파로47길 47-5",
     "website": "http://place.map.daum.net/15428353",
     "category": "평양냉면"
    }
   },
   {
    "type": "Feature",
    "geometry": {
     "type": "Point",
     "coordinates": [
      126.968351825635,
      37.5242136420129
     ]
    },
    "properties": {
     "pid": "10630178",
     "name": "옛촌양푼이 이촌점",
     "phone": "02-795-5828",
     "source": "한강로 3가 - 이촌역 - 옛촌양푼이 - 칡냉면",
     "address": "서울 용산구 서빙고로 36",
     "website": "http://place.map.daum.net/10630178",
     "category": "평양냉면"
    }
   },
   {
    "type": "Feature",
    "geometry": {
     "type": "Point",
     "coordinates": [
      126.97088318773137,
      37.484476349673194
     ]
    },
    "properties": {
     "pid": "10435803",
     "name": "산천칡냉면전문",
     "phone": "02-3472-2849",
     "source": "사당동 - 남성역 - 산천칡냉면 - 칡냉면",
     "address": "서울 동작구 사당로12길 2",
     "website": "http://place.map.daum.net/10435803",
     "category": "평양냉면"
    }
   },
   {
    "type": "Feature",
    "geometry": {
     "type": "Point",
     "coordinates": [
      126.98187695555,
      37.4877510094111
     ]
    },
    "properties": {
     "pid": "27282095",
     "name": "이수면옥",
     "phone": "02-533-2394",
     "source": "사당동 - 이수역 - 이수면옥",
     "address": "서울 동작구 동작대로 123",
     "website": "http://place.map.daum.net/27282095",
     "category": "평양냉면"
    }
   },
   {
    "type": "Feature",
    "geometry": {
     "type": "Point",
     "coordinates": [
      127.079343975668,
      37.0533843838881
     ]
    },
    "properties": {
     "pid": "27477912",
     "name": "오장동신창면옥 본점",
     "phone": "031-682-4887",
     "source": "오장동 - 을지로 4가역 - 신창면옥",
     "address": "경기 평택시 장안길 7",
     "website": "http://place.map.daum.net/27477912",
     "category": "평양냉면"
    }
   },
   {
    "type": "Feature",
    "geometry": {
     "type": "Point",
     "coordinates": [
      127.000565934142,
      37.5643519961032
     ]
    },
    "properties": {
     "pid": "8174854",
     "name": "오장동흥남집",
     "phone": "02-2266-0735",
     "source": "오장동 - 을지로 4가역 - 흥남집",
     "address": "서울 중구 마른내로 114",
     "website": "http://place.map.daum.net/8174854",
     "category": "평양냉면"
    }
   },
   {
    "type": "Feature",
    "geometry": {
     "type": "Point",
     "coordinates": [
      126.99987775835788,
      37.56427090773028
     ]
    },
    "properties": {
     "pid": "20747449",
     "name": "오장동함흥냉면",
     "phone": "02-2267-9500",
     "source": "오장동 - 을지로 4가역 - 오장동함흥냉면",
     "address": "서울 중구 마른내로 108",
     "website": "http://place.map.daum.net/20747449",
     "category": "평양냉면"
    }
   },
   {
    "type": "Feature",
    "geometry": {
     "type": "Point",
     "coordinates": [
      126.999936615156,
      37.5646114843664
     ]
    },
    "properties": {
     "pid": "7897983",
     "name": "부산숯불갈비",
     "phone": "02-2279-5821",
     "source": "오장동 - 을지로 4가역 - 부산갈비",
     "address": "서울 중구 마른내로 107-1",
     "website": "http://place.map.daum.net/7897983",
     "category": "평양냉면"
    }
   },
   {
    "type": "Feature",
    "geometry": {
     "type": "Point",
     "coordinates": [
      126.996637592025,
      37.530863624539
     ]
    },
    "properties": {
     "pid": "7839404",
     "name": "동아냉면",
     "phone": "02-796-2796",
     "source": "보광동 - 이태원역 - 동아냉면 - 매운냉면 (한남동, 숙대, 홍대에도 분점이 있음)",
     "address": "서울 용산구 우사단로 5",
     "website": "http://place.map.daum.net/7839404",
     "category": "평양냉면"
    }
   },
   {
    "type": "Feature",
    "geometry": {
     "type": "Point",
     "coordinates": [
      127.019644993854,
      37.5482044877698
     ]
    },
    "properties": {
     "pid": "606296091",
     "name": "왕돈까스&왕냉면 금호역점",
     "phone": "02-2298-3061",
     "source": "금호동 - 금호역 - 금호냉면",
     "address": "서울 성동구 장터길 34",
     "website": "http://place.map.daum.net/606296091",
     "category": "평양냉면"
    }
   },
   {
    "type": "Feature",
    "geometry": {
     "type": "Point",
     "coordinates": [
      127.005228940529,
      37.560189277372
     ]
    },
    "properties": {
     "pid": "8608759",
     "name": "함흥에겨울냉면",
     "phone": "02-2279-2770",
     "source": "장충동 - 동대입구역 - 함흥에겨울냉면",
     "address": "서울 중구 동호로24길 21",
     "website": "http://place.map.daum.net/8608759",
     "category": "평양냉면"
    }
   },
   {
    "type": "Feature",
    "geometry": {
     "type": "Point",
     "coordinates": [
      127.056593263091,
      37.4442920846672
     ]
    },
    "properties": {
     "pid": "8064947",
     "name": "조선면옥",
     "phone": "02-2057-5526",
     "source": "원지동 - 청계산입구역 - 조선면옥",
     "address": "서울 서초구 원터2길 2",
     "website": "http://place.map.daum.net/8064947",
     "category": "평양냉면"
    }
   },
   {
    "type": "Feature",
    "geometry": {
     "type": "Point",
     "coordinates": [
      126.993115659813,
      37.4939439225313
     ]
    },
    "properties": {
     "pid": "24726061",
     "name": "서초면옥 서래마을점",
     "phone": "02-536-1423",
     "source": "방배동 - 고속터미널역 - 서초면옥",
     "address": "서울 서초구 동광로 97",
     "website": "http://place.map.daum.net/24726061",
     "category": "평양냉면"
    }
   },
   {
    "type": "Feature",
    "geometry": {
     "type": "Point",
     "coordinates": [
      126.986062406052,
      37.5023082444357
     ]
    },
    "properties": {
     "pid": "19667183",
     "name": "흥미면옥",
     "phone": "02-533-0329",
     "source": "반포동 - 구반포역 - 흥미면옥",
     "address": "서울 서초구 신반포로3길 7",
     "website": "http://place.map.daum.net/19667183",
     "category": "평양냉면"
    }
   },
   {
    "type": "Feature",
    "geometry": {
     "type": "Point",
     "coordinates": [
      127.018694549636,
      37.4942778186
     ]
    },
    "properties": {
     "pid": "23106995",
     "name": "오장동면옥 서초본점",
     "phone": "02-522-5952",
     "source": "서초동 - 교대역 - 오장동면옥",
     "address": "서울 서초구 서초중앙로22길 87",
     "website": "http://place.map.daum.net/23106995",
     "category": "평양냉면"
    }
   },
   {
    "type": "Feature",
    "geometry": {
     "type": "Point",
     "coordinates": [
      127.012606244345,
      37.4941308599955
     ]
    },
    "properties": {
     "pid": "27195007",
     "name": "중일면옥 서초점",
     "phone": "02-596-3770",
     "source": "서초동 - 교대역 - 중일면옥",
     "address": "서울 서초구 법원로2길 15",
     "website": "http://place.map.daum.net/27195007",
     "category": "평양냉면"
    }
   },
   {
    "type": "Feature",
    "geometry": {
     "type": "Point",
     "coordinates": [
      127.011108614065,
      37.491154082368
     ]
    },
    "properties": {
     "pid": "11892071",
     "name": "서초면옥 교대점",
     "phone": "02-522-1422",
     "source": "서초동 - 교대역 - 서초면옥",
     "address": "서울 서초구 반포대로28길 46",
     "website": "http://place.map.daum.net/11892071",
     "category": "평양냉면"
    }
   },
   {
    "type": "Feature",
    "geometry": {
     "type": "Point",
     "coordinates": [
      127.05579495970723,
      37.50447271946909
     ]
    },
    "properties": {
     "pid": "10406623",
     "name": "반룡산",
     "phone": "02-3446-8966",
     "source": "대치동 - 선릉역 - 반룡산",
     "address": "서울 강남구 테헤란로78길 26",
     "website": "http://place.map.daum.net/10406623",
     "category": "평양냉면"
    }
   },
   {
    "type": "Feature",
    "geometry": {
     "type": "Point",
     "coordinates": [
      127.056949894176,
      37.4973181816884
     ]
    },
    "properties": {
     "pid": "21444915",
     "name": "대치동함흥면옥",
     "phone": "02-562-3989",
     "source": "대치동 - 한티역 - 대치동함흥면옥",
     "address": "서울 강남구 도곡로 424",
     "website": "http://place.map.daum.net/21444915",
     "category": "평양냉면"
    }
   },
   {
    "type": "Feature",
    "geometry": {
     "type": "Point",
     "coordinates": [
      127.036655901063,
      37.5211487850902
     ]
    },
    "properties": {
     "pid": "15654927",
     "name": "신사면옥",
     "phone": "02-518-7228",
     "source": "신사동 - 압구정로데오역 - 신사면옥",
     "address": "서울 강남구 도산대로46길 11",
     "website": "http://place.map.daum.net/15654927",
     "category": "평양냉면"
    }
   },
   {
    "type": "Feature",
    "geometry": {
     "type": "Point",
     "coordinates": [
      127.032491399045,
      37.5278246295028
     ]
    },
    "properties": {
     "pid": "8475048",
     "name": "한일관 압구정점",
     "phone": "02-732-3735",
     "source": "신사동 - 압구정역 - 한일관 - 서울냉면",
     "address": "서울 강남구 압구정로38길 14",
     "website": "http://place.map.daum.net/8475048",
     "category": "평양냉면"
    }
   },
   {
    "type": "Feature",
    "geometry": {
     "type": "Point",
     "coordinates": [
      127.030972783415,
      37.521409900961
     ]
    },
    "properties": {
     "pid": "8163082",
     "name": "강남면옥",
     "phone": "02-3446-5539",
     "source": "신사동 - 압구정역 - 강남면옥",
     "address": "서울 강남구 논현로152길 34",
     "website": "http://place.map.daum.net/8163082",
     "category": "평양냉면"
    }
   },
   {
    "type": "Feature",
    "geometry": {
     "type": "Point",
     "coordinates": [
      126.912582017841,
      37.5811646311833
     ]
    },
    "properties": {
     "pid": "16049203",
     "name": "청와면옥함흥냉면",
     "phone": "02-309-8359",
     "source": "신사동 - 압구정역 - 함흥면옥",
     "address": "서울 서대문구 응암로 94",
     "website": "http://place.map.daum.net/16049203",
     "category": "평양냉면"
    }
   },
   {
    "type": "Feature",
    "geometry": {
     "type": "Point",
     "coordinates": [
      127.032938325771,
      37.5253809882274
     ]
    },
    "properties": {
     "pid": "17672247",
     "name": "산봉면옥",
     "phone": "02-545-0415",
     "source": "신사동 - 압구정역 - 산봉면옥",
     "address": "서울 강남구 언주로 841",
     "website": "http://place.map.daum.net/17672247",
     "category": "평양냉면"
    }
   },
   {
    "type": "Feature",
    "geometry": {
     "type": "Point",
     "coordinates": [
      127.05847545676542,
      37.51041805509452
     ]
    },
    "properties": {
     "pid": "557040723",
     "name": "경성면옥",
     "phone": "02-2016-6880",
     "source": "삼성동 - 삼성역 - 경성냉면",
     "address": "서울 강남구 테헤란로87길 36",
     "website": "http://place.map.daum.net/557040723",
     "category": "평양냉면"
    }
   },
   {
    "type": "Feature",
    "geometry": {
     "type": "Point",
     "coordinates": [
      127.12951417629,
      37.5415650120499
     ]
    },
    "properties": {
     "pid": "17026261",
     "name": "송월냉면",
     "phone": "02-484-1910",
     "source": "천호동 - 천호역 - 송월냉면 - 매운냉면",
     "address": "서울 강동구 구천면로29길 26",
     "website": "http://place.map.daum.net/17026261",
     "category": "평양냉면"
    }
   },
   {
    "type": "Feature",
    "geometry": {
     "type": "Point",
     "coordinates": [
      127.119406062208,
      37.5350416154161
     ]
    },
    "properties": {
     "pid": "9312510",
     "name": "유천냉면 풍납1동점",
     "phone": "02-471-9009",
     "source": "풍납동 - 강동구청역 - 유천칡냉면 - 칡냉면",
     "address": "서울 송파구 풍성로25나길 11",
     "website": "http://place.map.daum.net/9312510",
     "category": "평양냉면"
    }
   },
   {
    "type": "Feature",
    "geometry": {
     "type": "Point",
     "coordinates": [
      127.11899411285339,
      37.53206784079695
     ]
    },
    "properties": {
     "pid": "422743045",
     "name": "옛촌칡냉면 본점",
     "phone": "02-489-5455",
     "source": "풍납동 - 강동구청역 - 옛촌칡냉면 - 칡냉면",
     "address": "서울 송파구 풍성로26길 18",
     "website": "http://place.map.daum.net/422743045",
     "category": "평양냉면"
    }
   },
   {
    "type": "Feature",
    "geometry": {
     "type": "Point",
     "coordinates": [
      127.138772696411,
      37.5332328612616
     ]
    },
    "properties": {
     "pid": "26813219",
     "name": "함흥본가면옥",
     "phone": "02-483-8808",
     "source": "둔촌동 - 길동역 - 함흥본가면옥",
     "address": "서울 강동구 양재대로 1428",
     "website": "http://place.map.daum.net/26813219",
     "category": "평양냉면"
    }
   },
   {
    "type": "Feature",
    "geometry": {
     "type": "Point",
     "coordinates": [
      127.119995939529,
      37.5133989517105
     ]
    },
    "properties": {
     "pid": "11724754",
     "name": "윤가면옥",
     "phone": "02-412-7651",
     "source": "방이동 - 방이역 - 윤가면옥",
     "address": "서울 송파구 가락로 287",
     "website": "http://place.map.daum.net/11724754",
     "category": "평양냉면"
    }
   },
   {
    "type": "Feature",
    "geometry": {
     "type": "Point",
     "coordinates": [
      127.118462835816,
      37.51095697704
     ]
    },
    "properties": {
     "pid": "17079277",
     "name": "황산냉면",
     "phone": "02-3431-2262",
     "source": "방이동 - 방이역 - 황산냉면 - 밀면",
     "address": "서울 송파구 가락로 257",
     "website": "http://place.map.daum.net/17079277",
     "category": "평양냉면"
    }
   },
   {
    "type": "Feature",
    "geometry": {
     "type": "Point",
     "coordinates": [
      127.07977463491474,
      37.509652351093166
     ]
    },
    "properties": {
     "pid": "25049102",
     "name": "해주냉면",
     "phone": "02-424-7192",
     "source": "잠실동 - 신천역 - 해주냉면 - 매운냉면",
     "address": "서울 송파구 백제고분로7길 8-16",
     "website": "http://place.map.daum.net/25049102",
     "category": "평양냉면"
    }
   },
   {
    "type": "Feature",
    "geometry": {
     "type": "Point",
     "coordinates": [
      127.129317473282,
      37.4826684194856
     ]
    },
    "properties": {
     "pid": "20512607",
     "name": "연백냉면",
     "phone": "02-409-5054",
     "source": "문정동 - 문정역 - 연백냉면",
     "address": "서울 송파구 새말로12길 7",
     "website": "http://place.map.daum.net/20512607",
     "category": "평양냉면"
    }
   },
   {
    "type": "Feature",
    "geometry": {
     "type": "Point",
     "coordinates": [
      127.12046878278835,
      37.485269072235404
     ]
    },
    "properties": {
     "pid": "2027970955",
     "name": "함흥본가면옥 문정점",
     "phone": "",
     "source": "가락동 - 가락시장역 - 함흥본가면옥",
     "address": "",
     "website": "http://place.map.daum.net/2027970955",
     "category": "평양냉면"
    }
   }
  ],
  [
   {
    "type": "Feature",
    "geometry": {
     "type": "Point",
     "coordinates": [
      126.9799279715089,
      37.57083746078675
     ]
    },
    "properties": {
     "pid": "21326655",
     "name": "광화문미진 본점",
     "phone": "02-732-1954",
     "source": "종로 1가 - 광화문역 - 미진",
     "address": "서울 종로구 종로 19",
     "website": "http://place.map.daum.net/21326655",
     "category": "메밀국수 (소바)"
    }
   },
   {
    "type": "Feature",
    "geometry": {
     "type": "Point",
     "coordinates": [
      126.977372533762,
      37.561560344017
     ]
    },
    "properties": {
     "pid": "10553650",
     "name": "송옥",
     "phone": "02-752-3297",
     "source": "남대문로 4가 - 시청역, 회현역 - 송옥 (가로수길에 분점)",
     "address": "서울 중구 남대문로1길 11",
     "website": "http://place.map.daum.net/10553650",
     "category": "메밀국수 (소바)"
    }
   },
   {
    "type": "Feature",
    "geometry": {
     "type": "Point",
     "coordinates": [
      127.116018147064,
      37.5157707627353
     ]
    },
    "properties": {
     "pid": "275788090",
     "name": "한아람",
     "phone": "02-415-7277",
     "source": "방이동 - 잠실역 - 한아람 정육식당",
     "address": "서울 송파구 위례성대로 34",
     "website": "http://place.map.daum.net/275788090",
     "category": "메밀국수 (소바)"
    }
   },
   {
    "type": "Feature",
    "geometry": {
     "type": "Point",
     "coordinates": [
      126.979697411357,
      37.5695075521838
     ]
    },
    "properties": {
     "pid": "7885256",
     "name": "유림낙지",
     "phone": "02-723-1741",
     "source": "서소문동 - 시청역 - 유림",
     "address": "서울 종로구 종로 24-8",
     "website": "http://place.map.daum.net/7885256",
     "category": "메밀국수 (소바)"
    }
   },
   {
    "type": "Feature",
    "geometry": {
     "type": "Point",
     "coordinates": [
      126.979860616143,
      37.5182695463181
     ]
    },
    "properties": {
     "pid": "11571720",
     "name": "소바야청담",
     "phone": "02-749-7745",
     "source": "이촌동 - 동부이촌동역 - 소바야 청담",
     "address": "서울 용산구 이촌로 303",
     "website": "http://place.map.daum.net/11571720",
     "category": "메밀국수 (소바)"
    }
   },
   {
    "type": "Feature",
    "geometry": {
     "type": "Point",
     "coordinates": [
      126.933980205131,
      37.5183645366391
     ]
    },
    "properties": {
     "pid": "20746105",
     "name": "청수",
     "phone": "02-784-1559",
     "source": "여의도동 - 샛강역 - 청수",
     "address": "서울 영등포구 국제금융로 112",
     "website": "http://place.map.daum.net/20746105",
     "category": "메밀국수 (소바)"
    }
   },
   {
    "type": "Feature",
    "geometry": {
     "type": "Point",
     "coordinates": [
      127.033576859931,
      37.4961810566319
     ]
    },
    "properties": {
     "pid": "8015540",
     "name": "오무라안",
     "phone": "02-569-8610",
     "source": "역삼동 - 강남역 - 오무라안",
     "address": "서울 강남구 논현로79길 66",
     "website": "http://place.map.daum.net/8015540",
     "category": "메밀국수 (소바)"
    }
   },
   {
    "type": "Feature",
    "geometry": {
     "type": "Point",
     "coordinates": [
      127.022792775272,
      37.5097203384445
     ]
    },
    "properties": {
     "pid": "7875272",
     "name": "미나미 강남점",
     "phone": "",
     "source": "서초동 - 교대역 - 미나미",
     "address": "서울 강남구 강남대로128길 6",
     "website": "http://place.map.daum.net/7875272",
     "category": "메밀국수 (소바)"
    }
   },
   {
    "type": "Feature",
    "geometry": {
     "type": "Point",
     "coordinates": [
      127.035357676143,
      37.4740481677891
     ]
    },
    "properties": {
     "pid": "17462492",
     "name": "미우야",
     "phone": "02-577-6348",
     "source": "양재동 - 양재역, 양재 시민의 숲역 - 미우야",
     "address": "서울 서초구 강남대로23길 90",
     "website": "http://place.map.daum.net/17462492",
     "category": "메밀국수 (소바)"
    }
   },
   {
    "type": "Feature",
    "geometry": {
     "type": "Point",
     "coordinates": [
      127.021103644644,
      37.5200533642622
     ]
    },
    "properties": {
     "pid": "18324313",
     "name": "미미면가 신사점",
     "phone": "070-4211-5466",
     "source": "신사동 - 신사역 - 미미면가",
     "address": "서울 강남구 강남대로160길 29",
     "website": "http://place.map.daum.net/18324313",
     "category": "메밀국수 (소바)"
    }
   },
   {
    "type": "Feature",
    "geometry": {
     "type": "Point",
     "coordinates": [
      127.021977278884,
      37.5212425288287
     ]
    },
    "properties": {
     "pid": "8468838",
     "name": "유노추보",
     "phone": "02-545-2811",
     "source": "신사동 - 신사역 - 유노추보",
     "address": "서울 강남구 압구정로10길 36",
     "website": "http://place.map.daum.net/8468838",
     "category": "메밀국수 (소바)"
    }
   },
   {
    "type": "Feature",
    "geometry": {
     "type": "Point",
     "coordinates": [
      127.044118677191,
      37.523323055632
     ]
    },
    "properties": {
     "pid": "18742645",
     "name": "호무랑",
     "phone": "02-6947-1279",
     "source": "청담동 - 청담역 - 호무랑",
     "address": "서울 강남구 도산대로 442",
     "website": "http://place.map.daum.net/18742645",
     "category": "메밀국수 (소바)"
    }
   },
   {
    "type": "Feature",
    "geometry": {
     "type": "Point",
     "coordinates": [
      127.02352045891,
      37.5074640797902
     ]
    },
    "properties": {
     "pid": "24484094",
     "name": "히까리",
     "phone": "070-4400-8788",
     "source": "논현동 - 논현역 - 히까리",
     "address": "서울 강남구 강남대로 506",
     "website": "http://place.map.daum.net/24484094",
     "category": "메밀국수 (소바)"
    }
   },
   {
    "type": "Feature",
    "geometry": {
     "type": "Point",
     "coordinates": [
      126.98004286172093,
      37.564489965120416
     ]
    },
    "properties": {
     "pid": "21306205",
     "name": "스시조",
     "phone": "02-317-0373",
     "source": "소공동 - 을지로 입구역, 시청역 - 스시조",
     "address": "서울 중구 소공로 106",
     "website": "http://place.map.daum.net/21306205",
     "category": "메밀국수 (소바)"
    }
   },
   {
    "type": "Feature",
    "geometry": {
     "type": "Point",
     "coordinates": [
      126.924368498615,
      37.5554619644241
     ]
    },
    "properties": {
     "pid": "12391555",
     "name": "오비야",
     "phone": "02-6408-5252",
     "source": "서교동 - 홍대입구역 - 오비야",
     "address": "서울 마포구 홍익로2길 27-20",
     "website": "http://place.map.daum.net/12391555",
     "category": "메밀국수 (소바)"
    }
   },
   {
    "type": "Feature",
    "geometry": {
     "type": "Point",
     "coordinates": [
      126.976132031743,
      37.5190292984527
     ]
    },
    "properties": {
     "pid": "2072270827",
     "name": "미타니야 동부이촌점",
     "phone": "02-797-4060",
     "source": "이촌동 - 동부이촌동역 - 미타니야 (도곡동, 서초동, 현대백화점 압구정, 신세계 강남점, 현대백화점 판교점등에 분점)",
     "address": "서울 용산구 이촌로 264",
     "website": "http://place.map.daum.net/2072270827",
     "category": "메밀국수 (소바)"
    }
   },
   {
    "type": "Feature",
    "geometry": {
     "type": "Point",
     "coordinates": [
      126.976417728161,
      37.560114958298
     ]
    },
    "properties": {
     "pid": "15463889",
     "name": "우모촌",
     "phone": "02-755-3512",
     "source": "회현동 - 회현역, 남대문시장 - 우모촌",
     "address": "서울 중구 남대문시장길 7",
     "website": "http://place.map.daum.net/15463889",
     "category": "메밀국수 (소바)"
    }
   },
   {
    "type": "Feature",
    "geometry": {
     "type": "Point",
     "coordinates": [
      126.786070883982,
      37.446011364177
     ]
    },
    "properties": {
     "pid": "18871349",
     "name": "봉평막국수갈비찜",
     "phone": "031-311-9559",
     "source": "신천동 - 잠실나루역 - 봉평소바",
     "address": "경기 시흥시 호현로 65",
     "website": "http://place.map.daum.net/18871349",
     "category": "메밀국수 (소바)"
    }
   },
   {
    "type": "Feature",
    "geometry": {
     "type": "Point",
     "coordinates": [
      126.920301399217,
      37.5487558645913
     ]
    },
    "properties": {
     "pid": "12437276",
     "name": "겐로쿠우동 홍대본점",
     "phone": "02-325-8555",
     "source": "상수동 - 홍대입구역 - 겐로쿠 우동",
     "address": "서울 마포구 어울마당로 39",
     "website": "http://place.map.daum.net/12437276",
     "category": "메밀국수 (소바)"
    }
   },
   {
    "type": "Feature",
    "geometry": {
     "type": "Point",
     "coordinates": [
      127.107722223492,
      37.5109168042197
     ]
    },
    "properties": {
     "pid": "27280302",
     "name": "멘야하나비 서울본점",
     "phone": "070-8959-1108",
     "source": "송파동 - 잠실역 - 멘야 하나비",
     "address": "서울 송파구 백제고분로45길 38",
     "website": "http://place.map.daum.net/27280302",
     "category": "메밀국수 (소바)"
    }
   },
   {
    "type": "Feature",
    "geometry": {
     "type": "Point",
     "coordinates": [
      126.993061714898,
      37.4903362860425
     ]
    },
    "properties": {
     "pid": "23122567",
     "name": "묘오또",
     "phone": "02-536-5980",
     "source": "방배동 - 내방역 - 묘오또",
     "address": "서울 서초구 방배로28길 16",
     "website": "http://place.map.daum.net/23122567",
     "category": "메밀국수 (소바)"
    }
   },
   {
    "type": "Feature",
    "geometry": {
     "type": "Point",
     "coordinates": [
      126.916809209385,
      37.5548405980745
     ]
    },
    "properties": {
     "pid": "21883668",
     "name": "가츠시",
     "phone": "02-332-3407",
     "source": "서교동 - 합정역 - 가츠시",
     "address": "서울 마포구 동교로18길 5",
     "website": "http://place.map.daum.net/21883668",
     "category": "메밀국수 (소바)"
    }
   },
   {
    "type": "Feature",
    "geometry": {
     "type": "Point",
     "coordinates": [
      127.042538061209,
      37.5128972253997
     ]
    },
    "properties": {
     "pid": "22675380",
     "name": "하루엔소쿠 논현싸이더스HQ점",
     "phone": "02-546-2259",
     "source": "논현동 - 강남구청역 - 하루엔소쿠",
     "address": "서울 강남구 선릉로 629",
     "website": "http://place.map.daum.net/22675380",
     "category": "메밀국수 (소바)"
    }
   },
   {
    "type": "Feature",
    "geometry": {
     "type": "Point",
     "coordinates": [
      126.967078006001,
      37.5808572393412
     ]
    },
    "properties": {
     "pid": "1975018228",
     "name": "노부",
     "phone": "02-3210-4107",
     "source": "누하동 - 경복궁원 - 노부",
     "address": "서울 종로구 옥인길 23-6",
     "website": "http://place.map.daum.net/1975018228",
     "category": "메밀국수 (소바)"
    }
   },
   {
    "type": "Feature",
    "geometry": {
     "type": "Point",
     "coordinates": [
      127.053038919278,
      37.4998428197984
     ]
    },
    "properties": {
     "pid": "27444612",
     "name": "마초야",
     "phone": "02-6012-9057",
     "source": "대치동 - 선릉역, 한티역 - 마초야",
     "address": "서울 강남구 역삼로64길 18",
     "website": "http://place.map.daum.net/27444612",
     "category": "메밀국수 (소바)"
    }
   },
   {
    "type": "Feature",
    "geometry": {
     "type": "Point",
     "coordinates": [
      127.030329437322,
      37.4970360892476
     ]
    },
    "properties": {
     "pid": "19637934",
     "name": "우동명가 기리야마본진",
     "phone": "",
     "source": "역삼동 - 강남역 - 기리야마 본진",
     "address": "서울 강남구 강남대로84길 23",
     "website": "http://place.map.daum.net/19637934",
     "category": "메밀국수 (소바)"
    }
   },
   {
    "type": "Feature",
    "geometry": {
     "type": "Point",
     "coordinates": [
      127.000679297821,
      37.5838242949776
     ]
    },
    "properties": {
     "pid": "14556210",
     "name": "장수분식",
     "phone": "02-762-7418",
     "source": "명동 - 을지로입구역 - 장수분식",
     "address": "서울 종로구 창경궁로34길 24-9",
     "website": "http://place.map.daum.net/14556210",
     "category": "메밀국수 (소바)"
    }
   }
  ],
  [
   {
    "type": "Feature",
    "geometry": {
     "type": "Point",
     "coordinates": [
      126.816147933842,
      37.5774570636626
     ]
    },
    "properties": {
     "pid": "16989715",
     "name": "강원도고성막국수",
     "phone": "02-2665-1205",
     "source": "방화동 - 방화역 - 고성막국수",
     "address": "서울 강서구 방화대로49길 6-7",
     "website": "http://place.map.daum.net/16989715",
     "category": "막국수"
    }
   },
   {
    "type": "Feature",
    "geometry": {
     "type": "Point",
     "coordinates": [
      127.008216122217,
      37.5530459993937
     ]
    },
    "properties": {
     "pid": "16445172",
     "name": "처가집",
     "phone": "02-2235-4589",
     "source": "다산동 - 약수역 - 처가집",
     "address": "서울 중구 동호로11가길 22",
     "website": "http://place.map.daum.net/16445172",
     "category": "막국수"
    }
   },
   {
    "type": "Feature",
    "geometry": {
     "type": "Point",
     "coordinates": [
      127.010158166079,
      37.5534242674395
     ]
    },
    "properties": {
     "pid": "8076538",
     "name": "진남포면옥",
     "phone": "02-2252-2457",
     "source": "약수동 - 약수역 - 진남포면옥",
     "address": "서울 중구 다산로 108",
     "website": "http://place.map.daum.net/8076538",
     "category": "막국수"
    }
   },
   {
    "type": "Feature",
    "geometry": {
     "type": "Point",
     "coordinates": [
      127.01031863376261,
      37.555830097762694
     ]
    },
    "properties": {
     "pid": "21722308",
     "name": "만포막국수",
     "phone": "02-2235-1357",
     "source": "다산동 - 약수역 - 만포막국수",
     "address": "서울 중구 동호로14길 2",
     "website": "http://place.map.daum.net/21722308",
     "category": "막국수"
    }
   },
   {
    "type": "Feature",
    "geometry": {
     "type": "Point",
     "coordinates": [
      127.085158171251,
      37.5094575796711
     ]
    },
    "properties": {
     "pid": "14878561",
     "name": "남경막국수 신천점",
     "phone": "02-417-0060",
     "source": "잠실동 - 신천역 - 남경막국수",
     "address": "서울 송파구 백제고분로7길 52-29",
     "website": "http://place.map.daum.net/14878561",
     "category": "막국수"
    }
   },
   {
    "type": "Feature",
    "geometry": {
     "type": "Point",
     "coordinates": [
      126.963060803669,
      37.5359107089117
     ]
    },
    "properties": {
     "pid": "1770466898",
     "name": "박명도봉평메밀막국수 본점",
     "phone": "02-717-7711",
     "source": "원효로 2가 - 효창공원앞역 - 봉평 메밀 막국수",
     "address": "서울 용산구 원효로 184",
     "website": "http://place.map.daum.net/1770466898",
     "category": "막국수"
    }
   },
   {
    "type": "Feature",
    "geometry": {
     "type": "Point",
     "coordinates": [
      127.124554380837,
      37.5284409724457
     ]
    },
    "properties": {
     "pid": "8165290",
     "name": "화진포막국수 강동구청점",
     "phone": "02-478-1539",
     "source": "성내동 - 강동구청역 - 화진포 막국수",
     "address": "서울 강동구 성내로10길 12",
     "website": "http://place.map.daum.net/8165290",
     "category": "막국수"
    }
   },
   {
    "type": "Feature",
    "geometry": {
     "type": "Point",
     "coordinates": [
      127.016039622311,
      37.4952801285782
     ]
    },
    "properties": {
     "pid": "130561410",
     "name": "샘밭막국수 서초점",
     "phone": "02-585-1702",
     "source": "서초동 - 교대역 - 샘밭막국수",
     "address": "서울 서초구 서초중앙로24길 27",
     "website": "http://place.map.daum.net/130561410",
     "category": "막국수"
    }
   },
   {
    "type": "Feature",
    "geometry": {
     "type": "Point",
     "coordinates": [
      127.027826419765,
      37.4684026475805
     ]
    },
    "properties": {
     "pid": "20145644",
     "name": "봉평막국수전문",
     "phone": "02-572-6465",
     "source": "서초동 - 교대역 - 우면 봉평 막국수",
     "address": "서울 서초구 바우뫼로4길 53",
     "website": "http://place.map.daum.net/20145644",
     "category": "막국수"
    }
   },
   {
    "type": "Feature",
    "geometry": {
     "type": "Point",
     "coordinates": [
      126.997369447499,
      37.5669288169589
     ]
    },
    "properties": {
     "pid": "8098734",
     "name": "산골면옥춘천막국수",
     "phone": "02-2266-5409",
     "source": "을지로 - 을지로 4가역 - 춘천막국수(산골면옥)",
     "address": "서울 중구 을지로 175-3",
     "website": "http://place.map.daum.net/8098734",
     "category": "막국수"
    }
   },
   {
    "type": "Feature",
    "geometry": {
     "type": "Point",
     "coordinates": [
      126.99239296801,
      37.5284379311332
     ]
    },
    "properties": {
     "pid": "9341771",
     "name": "유진막국수",
     "phone": "02-797-2307",
     "source": "동빙고동 - 녹사평역 - 유진막국수",
     "address": "서울 용산구 장문로 18",
     "website": "http://place.map.daum.net/9341771",
     "category": "막국수"
    }
   },
   {
    "type": "Feature",
    "geometry": {
     "type": "Point",
     "coordinates": [
      127.057811058256,
      37.5698951852154
     ]
    },
    "properties": {
     "pid": "9141738",
     "name": "성천막국수",
     "phone": "02-2244-5529",
     "source": "답십리동 - 답십리역 - 성천막국수 (양재동에 분점)",
     "address": "서울 동대문구 답십리로48나길 2",
     "website": "http://place.map.daum.net/9141738",
     "category": "막국수"
    }
   },
   {
    "type": "Feature",
    "geometry": {
     "type": "Point",
     "coordinates": [
      127.09794197324524,
      37.51128472654813
     ]
    },
    "properties": {
     "pid": "27497812",
     "name": "메밀공방 롯데월드점",
     "phone": "02-2143-1253",
     "source": "석촌동 - 석촌역 - 메밀공방",
     "address": "서울 송파구 올림픽로 240",
     "website": "http://place.map.daum.net/27497812",
     "category": "막국수"
    }
   },
   {
    "type": "Feature",
    "geometry": {
     "type": "Point",
     "coordinates": [
      127.128166629857,
      37.5528577932415
     ]
    },
    "properties": {
     "pid": "26646485",
     "name": "동신면가",
     "phone": "02-481-8892",
     "source": "암사동 - 암사역 - 동신면가",
     "address": "서울 강동구 올림픽로 803",
     "website": "http://place.map.daum.net/26646485",
     "category": "막국수"
    }
   },
   {
    "type": "Feature",
    "geometry": {
     "type": "Point",
     "coordinates": [
      126.969289654313,
      37.5765871236368
     ]
    },
    "properties": {
     "pid": "10459414",
     "name": "봉평막국수",
     "phone": "02-723-4830",
     "source": "필운동 - 경복궁역 - 봉평막국수",
     "address": "서울 종로구 필운대로 6",
     "website": "http://place.map.daum.net/10459414",
     "category": "막국수"
    }
   },
   {
    "type": "Feature",
    "geometry": {
     "type": "Point",
     "coordinates": [
      126.971108762287,
      37.5797807060788
     ]
    },
    "properties": {
     "pid": "24869605",
     "name": "잘빠진메밀 서촌점",
     "phone": "070-4142-1214",
     "source": "통인동 - 경복궁역 - 잘빠진메밀",
     "address": "서울 종로구 자하문로 41-1",
     "website": "http://place.map.daum.net/24869605",
     "category": "막국수"
    }
   },
   {
    "type": "Feature",
    "geometry": {
     "type": "Point",
     "coordinates": [
      126.973699324047,
      37.5788911296426
     ]
    },
    "properties": {
     "pid": "16418693",
     "name": "메밀꽃필무렵",
     "phone": "02-734-0367",
     "source": "통의동 - 경복궁역 - 메밀꽃 필무렵",
     "address": "서울 종로구 효자로 31-1",
     "website": "http://place.map.daum.net/16418693",
     "category": "막국수"
    }
   },
   {
    "type": "Feature",
    "geometry": {
     "type": "Point",
     "coordinates": [
      127.012587902346,
      37.6540574363257
     ]
    },
    "properties": {
     "pid": "13309306",
     "name": "춘천막국수전문",
     "phone": "02-993-2229",
     "source": "우이동 - 쌍문역 - 춘천막국수",
     "address": "서울 강북구 삼양로 573",
     "website": "http://place.map.daum.net/13309306",
     "category": "막국수"
    }
   },
   {
    "type": "Feature",
    "geometry": {
     "type": "Point",
     "coordinates": [
      127.022209097465,
      37.6467328267228
     ]
    },
    "properties": {
     "pid": "16067150",
     "name": "원조막국수",
     "phone": "02-991-5215",
     "source": "수유동 - 수유역 - 원조막국수",
     "address": "서울 강북구 노해로33길 42",
     "website": "http://place.map.daum.net/16067150",
     "category": "막국수"
    }
   },
   {
    "type": "Feature",
    "geometry": {
     "type": "Point",
     "coordinates": [
      127.070799589255,
      37.65884089825
     ]
    },
    "properties": {
     "pid": "16060214",
     "name": "평창메밀국수",
     "phone": "02-932-8770",
     "source": "상계동 - 상계역 - 평창메밀",
     "address": "서울 노원구 상계로 147",
     "website": "http://place.map.daum.net/16060214",
     "category": "막국수"
    }
   },
   {
    "type": "Feature",
    "geometry": {
     "type": "Point",
     "coordinates": [
      126.921697632347,
      37.6159672956339
     ]
    },
    "properties": {
     "pid": "10342053",
     "name": "메밀마을",
     "phone": "02-386-8903",
     "source": "대조동 - 연신내역 - 메밀마을",
     "address": "서울 은평구 연서로26길 23-1",
     "website": "http://place.map.daum.net/10342053",
     "category": "막국수"
    }
   },
   {
    "type": "Feature",
    "geometry": {
     "type": "Point",
     "coordinates": [
      126.934154339228,
      37.5724750312594
     ]
    },
    "properties": {
     "pid": "16904322",
     "name": "녹원쌈밥",
     "phone": "02-336-9483",
     "source": "연희동 - 홍대입구역 - 녹원쌈밥",
     "address": "서울 서대문구 연희로25길 22",
     "website": "http://place.map.daum.net/16904322",
     "category": "막국수"
    }
   },
   {
    "type": "Feature",
    "geometry": {
     "type": "Point",
     "coordinates": [
      127.141479153466,
      37.5452922300043
     ]
    },
    "properties": {
     "pid": "16932802",
     "name": "봉평산골메밀촌 굽은다리역점",
     "phone": "02-545-6663",
     "source": "명일동 - 명일역, 굽은다리역 - 봉평메밀촌",
     "address": "서울 강동구 양재대로127길 21",
     "website": "http://place.map.daum.net/16932802",
     "category": "막국수"
    }
   },
   {
    "type": "Feature",
    "geometry": {
     "type": "Point",
     "coordinates": [
      126.835076440227,
      37.5526427861113
     ]
    },
    "properties": {
     "pid": "21360740",
     "name": "똑순이막국수",
     "phone": "02-2064-2626",
     "source": "내발산동 - 우장산역 - 똑순이막국수",
     "address": "서울 강서구 강서로47길 19",
     "website": "http://place.map.daum.net/21360740",
     "category": "막국수"
    }
   },
   {
    "type": "Feature",
    "geometry": {
     "type": "Point",
     "coordinates": [
      126.9882850843,
      37.4925163469457
     ]
    },
    "properties": {
     "pid": "16013228",
     "name": "양양메밀막국수",
     "phone": "02-3482-3738",
     "source": "방배동 - 이수역, 내방역 - 양양메밀막국수",
     "address": "서울 서초구 동광로15길 10",
     "website": "http://place.map.daum.net/16013228",
     "category": "막국수"
    }
   },
   {
    "type": "Feature",
    "geometry": {
     "type": "Point",
     "coordinates": [
      127.004659625902,
      37.5780938847705
     ]
    },
    "properties": {
     "pid": "13578091",
     "name": "모티집",
     "phone": "02-747-4137",
     "source": "동숭동 - 혜화역 - 모티집",
     "address": "서울 종로구 이화장2길 1",
     "website": "http://place.map.daum.net/13578091",
     "category": "막국수"
    }
   },
   {
    "type": "Feature",
    "geometry": {
     "type": "Point",
     "coordinates": [
      126.939973634643,
      37.6559457105446
     ]
    },
    "properties": {
     "pid": "15265014",
     "name": "평양초계탕막국수",
     "phone": "02-388-2977",
     "source": "진관동 - 구파발역(북한산) - 평양초계탕 막국수",
     "address": "서울 은평구 북한산로 281-15",
     "website": "http://place.map.daum.net/15265014",
     "category": "막국수"
    }
   },
   {
    "type": "Feature",
    "geometry": {
     "type": "Point",
     "coordinates": [
      126.91132778551612,
      37.499000041912595
     ]
    },
    "properties": {
     "pid": "27183147",
     "name": "봉평막국수",
     "phone": "02-831-0867",
     "source": "신원동 - 청계산입구역 - 봉평막국수",
     "address": "서울 영등포구 대방천로 184",
     "website": "http://place.map.daum.net/27183147",
     "category": "막국수"
    }
   },
   {
    "type": "Feature",
    "geometry": {
     "type": "Point",
     "coordinates": [
      126.949187139503,
      37.5408673622472
     ]
    },
    "properties": {
     "pid": "1569892536",
     "name": "봉평메밀막국수",
     "phone": "",
     "source": "도화동 - 마포역 - 봉평 메밀 막국수",
     "address": "서울 마포구 도화길 29",
     "website": "http://place.map.daum.net/1569892536",
     "category": "막국수"
    }
   },
   {
    "type": "Feature",
    "geometry": {
     "type": "Point",
     "coordinates": [
      127.011959013254,
      37.6048960846932
     ]
    },
    "properties": {
     "pid": "8730828",
     "name": "강릉메밀촌",
     "phone": "02-911-2232",
     "source": "정릉동 - 길음역 - 강릉 메밀촌 (메밀촌)",
     "address": "서울 성북구 보국문로2길 3",
     "website": "http://place.map.daum.net/8730828",
     "category": "막국수"
    }
   },
   {
    "type": "Feature",
    "geometry": {
     "type": "Point",
     "coordinates": [
      127.055380929832,
      37.4982163299549
     ]
    },
    "properties": {
     "pid": "26845505",
     "name": "메밀연가",
     "phone": "02-2052-8700",
     "source": "대치동 - 한티역 - 메밀연가",
     "address": "서울 강남구 선릉로62길 37",
     "website": "http://place.map.daum.net/26845505",
     "category": "막국수"
    }
   },
   {
    "type": "Feature",
    "geometry": {
     "type": "Point",
     "coordinates": [
      126.931790787077,
      37.5674605516899
     ]
    },
    "properties": {
     "pid": "799489991",
     "name": "호천식당",
     "phone": "02-334-0749",
     "source": "연희동 - 홍대입구역 - 호천식당",
     "address": "서울 서대문구 연희로14길 5",
     "website": "http://place.map.daum.net/799489991",
     "category": "막국수"
    }
   },
   {
    "type": "Feature",
    "geometry": {
     "type": "Point",
     "coordinates": [
      127.143231147319,
      37.5430880772249
     ]
    },
    "properties": {
     "pid": "13287059",
     "name": "민성막국수",
     "phone": "02-473-8349",
     "source": "길동 - 굽은다리역 - 민성막국수",
     "address": "서울 강동구 양재대로124길 19",
     "website": "http://place.map.daum.net/13287059",
     "category": "막국수"
    }
   },
   {
    "type": "Feature",
    "geometry": {
     "type": "Point",
     "coordinates": [
      127.039583192827,
      37.5034593260918
     ]
    },
    "properties": {
     "pid": "18522215",
     "name": "백운봉막국수 본점",
     "phone": "02-554-5155",
     "source": "역삼동 - 역삼역 - 백운봉막국수",
     "address": "서울 강남구 언주로93길 30",
     "website": "http://place.map.daum.net/18522215",
     "category": "막국수"
    }
   },
   {
    "type": "Feature",
    "geometry": {
     "type": "Point",
     "coordinates": [
      126.889702348695,
      37.4778546951962
     ]
    },
    "properties": {
     "pid": "8117410",
     "name": "춘천옥",
     "phone": "02-868-9937",
     "source": "가산동 - 가산디지털역 - 춘천옥",
     "address": "서울 금천구 디지털로12길 19",
     "website": "http://place.map.daum.net/8117410",
     "category": "막국수"
    }
   }
  ],
  [
   {
    "type": "Feature",
    "geometry": {
     "type": "Point",
     "coordinates": [
      127.077653612313,
      37.619477973192
     ]
    },
    "properties": {
     "pid": "8083654",
     "name": "제일콩집",
     "phone": "02-972-7016",
     "source": "공릉동 - 태릉입구역 - 제일콩집",
     "address": "서울 노원구 동일로174길 37-8",
     "website": "http://place.map.daum.net/8083654",
     "category": "콩국수"
    }
   },
   {
    "type": "Feature",
    "geometry": {
     "type": "Point",
     "coordinates": [
      126.903837807898,
      37.5210324345031
     ]
    },
    "properties": {
     "pid": "12983266",
     "name": "서민준밀밭",
     "phone": "02-2634-6848",
     "source": "영등포동 - 영등포시장역 - 서민준밀밭",
     "address": "서울 영등포구 영신로40길 22-1",
     "website": "http://place.map.daum.net/12983266",
     "category": "콩국수"
    }
   },
   {
    "type": "Feature",
    "geometry": {
     "type": "Point",
     "coordinates": [
      126.999429503644,
      37.568907431526
     ]
    },
    "properties": {
     "pid": "12394402",
     "name": "강산옥",
     "phone": "02-2273-1591",
     "source": "주교동 - 을지로 4가역 - 강산옥",
     "address": "서울 중구 청계천로 196-1",
     "website": "http://place.map.daum.net/12394402",
     "category": "콩국수"
    }
   },
   {
    "type": "Feature",
    "geometry": {
     "type": "Point",
     "coordinates": [
      126.974542652517,
      37.5624895962605
     ]
    },
    "properties": {
     "pid": "11152625",
     "name": "진주회관",
     "phone": "02-753-5388",
     "source": "서소문동 - 시청역 - 진주회관",
     "address": "서울 중구 세종대로11길 26",
     "website": "http://place.map.daum.net/11152625",
     "category": "콩국수"
    }
   },
   {
    "type": "Feature",
    "geometry": {
     "type": "Point",
     "coordinates": [
      126.926960229824,
      37.5205984955116
     ]
    },
    "properties": {
     "pid": "8094563",
     "name": "진주집",
     "phone": "02-780-6108",
     "source": "여의도동 - 여의도역 - 진주집",
     "address": "서울 영등포구 국제금융로6길 33",
     "website": "http://place.map.daum.net/8094563",
     "category": "콩국수"
    }
   },
   {
    "type": "Feature",
    "geometry": {
     "type": "Point",
     "coordinates": [
      127.063149499256,
      37.5003063708259
     ]
    },
    "properties": {
     "pid": "15103116",
     "name": "맛자랑",
     "phone": "02-555-8389",
     "source": "대치동 - 한티역 - 맛자랑",
     "address": "서울 강남구 도곡로87길 7",
     "website": "http://place.map.daum.net/15103116",
     "category": "콩국수"
    }
   },
   {
    "type": "Feature",
    "geometry": {
     "type": "Point",
     "coordinates": [
      127.01142244405,
      37.5915686775837
     ]
    },
    "properties": {
     "pid": "13010697",
     "name": "달려라메기",
     "phone": "02-925-5234",
     "source": "동소문동 - 한성대입구역 - 달려라메기",
     "address": "서울 성북구 동소문로13가길 28",
     "website": "http://place.map.daum.net/13010697",
     "category": "콩국수"
    }
   },
   {
    "type": "Feature",
    "geometry": {
     "type": "Point",
     "coordinates": [
      127.034115460694,
      37.5167706707282
     ]
    },
    "properties": {
     "pid": "8121093",
     "name": "가람국시 논현동점",
     "phone": "02-541-8200",
     "source": "논현동 - 학동역 - 가람국시",
     "address": "서울 강남구 언주로135길 13",
     "website": "http://place.map.daum.net/8121093",
     "category": "콩국수"
    }
   },
   {
    "type": "Feature",
    "geometry": {
     "type": "Point",
     "coordinates": [
      127.032817780264,
      37.4981094238993
     ]
    },
    "properties": {
     "pid": "27204005",
     "name": "우밀가안동국시 역삼점",
     "phone": "02-554-1855",
     "source": "역삼동 - 강남역 - 우밀가 안동국시",
     "address": "서울 강남구 테헤란로10길 21",
     "website": "http://place.map.daum.net/27204005",
     "category": "콩국수"
    }
   },
   {
    "type": "Feature",
    "geometry": {
     "type": "Point",
     "coordinates": [
      126.97892063104,
      37.5624147753664
     ]
    },
    "properties": {
     "pid": "15892869",
     "name": "애성회관",
     "phone": "02-352-0303",
     "source": "북창동 - 시청역 - 애성회관",
     "address": "서울 중구 남대문로5길 23",
     "website": "http://place.map.daum.net/15892869",
     "category": "콩국수"
    }
   },
   {
    "type": "Feature",
    "geometry": {
     "type": "Point",
     "coordinates": [
      127.040675786406,
      37.5161450992407
     ]
    },
    "properties": {
     "pid": "16557397",
     "name": "정가네손칼국수",
     "phone": "",
     "source": "논현동 - 강남구청역 - 정가네 손칼국수",
     "address": "서울 강남구 선릉로129길 11",
     "website": "http://place.map.daum.net/16557397",
     "category": "콩국수"
    }
   },
   {
    "type": "Feature",
    "geometry": {
     "type": "Point",
     "coordinates": [
      127.00436997467,
      37.5808365214926
     ]
    },
    "properties": {
     "pid": "8200814",
     "name": "국수가 대학로본점",
     "phone": "02-3673-5798",
     "source": "동숭동 - 혜화역 - 국수가",
     "address": "서울 종로구 동숭2길 1",
     "website": "http://place.map.daum.net/8200814",
     "category": "콩국수"
    }
   },
   {
    "type": "Feature",
    "geometry": {
     "type": "Point",
     "coordinates": [
      127.059388229881,
      37.5147171911626
     ]
    },
    "properties": {
     "pid": "7928439",
     "name": "삼성국수",
     "phone": "02-3442-1957",
     "source": "삼성동 - 삼성역, 청담역 - 삼성국수",
     "address": "서울 강남구 영동대로 611",
     "website": "http://place.map.daum.net/7928439",
     "category": "콩국수"
    }
   },
   {
    "type": "Feature",
    "geometry": {
     "type": "Point",
     "coordinates": [
      126.985625615773,
      37.5625671495089
     ]
    },
    "properties": {
     "pid": "10332413",
     "name": "명동교자 본점",
     "phone": "02-776-5348",
     "source": "명동 - 명동역 - 명동교자",
     "address": "서울 중구 명동10길 29",
     "website": "http://place.map.daum.net/10332413",
     "category": "콩국수"
    }
   },
   {
    "type": "Feature",
    "geometry": {
     "type": "Point",
     "coordinates": [
      127.04912564342,
      37.4785374820562
     ]
    },
    "properties": {
     "pid": "9011542",
     "name": "밀란비빔국수 개포본점",
     "phone": "02-574-3216",
     "source": "개포동 - 매봉역 - 밀란국수",
     "address": "서울 강남구 개포로28길 4",
     "website": "http://place.map.daum.net/9011542",
     "category": "콩국수"
    }
   },
   {
    "type": "Feature",
    "geometry": {
     "type": "Point",
     "coordinates": [
      126.914080143084,
      37.6133779607705
     ]
    },
    "properties": {
     "pid": "16706334",
     "name": "윈첼지리산생고기",
     "phone": "02-352-8449",
     "source": "갈현동 - 구산역 - 윈첼지리산",
     "address": "서울 은평구 연서로17길 29",
     "website": "http://place.map.daum.net/16706334",
     "category": "콩국수"
    }
   },
   {
    "type": "Feature",
    "geometry": {
     "type": "Point",
     "coordinates": [
      127.070903613814,
      37.5344788279192
     ]
    },
    "properties": {
     "pid": "8320719",
     "name": "뚝배기바지락칼국수보쌈",
     "phone": "02-452-6062",
     "source": "자양동 - 건대입구역, 뚝섬유원지역 - 뚝배기바지락 칼국수",
     "address": "서울 광진구 뚝섬로 548",
     "website": "http://place.map.daum.net/8320719",
     "category": "콩국수"
    }
   },
   {
    "type": "Feature",
    "geometry": {
     "type": "Point",
     "coordinates": [
      126.973380309788,
      37.5336898160076
     ]
    },
    "properties": {
     "pid": "13320353",
     "name": "옛집국수",
     "phone": "02-794-8364",
     "source": "한강로 1가 - 삼각지역 - 옛집",
     "address": "서울 용산구 한강대로62길 26",
     "website": "http://place.map.daum.net/13320353",
     "category": "콩국수"
    }
   },
   {
    "type": "Feature",
    "geometry": {
     "type": "Point",
     "coordinates": [
      126.96303431322,
      37.5070497791868
     ]
    },
    "properties": {
     "pid": "18751205",
     "name": "수목식당",
     "phone": "02-816-3556",
     "source": "흑석동 - 흑석역 - 수목식당",
     "address": "서울 동작구 서달로14나길 28",
     "website": "http://place.map.daum.net/18751205",
     "category": "콩국수"
    }
   },
   {
    "type": "Feature",
    "geometry": {
     "type": "Point",
     "coordinates": [
      127.009853698531,
      37.6475742224039
     ]
    },
    "properties": {
     "pid": "11970526",
     "name": "예와손만두",
     "phone": "02-905-9659",
     "source": "수유동 - 수유역 - 예와손만두",
     "address": "서울 강북구 4.19로 40-8",
     "website": "http://place.map.daum.net/11970526",
     "category": "콩국수"
    }
   },
   {
    "type": "Feature",
    "geometry": {
     "type": "Point",
     "coordinates": [
      126.904852895292,
      37.5518943163398
     ]
    },
    "properties": {
     "pid": "13494990",
     "name": "원당국수잘하는집",
     "phone": "02-322-5582",
     "source": "합정동 - 망원역 - 국수 잘하는 집",
     "address": "서울 마포구 동교로 22",
     "website": "http://place.map.daum.net/13494990",
     "category": "콩국수"
    }
   },
   {
    "type": "Feature",
    "geometry": {
     "type": "Point",
     "coordinates": [
      127.055276702242,
      37.5040981448889
     ]
    },
    "properties": {
     "pid": "8123533",
     "name": "피양콩할마니 본점",
     "phone": "02-508-0476",
     "source": "역삼동 - 언주역 - 피양할머니",
     "address": "서울 강남구 삼성로81길 30",
     "website": "http://place.map.daum.net/8123533",
     "category": "콩국수"
    }
   },
   {
    "type": "Feature",
    "geometry": {
     "type": "Point",
     "coordinates": [
      127.01238139490218,
      37.49136465880921
     ]
    },
    "properties": {
     "pid": "27322779",
     "name": "교대밀밭",
     "phone": "02-585-7980",
     "source": "서초동 - 교대역 - 교대밀밭",
     "address": "서울 서초구 반포대로26길 61",
     "website": "http://place.map.daum.net/27322779",
     "category": "콩국수"
    }
   },
   {
    "type": "Feature",
    "geometry": {
     "type": "Point",
     "coordinates": [
      127.02292861395,
      37.5100915260471
     ]
    },
    "properties": {
     "pid": "13624172",
     "name": "손국시",
     "phone": "02-3444-5488",
     "source": "논현동 - 압구정 로데오역, 강남구청역 - 손국시",
     "address": "서울 강남구 학동로2길 19",
     "website": "http://place.map.daum.net/13624172",
     "category": "콩국수"
    }
   },
   {
    "type": "Feature",
    "geometry": {
     "type": "Point",
     "coordinates": [
      127.04790507397,
      37.4792407704576
     ]
    },
    "properties": {
     "pid": "19010584",
     "name": "개성편수",
     "phone": "02-577-6560",
     "source": "개포동 - 매봉역, 양재 시민의 숲역 - 개성편수",
     "address": "서울 강남구 개포로25길 3-4",
     "website": "http://place.map.daum.net/19010584",
     "category": "콩국수"
    }
   },
   {
    "type": "Feature",
    "geometry": {
     "type": "Point",
     "coordinates": [
      126.973699324047,
      37.5788911296426
     ]
    },
    "properties": {
     "pid": "16418693",
     "name": "메밀꽃필무렵",
     "phone": "02-734-0367",
     "source": "통의동 - 경복궁역 - 메밀꽃필무렵",
     "address": "서울 종로구 효자로 31-1",
     "website": "http://place.map.daum.net/16418693",
     "category": "콩국수"
    }
   },
   {
    "type": "Feature",
    "geometry": {
     "type": "Point",
     "coordinates": [
      127.001104686256,
      37.5631879049788
     ]
    },
    "properties": {
     "pid": "19338775",
     "name": "만나손칼국수",
     "phone": "02-2266-6556",
     "source": "충무로 5가 - 동대문 역사문화공원역 - 만나손칼국수",
     "address": "서울 중구 동호로31길 29",
     "website": "http://place.map.daum.net/19338775",
     "category": "콩국수"
    }
   },
   {
    "type": "Feature",
    "geometry": {
     "type": "Point",
     "coordinates": [
      127.062676160603,
      37.5887703257628
     ]
    },
    "properties": {
     "pid": "26948071",
     "name": "콩보 휘경점",
     "phone": "02-2215-5015",
     "source": "휘경동 - 회기역 - 콩보",
     "address": "서울 동대문구 망우로18길 26",
     "website": "http://place.map.daum.net/26948071",
     "category": "콩국수"
    }
   },
   {
    "type": "Feature",
    "geometry": {
     "type": "Point",
     "coordinates": [
      127.093194074917,
      37.5393683861297
     ]
    },
    "properties": {
     "pid": "13113794",
     "name": "민속손국시",
     "phone": "02-444-7833",
     "source": "구의동 - 강변역, 구의역 - 민속손국시",
     "address": "서울 광진구 아차산로 458",
     "website": "http://place.map.daum.net/13113794",
     "category": "콩국수"
    }
   },
   {
    "type": "Feature",
    "geometry": {
     "type": "Point",
     "coordinates": [
      126.866883952145,
      37.5486969155552
     ]
    },
    "properties": {
     "pid": "16740680",
     "name": "이용성국수 본점",
     "phone": "02-2652-0748",
     "source": "목동 - 등촌역 - 이용성국수",
     "address": "서울 양천구 목동중앙북로7가길 10",
     "website": "http://place.map.daum.net/16740680",
     "category": "콩국수"
    }
   },
   {
    "type": "Feature",
    "geometry": {
     "type": "Point",
     "coordinates": [
      126.966044472281,
      37.5931212602688
     ]
    },
    "properties": {
     "pid": "8505372",
     "name": "자하손만두",
     "phone": "02-379-2648",
     "source": "부암동 - 경복궁역 - 자하손만두",
     "address": "서울 종로구 백석동길 12",
     "website": "http://place.map.daum.net/8505372",
     "category": "콩국수"
    }
   },
   {
    "type": "Feature",
    "geometry": {
     "type": "Point",
     "coordinates": [
      127.086670431874,
      37.5378704863427
     ]
    },
    "properties": {
     "pid": "7831256",
     "name": "대원칼국수",
     "phone": "02-454-3112",
     "source": "구의동 - 강변역 - 대원칼국수",
     "address": "서울 광진구 자양로18길 56",
     "website": "http://place.map.daum.net/7831256",
     "category": "콩국수"
    }
   },
   {
    "type": "Feature",
    "geometry": {
     "type": "Point",
     "coordinates": [
      126.954051323442,
      37.511666978205
     ]
    },
    "properties": {
     "pid": "13597762",
     "name": "소문난명품잔치국수",
     "phone": "02-824-3005",
     "source": "노량진 - 노들역 - 소문난명품잔치국수",
     "address": "서울 동작구 노량진로24길 36",
     "website": "http://place.map.daum.net/13597762",
     "category": "콩국수"
    }
   },
   {
    "type": "Feature",
    "geometry": {
     "type": "Point",
     "coordinates": [
      126.857574110223,
      37.5195008551119
     ]
    },
    "properties": {
     "pid": "8344070",
     "name": "살구나무집칼국수",
     "phone": "02-2652-9991",
     "source": "신정동 - 신정네거리역 - 살구나무집칼국수",
     "address": "서울 양천구 중앙로32길 35",
     "website": "http://place.map.daum.net/8344070",
     "category": "콩국수"
    }
   },
   {
    "type": "Feature",
    "geometry": {
     "type": "Point",
     "coordinates": [
      127.029998766121,
      37.4845698339127
     ]
    },
    "properties": {
     "pid": "25038356",
     "name": "임병주산동손칼국수",
     "phone": "02-3473-7972",
     "source": "서초동 - 양재역 - 임병주 산동 칼국수",
     "address": "서울 서초구 강남대로37길 63",
     "website": "http://place.map.daum.net/25038356",
     "category": "콩국수"
    }
   },
   {
    "type": "Feature",
    "geometry": {
     "type": "Point",
     "coordinates": [
      126.919281631805,
      37.6212598718049
     ]
    },
    "properties": {
     "pid": "16470449",
     "name": "가이오국수 연신내점",
     "phone": "02-6014-4925",
     "source": "갈현동 - 연신내역 - 가이오국수",
     "address": "서울 은평구 통일로83길 6-4",
     "website": "http://place.map.daum.net/16470449",
     "category": "콩국수"
    }
   },
   {
    "type": "Feature",
    "geometry": {
     "type": "Point",
     "coordinates": [
      127.103047570819,
      37.5462942886825
     ]
    },
    "properties": {
     "pid": "8587459",
     "name": "콩마당",
     "phone": "02-2201-3965",
     "source": "광장동 - 광나루역 - 콩마당",
     "address": "서울 광진구 아차산로73길 33",
     "website": "http://place.map.daum.net/8587459",
     "category": "콩국수"
    }
   },
   {
    "type": "Feature",
    "geometry": {
     "type": "Point",
     "coordinates": [
      127.010722032742,
      37.6027374309408
     ]
    },
    "properties": {
     "pid": "10380858",
     "name": "봉화묵집",
     "phone": "02-918-1668",
     "source": "정릉동 - 성신여대입구역 - 봉화묵집",
     "address": "서울 성북구 아리랑로19길 46-2",
     "website": "http://place.map.daum.net/10380858",
     "category": "콩국수"
    }
   },
   {
    "type": "Feature",
    "geometry": {
     "type": "Point",
     "coordinates": [
      126.923192501887,
      37.5588922025068
     ]
    },
    "properties": {
     "pid": "18276450",
     "name": "홍대밀방",
     "phone": "02-322-7713",
     "source": "동교동 - 홍대입구역 - 홍대밀방",
     "address": "서울 마포구 동교로 209-1",
     "website": "http://place.map.daum.net/18276450",
     "category": "콩국수"
    }
   },
   {
    "type": "Feature",
    "geometry": {
     "type": "Point",
     "coordinates": [
      127.029451136425,
      37.5871542971092
     ]
    },
    "properties": {
     "pid": "15885047",
     "name": "무아국수집",
     "phone": "02-927-7050",
     "source": "안암동 - 안암역 - 무아국수",
     "address": "서울 성북구 개운사길 18",
     "website": "http://place.map.daum.net/15885047",
     "category": "콩국수"
    }
   },
   {
    "type": "Feature",
    "geometry": {
     "type": "Point",
     "coordinates": [
      127.024192602551,
      37.5014596439074
     ]
    },
    "properties": {
     "pid": "11891754",
     "name": "강남교자",
     "phone": "02-536-4133",
     "source": "서초동 - 강남역 - 강남교자",
     "address": "서울 서초구 강남대로69길 11",
     "website": "http://place.map.daum.net/11891754",
     "category": "콩국수"
    }
   },
   {
    "type": "Feature",
    "geometry": {
     "type": "Point",
     "coordinates": [
      126.986084505317,
      37.5781652360883
     ]
    },
    "properties": {
     "pid": "19158798",
     "name": "깡통만두",
     "phone": "02-794-4243",
     "source": "재동 - 안국역 - 깡통만두",
     "address": "서울 종로구 북촌로2길 5-6",
     "website": "http://place.map.daum.net/19158798",
     "category": "콩국수"
    }
   },
   {
    "type": "Feature",
    "geometry": {
     "type": "Point",
     "coordinates": [
      126.99236540441,
      37.4880584954415
     ]
    },
    "properties": {
     "pid": "11557414",
     "name": "일미옥",
     "phone": "02-533-7199",
     "source": "방배동 - 내방역 - 일미옥",
     "address": "서울 서초구 서초대로19길 10-21",
     "website": "http://place.map.daum.net/11557414",
     "category": "콩국수"
    }
   },
   {
    "type": "Feature",
    "geometry": {
     "type": "Point",
     "coordinates": [
      127.13592868353,
      37.5296682063631
     ]
    },
    "properties": {
     "pid": "8177529",
     "name": "고모네 원조콩탕북어탕",
     "phone": "02-485-4675",
     "source": "성내동 - 둔촌동역 - 고모네콩탕",
     "address": "서울 강동구 풍성로57길 13",
     "website": "http://place.map.daum.net/8177529",
     "category": "콩국수"
    }
   }
  ],
  [
   {
    "type": "Feature",
    "geometry": {
     "type": "Point",
     "coordinates": [
      127.028320605236,
      37.57964028931
     ]
    },
    "properties": {
     "pid": "11110457",
     "name": "어머니대성집",
     "phone": "02-923-1718",
     "source": "용두동 - 신설동역 - 어머니대성집",
     "address": "서울 동대문구 무학로43길 44",
     "website": "http://place.map.daum.net/11110457",
     "category": "국밥, 해장국"
    }
   },
   {
    "type": "Feature",
    "geometry": {
     "type": "Point",
     "coordinates": [
      127.065472540919,
      37.508273597184
     ]
    },
    "properties": {
     "pid": "27531028",
     "name": "중앙해장",
     "phone": "02-558-7905",
     "source": "대치동 - 삼성역 - 중앙해장",
     "address": "서울 강남구 영동대로86길 17",
     "website": "http://place.map.daum.net/27531028",
     "category": "국밥, 해장국"
    }
   },
   {
    "type": "Feature",
    "geometry": {
     "type": "Point",
     "coordinates": [
      126.98502310323119,
      37.564430335182415
     ]
    },
    "properties": {
     "pid": "1822111964",
     "name": "하동관 명동본점",
     "phone": "02-776-5656",
     "source": "명동 - 명동역 - 하동관 (대치동에도 분점)",
     "address": "서울 중구 명동9길 12",
     "website": "http://place.map.daum.net/1822111964",
     "category": "국밥, 해장국"
    }
   },
   {
    "type": "Feature",
    "geometry": {
     "type": "Point",
     "coordinates": [
      126.98658716122,
      37.578089610761
     ]
    },
    "properties": {
     "pid": "1437474739",
     "name": "터줏골명가",
     "phone": "02-747-5655",
     "source": "무교동 - 을지로 입구역 - 터줏골",
     "address": "서울 종로구 계동길 17",
     "website": "http://place.map.daum.net/1437474739",
     "category": "국밥, 해장국"
    }
   },
   {
    "type": "Feature",
    "geometry": {
     "type": "Point",
     "coordinates": [
      126.97944890786793,
      37.571717650682224
     ]
    },
    "properties": {
     "pid": "27540102",
     "name": "청진옥 본점",
     "phone": "02-735-1690",
     "source": "종로1가 - 광화문역 - 청진옥",
     "address": "서울 종로구 종로3길 32",
     "website": "http://place.map.daum.net/27540102",
     "category": "국밥, 해장국"
    }
   },
   {
    "type": "Feature",
    "geometry": {
     "type": "Point",
     "coordinates": [
      126.980271942886,
      37.5713925318325
     ]
    },
    "properties": {
     "pid": "16445173",
     "name": "흥진옥",
     "phone": "02-732-2214",
     "source": "종로1가 - 광화문역 - 흥진옥",
     "address": "서울 종로구 종로5길 19-12",
     "website": "http://place.map.daum.net/16445173",
     "category": "국밥, 해장국"
    }
   },
   {
    "type": "Feature",
    "geometry": {
     "type": "Point",
     "coordinates": [
      126.988322446293,
      37.5720423191573
     ]
    },
    "properties": {
     "pid": "8041476",
     "name": "유진식당",
     "phone": "02-764-2835",
     "source": "낙원동 - 종로 3가역 - 유진식당",
     "address": "서울 종로구 종로17길 40",
     "website": "http://place.map.daum.net/8041476",
     "category": "국밥, 해장국"
    }
   },
   {
    "type": "Feature",
    "geometry": {
     "type": "Point",
     "coordinates": [
      126.973977275672,
      37.5348864781984
     ]
    },
    "properties": {
     "pid": "8122347",
     "name": "평양집",
     "phone": "02-793-6866",
     "source": "한강로1가 - 삼각지역 - 평양집",
     "address": "서울 용산구 한강대로 186",
     "website": "http://place.map.daum.net/8122347",
     "category": "국밥, 해장국"
    }
   },
   {
    "type": "Feature",
    "geometry": {
     "type": "Point",
     "coordinates": [
      126.960412992937,
      37.5363747672842
     ]
    },
    "properties": {
     "pid": "10469081",
     "name": "창성옥 용문본점",
     "phone": "02-718-2878",
     "source": "용문동 - 효창공원역 - 창성옥",
     "address": "서울 용산구 새창로 124-10",
     "website": "http://place.map.daum.net/10469081",
     "category": "국밥, 해장국"
    }
   },
   {
    "type": "Feature",
    "geometry": {
     "type": "Point",
     "coordinates": [
      126.960882841969,
      37.5379678925348
     ]
    },
    "properties": {
     "pid": "10617612",
     "name": "용문해장국",
     "phone": "02-712-6290",
     "source": "용문동 - 효창공원역 - 용문해장국",
     "address": "서울 용산구 효창원로 110",
     "website": "http://place.map.daum.net/10617612",
     "category": "국밥, 해장국"
    }
   },
   {
    "type": "Feature",
    "geometry": {
     "type": "Point",
     "coordinates": [
      126.96087289948,
      37.5396725814949
     ]
    },
    "properties": {
     "pid": "15888481",
     "name": "한성옥해장국",
     "phone": "02-718-9031",
     "source": "용문동 - 효창공원역 - 한성옥",
     "address": "서울 용산구 백범로 283",
     "website": "http://place.map.daum.net/15888481",
     "category": "국밥, 해장국"
    }
   },
   {
    "type": "Feature",
    "geometry": {
     "type": "Point",
     "coordinates": [
      127.05579495970723,
      37.50447271946909
     ]
    },
    "properties": {
     "pid": "10406623",
     "name": "반룡산",
     "phone": "02-3446-8966",
     "source": "대치동 - 선릉역 - 반룡산",
     "address": "서울 강남구 테헤란로78길 26",
     "website": "http://place.map.daum.net/10406623",
     "category": "국밥, 해장국"
    }
   },
   {
    "type": "Feature",
    "geometry": {
     "type": "Point",
     "coordinates": [
      127.043469060789,
      37.6280044396834
     ]
    },
    "properties": {
     "pid": "8154336",
     "name": "할머니해장국",
     "phone": "02-915-1541",
     "source": "장위동 - 돌곶이역 - 할머니 해장국",
     "address": "서울 강북구 월계로37길 137-6",
     "website": "http://place.map.daum.net/8154336",
     "category": "국밥, 해장국"
    }
   },
   {
    "type": "Feature",
    "geometry": {
     "type": "Point",
     "coordinates": [
      126.952868556886,
      37.5435007087768
     ]
    },
    "properties": {
     "pid": "27113128",
     "name": "진시황북어국",
     "phone": "02-703-5970",
     "source": "공덕동 - 공덕역 - 진시황북어국",
     "address": "서울 마포구 백범로 199",
     "website": "http://place.map.daum.net/27113128",
     "category": "국밥, 해장국"
    }
   },
   {
    "type": "Feature",
    "geometry": {
     "type": "Point",
     "coordinates": [
      126.924526028882,
      37.5563666665857
     ]
    },
    "properties": {
     "pid": "8431668",
     "name": "돈수백 홍대본점",
     "phone": "02-324-3131",
     "source": "서교동 - 홍대입구역 - 돈수백",
     "address": "서울 마포구 홍익로6길 56",
     "website": "http://place.map.daum.net/8431668",
     "category": "국밥, 해장국"
    }
   },
   {
    "type": "Feature",
    "geometry": {
     "type": "Point",
     "coordinates": [
      126.941364709741,
      37.5412250380936
     ]
    },
    "properties": {
     "pid": "13290723",
     "name": "서씨네해장국",
     "phone": "02-712-6134",
     "source": "용강동 - 마포역 - 서씨네해장국",
     "address": "서울 마포구 토정로 290",
     "website": "http://place.map.daum.net/13290723",
     "category": "국밥, 해장국"
    }
   },
   {
    "type": "Feature",
    "geometry": {
     "type": "Point",
     "coordinates": [
      126.95562695718121,
      37.608913970869004
     ]
    },
    "properties": {
     "pid": "8072537",
     "name": "장모님해장국",
     "phone": "02-379-4294",
     "source": "구기동 - 홍제역 - 장모님 해장국",
     "address": "서울 종로구 진흥로 421",
     "website": "http://place.map.daum.net/8072537",
     "category": "국밥, 해장국"
    }
   },
   {
    "type": "Feature",
    "geometry": {
     "type": "Point",
     "coordinates": [
      126.928280236177,
      37.6021863442287
     ]
    },
    "properties": {
     "pid": "10188825",
     "name": "우주미",
     "phone": "02-354-7788",
     "source": "녹번동 - 녹번역 - 우주미",
     "address": "서울 은평구 은평로 185",
     "website": "http://place.map.daum.net/10188825",
     "category": "국밥, 해장국"
    }
   },
   {
    "type": "Feature",
    "geometry": {
     "type": "Point",
     "coordinates": [
      126.985709984841,
      37.5712095123052
     ]
    },
    "properties": {
     "pid": "11120041",
     "name": "시골집",
     "phone": "02-734-0525",
     "source": "인사동 - 종각역 - 시골집",
     "address": "서울 종로구 종로11길 22",
     "website": "http://place.map.daum.net/11120041",
     "category": "국밥, 해장국"
    }
   },
   {
    "type": "Feature",
    "geometry": {
     "type": "Point",
     "coordinates": [
      126.97840505445268,
      37.56261716273881
     ]
    },
    "properties": {
     "pid": "13320663",
     "name": "김명자굴국밥 북창점",
     "phone": "02-777-9003",
     "source": "북창동 - 시청역 - 김명자굴국밥",
     "address": "서울 중구 세종대로14길 28-3",
     "website": "http://place.map.daum.net/13320663",
     "category": "국밥, 해장국"
    }
   },
   {
    "type": "Feature",
    "geometry": {
     "type": "Point",
     "coordinates": [
      126.973066389355,
      37.563444324974
     ]
    },
    "properties": {
     "pid": "10854191",
     "name": "청송옥",
     "phone": "02-754-1547",
     "source": "서소문동 - 시청역 - 청송옥",
     "address": "서울 중구 서소문로11길 14",
     "website": "http://place.map.daum.net/10854191",
     "category": "국밥, 해장국"
    }
   },
   {
    "type": "Feature",
    "geometry": {
     "type": "Point",
     "coordinates": [
      126.97808302486,
      37.5625695942553
     ]
    },
    "properties": {
     "pid": "7863695",
     "name": "마산집",
     "phone": "02-752-2415",
     "source": "북창동 - 시청역 - 마산집",
     "address": "서울 중구 세종대로14길 22-5",
     "website": "http://place.map.daum.net/7863695",
     "category": "국밥, 해장국"
    }
   },
   {
    "type": "Feature",
    "geometry": {
     "type": "Point",
     "coordinates": [
      126.99867747746863,
      37.59264771033254
     ]
    },
    "properties": {
     "pid": "12178605",
     "name": "마전터",
     "phone": "02-765-7575",
     "source": "성북동 - 한성대입구역 - 마전터",
     "address": "서울 성북구 혜화로 82-2",
     "website": "http://place.map.daum.net/12178605",
     "category": "국밥, 해장국"
    }
   },
   {
    "type": "Feature",
    "geometry": {
     "type": "Point",
     "coordinates": [
      127.018496264135,
      37.5156028446266
     ]
    },
    "properties": {
     "pid": "11044398",
     "name": "강남따로국밥",
     "phone": "02-543-2527",
     "source": "잠원동 - 신사역 - 강남따로국밥",
     "address": "서울 서초구 신반포로47길 119",
     "website": "http://place.map.daum.net/11044398",
     "category": "국밥, 해장국"
    }
   },
   {
    "type": "Feature",
    "geometry": {
     "type": "Point",
     "coordinates": [
      126.955145715438,
      37.5578166567904
     ]
    },
    "properties": {
     "pid": "20616798",
     "name": "북성해장국",
     "phone": "02-364-3779",
     "source": "아현동 - 아현역 - 북성해장국",
     "address": "서울 서대문구 신촌로35길 7",
     "website": "http://place.map.daum.net/20616798",
     "category": "국밥, 해장국"
    }
   },
   {
    "type": "Feature",
    "geometry": {
     "type": "Point",
     "coordinates": [
      126.894407527456,
      37.5374298110161
     ]
    },
    "properties": {
     "pid": "13499678",
     "name": "원조북어국",
     "phone": "02-2676-2849",
     "source": "양평동 - 선유도역 - 원조북어국",
     "address": "서울 영등포구 양평로 117-1",
     "website": "http://place.map.daum.net/13499678",
     "category": "국밥, 해장국"
    }
   },
   {
    "type": "Feature",
    "geometry": {
     "type": "Point",
     "coordinates": [
      127.008073730463,
      37.5339340084116
     ]
    },
    "properties": {
     "pid": "11911367",
     "name": "한남북엇국",
     "phone": "02-2297-1988",
     "source": "한남동 - 한남역 - 한남북엇국",
     "address": "서울 용산구 독서당로 65-7",
     "website": "http://place.map.daum.net/11911367",
     "category": "국밥, 해장국"
    }
   },
   {
    "type": "Feature",
    "geometry": {
     "type": "Point",
     "coordinates": [
      127.043921623659,
      37.5036524098749
     ]
    },
    "properties": {
     "pid": "9444940",
     "name": "가붕황태마을",
     "phone": "02-560-3466",
     "source": "역삼동 - 역삼역 - 가붕황태마을",
     "address": "",
     "website": "http://place.map.daum.net/9444940",
     "category": "국밥, 해장국"
    }
   },
   {
    "type": "Feature",
    "geometry": {
     "type": "Point",
     "coordinates": [
      126.910268347444,
      37.6034750540259
     ]
    },
    "properties": {
     "pid": "16705141",
     "name": "대관령황태마을 역촌점",
     "phone": "02-382-5671",
     "source": "역촌동 - 응암역 - 대관령황태마을",
     "address": "서울 은평구 갈현로 61",
     "website": "http://place.map.daum.net/16705141",
     "category": "국밥, 해장국"
    }
   },
   {
    "type": "Feature",
    "geometry": {
     "type": "Point",
     "coordinates": [
      127.018663904071,
      37.5165362580438
     ]
    },
    "properties": {
     "pid": "9957512",
     "name": "유명국양평해장국",
     "phone": "02-544-7777",
     "source": "잠원동 - 신사역 - 유명국 양평 해장국",
     "address": "서울 서초구 강남대로101길 11",
     "website": "http://place.map.daum.net/9957512",
     "category": "국밥, 해장국"
    }
   },
   {
    "type": "Feature",
    "geometry": {
     "type": "Point",
     "coordinates": [
      126.918742624626,
      37.6169383649968
     ]
    },
    "properties": {
     "pid": "16414674",
     "name": "원조양평해장국 직영점",
     "phone": "02-354-5058",
     "source": "불광동 - 연신내역 - 미소복 양평 해장국",
     "address": "서울 은평구 연서로 203",
     "website": "http://place.map.daum.net/16414674",
     "category": "국밥, 해장국"
    }
   },
   {
    "type": "Feature",
    "geometry": {
     "type": "Point",
     "coordinates": [
      127.080314226667,
      37.510787250902
     ]
    },
    "properties": {
     "pid": "21233965",
     "name": "원조양평해장국 잠실점",
     "phone": "02-415-1126",
     "source": "잠실동 - 신천역 - 원조 양평 해장국",
     "address": "서울 송파구 올림픽로8길 11",
     "website": "http://place.map.daum.net/21233965",
     "category": "국밥, 해장국"
    }
   },
   {
    "type": "Feature",
    "geometry": {
     "type": "Point",
     "coordinates": [
      127.002939430541,
      37.5923512547806
     ]
    },